timeTick, roll, pitch, yaw, stateX, stateY, stateZ, stateVX, stateVY, stateVZ, otX0, otY0, otZ0, otRoll0, otPitch0, otYaw0, left wing, pitch motor, yaw motor, right wing, voltage, roll rate, pitch rate, yaw rate, A_x, A_y, A_z, current, i_raw, v_raw, airflow_voltage, airflow_speed, pot_Pitch, voltage_nKF, kFFx, state, State, volt_KF
9751, 0.12258148938417435, -0.7466561794281006, -0.46546900272369385, 0, 0, 0, 0, 0, 0, -0.8396528363227844, -0.9608322381973267, 0.05681167170405388, -0.4480546823642758, 0.6597156956730714, -0.3748677409369872, 0, 0, 0, 0, 0, 0, 0, 0, 0, 0, 0, 0, 0, 0, 0, 0, 0, 0, 0, 0, 0, 0
9761, 0.12313636392354965, -0.7478477358818054, -0.4638269245624542, -4.120500307180919e-05, 6.850149020465324e-06, -1.0378845930099487, -0.0007818059530109167, 0.00012591439008247107, -0.255742609500885, -0.8396536707878113, -0.9608353972434998, 0.056808385998010635, -0.451986904556619, 0.6681925670758346, -0.37395072207364244, 9362.0, 30146.0, 35388.0, 9362.0, 0, -0.22111530601978302, -0.2726830542087555, 0.04926074296236038, -0.07443947345018387, -0.0012732374016195536, 0.9974850416183472, 0, 0, 0, 0, 0, 0, 0, 0, 0, 0, 0
9771, 0.122121162712574, -0.7459968328475952, -0.4631843566894531, -4.2650786781450734e-05, 7.00986674928572e-06, -1.040442943572998, 0.0004926517722196877, -9.3932801974006e-05, -0.25591689348220825, -0.8396570682525635, -0.9608429670333862, 0.05681050941348076, -0.4382235065985778, 0.6677643892393519, -0.37046177047747736, 9362.0, 30146.0, 35388.0, 9362.0, 0, 0.1431397646665573, -0.2436298429965973, -0.0857706367969513, -0.07553954422473907, -0.0024631028063595295, 0.9964959621429443, 0, 0, 0, 1.636962890625, 0.5064239501953125, 0, 1.660400390625, 10.0, 1.0, 10.0, 1.6424574851989746
9781, 0.12326124310493469, -0.7433986663818359, -0.4645785689353943, -3.134690996375866e-05, 4.967350832885131e-06, -1.0430033206939697, 0.0017681338358670473, -0.0003145601658616215, -0.25616931915283203, -0.8396538496017456, -0.9608322978019714, 0.056820981204509735, -0.4549584324562593, 0.6735065594502316, -0.3732739473462962, 9362.0, 30146.0, 35388.0, 9362.0, 0, -0.23012784123420715, -0.05804293602705002, -0.2341395765542984, -0.07525279372930527, -0.00288540031760931, 0.9946777820587158, 0, 0, 0, 1.705078125, 0.6816864013671875, 1.502197265625, 1.61572265625, 10.0, 1.0, 10.0, 1.6423702239990234
9791, 0.1225285604596138, -0.7421298027038574, -0.4655541479587555, -7.310640285140835e-06, 7.28583472664468e-07, -1.0455667972564697, 0.003039130475372076, -0.000533217447809875, -0.25652480125427246, -0.839640736579895, -0.960837721824646, 0.056796323508024216, -0.4504716825184283, 0.6700025456486856, -0.3682889679148317, 9362.0, 30146.0, 35388.0, 9362.0, 0, 0.035732295364141464, -0.1957480013370514, -0.1565287709236145, -0.07378774881362915, 0.00033829404856078327, 0.9967719912528992, 0, 0, 0, 1.67138671875, 0.5928802490234375, 1.502197265625, 1.62890625, 10.0, 1.0, 10.0, 1.6423263549804688
9801, 0.12253627181053162, -0.7408901453018188, -0.46552833914756775, 2.940298327303026e-05, -5.704654540750198e-06, -1.0481345653533936, 0.004303600639104843, -0.0007534580654464662, -0.25704002380371094, -0.8396695852279663, -0.9608264565467834, 0.05680757015943527, -0.4523818568319225, 0.6699716774620583, -0.37677364824545534, 9362.0, 30146.0, 35388.0, 9362.0, 0, -0.1684075891971588, -0.07713446766138077, 0.21064269542694092, -0.07387199252843857, -0.0020405573304742575, 0.9970299601554871, 0, 0, 0, 1.626708984375, 0.4812774658203125, 1.502197265625, 1.60986328125, 10.0, 1.0, 10.0, 1.6422204971313477
9811, 0.12120082974433899, -0.7405040264129639, -0.4635995328426361, 7.876134623074904e-05, -1.4335954801936168e-05, -1.0507067441940308, 0.005568081513047218, -0.0009728014119900763, -0.2573878765106201, -0.8396846652030945, -0.9608467817306519, 0.05683712661266327, -0.44446218788121566, 0.6862536156490933, -0.3746682908992755, 9362.0, 30146.0, 35388.0, 9362.0, 0, 0.08338405191898346, 0.10568246990442276, 0.022424660623073578, -0.07195620983839035, -0.001859217300079763, 0.9993816614151001, 0, 0, 0, 1.68896484375, 0.6385955810546875, 1.502197265625, 1.6259765625, 10.0, 1.0, 10.0, 1.642167568206787
9821, 0.12129868566989899, -0.7397912740707397, -0.4632962942123413, 0.00014075907529331744, -2.5161558369291015e-05, -1.0532820224761963, 0.006831472739577293, -0.0011922824196517467, -0.2576562464237213, -0.8396560549736023, -0.9608268141746521, 0.05684109777212143, -0.45670211424967516, 0.6711547835833187, -0.3742020659263047, 9362.0, 30146.0, 35388.0, 9362.0, 0, -0.09117045998573303, 0.04273189231753349, -0.004200567025691271, -0.07390295714139938, -0.0017512721242383122, 0.9992913007736206, 0, 0, 0, 1.65380859375, 0.548309326171875, 1.4970703125, 1.6494140625, 10.0, 1.0, 10.0, 1.6421911716461182
9831, 0.12072648108005524, -0.7397255897521973, -0.4624531865119934, 0.0002153988170903176, -3.817226752289571e-05, -1.055859088897705, 0.008096479810774326, -0.0014098526444286108, -0.25775012373924255, -0.8396533727645874, -0.9608398675918579, 0.05681125819683075, -0.44709476313149327, 0.6663089463812923, -0.37267666361314505, 9362.0, 30146.0, 35388.0, 9362.0, 0, 0.0997815802693367, -0.011789960786700249, 0.15089993178844452, -0.07311120629310608, -0.0029721565078943968, 0.9976491928100586, 0, 0, 0, 1.7109375, 0.6976776123046875, 1.4970703125, 1.65673828125, 10.0, 1.0, 10.0, 1.6422386169433594
9841, 0.12127943336963654, -0.7390345335006714, -0.4617200791835785, 0.00030268210684880614, -5.3359359299065545e-05, -1.0584371089935303, 0.009360181167721748, -0.0016275476664304733, -0.25785061717033386, -0.839686930179596, -0.9608417749404907, 0.05683767423033714, -0.44990493084047445, 0.7006224233010983, -0.3798959452738412, 9362.0, 30146.0, 35388.0, 9362.0, 0, -0.03748133406043053, 0.436955988407135, 0.14463917911052704, -0.07414077967405319, -0.004171611275523901, 0.996598482131958, 0, 0, 0, 1.557861328125, 0.3195037841796875, 1.50146484375, 1.594482421875, 10.0, 1.0, 10.0, 1.642082929611206
9851, 0.12077989429235458, -0.739875853061676, -0.4616807997226715, 0.0004025941889267415, -7.071708387229592e-05, -1.0610166788101196, 0.0106222378090024, -0.0018439796986058354, -0.25807085633277893, -0.8396695256233215, -0.9608330726623535, 0.05684565007686615, -0.4489633031238354, 0.6744757296240209, -0.37588378857263444, 9362.0, 30146.0, 35388.0, 9362.0, 8.271075248718262, 0.19864800572395325, -0.0014500974211841822, 0.1295410841703415, -0.07224127650260925, -0.0012689183931797743, 0.9971194863319397, -0.06825602799654007, 0.06792068481445312, 1.50146484375, 1.61865234375, 0.461822509765625, 1.50146484375, 1.669189453125, 10.0, 1.0, 10.0, 1.6421712636947632
9861, 0.12245576083660126, -0.7399099469184875, -0.4610882103443146, 0.000515113293658942, -9.024242172017694e-05, -1.0635991096496582, 0.011881587095558643, -0.0020610892679542303, -0.2584087550640106, -0.839661717414856, -0.9608462452888489, 0.05683964863419533, -0.4544823986318541, 0.6753902518686346, -0.37067025882179316, 9362.0, 30146.0, 35388.0, 9362.0, 8.271075248718262, -0.03060608170926571, -0.1920950561761856, -0.0981629490852356, -0.07201923429965973, -0.0018948318902403116, 0.9995467662811279, -0.06825602799654007, 0.06792068481445312, 1.50146484375, 1.69189453125, 0.6463165283203125, 1.496337890625, 1.62744140625, 10.0, 1.0, 10.0, 1.6421232223510742
9871, 0.1222018152475357, -0.7392046451568604, -0.46188756823539734, 0.0006402370636351407, -0.0001119353182730265, -1.066184639930725, 0.013143164105713367, -0.0022774692624807358, -0.2586858570575714, -0.8396602869033813, -0.9608344435691833, 0.05684753879904747, -0.4531400722027087, 0.6792272099910974, -0.37162192771198804, 9362.0, 30146.0, 35388.0, 9362.0, 8.271075248718262, -0.11969862878322601, -0.4209132492542267, -0.4381638169288635, -0.07298851013183594, -0.0037644316907972097, 0.9976567625999451, -0.06825602799654007, 0.06792068481445312, 1.50146484375, 1.645751953125, 0.5281219482421875, 1.496337890625, 1.660400390625, 10.0, 1.0, 10.0, 1.64218270778656
9881, 0.12270495295524597, -0.7375377416610718, -0.46395012736320496, 0.0007779905572533607, -0.0001358086446998641, -1.0687718391418457, 0.014407527633011341, -0.0024972138926386833, -0.25874999165534973, -0.8396705985069275, -0.9608354568481445, 0.05681079998612404, -0.45307778826860773, 0.6701053095216309, -0.37633075711016284, 9362.0, 30146.0, 35388.0, 9362.0, 8.271075248718262, -0.1438426524400711, 0.03907269611954689, 0.1596020609140396, -0.07409452646970749, -0.002615054603666067, 0.9967166781425476, -0.06825602799654007, 0.06792068481445312, 1.50146484375, 1.66259765625, 0.5705108642578125, 1.496337890625, 1.67724609375, 10.0, 1.0, 10.0, 1.6422969102859497
9891, 0.12238277494907379, -0.739189863204956, -0.4626181721687317, 0.0009283731924369931, -0.00016187581059057266, -1.0713603496551514, 0.015668993815779686, -0.0027162644546478987, -0.2589450776576996, -0.8396972417831421, -0.9608389735221863, 0.05686533451080322, -0.44878488274631173, 0.6982543310868152, -0.38239037761816375, 9362.0, 30146.0, 35388.0, 9362.0, 8.271075248718262, 0.06257890164852142, 0.09628941863775253, -0.10689370334148407, -0.07523271441459656, -0.0014116826932877302, 0.9979461431503296, -0.06825602799654007, 0.06792068481445312, 1.50146484375, 1.64501953125, 0.5263671875, 1.496337890625, 1.6787109375, 10.0, 1.0, 10.0, 1.6424155235290527
9901, 0.1225382462143898, -0.7401813268661499, -0.4630384147167206, 0.0010913489386439323, -0.00019013663404621184, -1.0739513635635376, 0.016926147043704987, -0.0029358731117099524, -0.2592529356479645, -0.8396705389022827, -0.9608452916145325, 0.056826964020729065, -0.44048991221901124, 0.6893518210081311, -0.3800235672631392, 9362.0, 30146.0, 35388.0, 9362.0, 8.271075248718262, -0.03123251162469387, -0.11432839930057526, -0.12211120873689651, -0.0718451663851738, -0.0030133521649986506, 0.9982519149780273, -0.06825602799654007, 0.06792068481445312, 1.50146484375, 1.60400390625, 0.4266204833984375, 1.50146484375, 1.682373046875, 10.0, 1.0, 10.0, 1.6425455808639526
9911, 0.12204322963953018, -0.7404014468193054, -0.4640727937221527, 0.001266916049644351, -0.0002205917553510517, -1.076545000076294, 0.01818726770579815, -0.0031551599968224764, -0.2594720423221588, -0.8396520018577576, -0.9608420729637146, 0.05680441856384277, -0.4444544164853836, 0.6712759305855514, -0.367520961902084, 9362.0, 30146.0, 35388.0, 9362.0, 8.271075248718262, 0.29731690883636475, -0.09806620329618454, 0.24444933235645294, -0.07332947850227356, -0.002087858971208334, 0.9982458353042603, -0.06825602799654007, 0.06792068481445312, 1.50146484375, 1.66552734375, 0.5779266357421875, 1.50146484375, 1.607666015625, 10.0, 1.0, 10.0, 1.6424320936203003
9921, 0.1231602281332016, -0.7399568557739258, -0.46374639868736267, 0.0014551058411598206, -0.00025324171292595565, -1.079140543937683, 0.01945069618523121, -0.0033748571295291185, -0.2596439719200134, -0.8396856188774109, -0.9608425498008728, 0.05682201683521271, -0.44653649582909727, 0.6889494844868409, -0.37659621789433784, 9362.0, 30146.0, 35388.0, 9362.0, 8.271075248718262, -0.34669795632362366, -0.22849904000759125, -0.18700526654720306, -0.07310593128204346, -0.002332858508452773, 0.9983285069465637, -0.06825602799654007, 0.06792068481445312, 1.50146484375, 1.70947265625, 0.693572998046875, 1.490478515625, 1.689697265625, 10.0, 1.0, 10.0, 1.6425858736038208
9931, 0.12144701182842255, -0.7369654774665833, -0.4658668339252472, 0.0016559305367991328, -0.0002880843239836395, -1.081737995147705, 0.020714234560728073, -0.0035936529748141766, -0.2598365247249603, -0.8396419286727905, -0.9608328938484192, 0.05681106820702553, -0.45385843686138494, 0.6666353241222112, -0.36798455676903835, 9362.0, 30146.0, 35388.0, 9362.0, 8.271075248718262, 0.12517228722572327, -0.35312628746032715, -0.1759624183177948, -0.07263875007629395, -0.0007580115343444049, 0.9970399737358093, -0.06825602799654007, 0.06792068481445312, 1.50146484375, 1.60986328125, 0.4406585693359375, 1.490478515625, 1.660400390625, 10.0, 1.0, 10.0, 1.6426438093185425
9941, 0.1233147531747818, -0.7340213656425476, -0.4680800437927246, 0.0018693869933485985, -0.000325124419759959, -1.0843373537063599, 0.021977057680487633, -0.003814416006207466, -0.2600248456001282, -0.839661180973053, -0.960830569267273, 0.05685684084892273, -0.45315984935591364, 0.6720506944380702, -0.36766810560002916, 9362.0, 30146.0, 35388.0, 9362.0, 8.271075248718262, -0.14739350974559784, -0.2750602960586548, -0.2998157739639282, -0.07387351244688034, -0.001421795110218227, 0.9965442419052124, -0.06825602799654007, 0.06792068481445312, 1.50146484375, 1.642822265625, 0.5209503173828125, 1.493408203125, 1.61279296875, 10.0, 1.0, 10.0, 1.6425466537475586
9951, 0.12397443503141403, -0.7317372560501099, -0.47060561180114746, 0.002095439238473773, -0.0003643563250079751, -1.0869390964508057, 0.023233409970998764, -0.0040320055559277534, -0.26032039523124695, -0.8396537899971008, -0.9608440399169922, 0.0568048357963562, -0.4493274379608544, 0.6699647259507628, -0.37301671244118356, 9362.0, 30146.0, 35388.0, 9362.0, 8.271075248718262, -0.09685033559799194, -0.0038271439261734486, 0.22774173319339752, -0.07346043735742569, -0.0017656973795965314, 0.9995012283325195, -0.06666101515293121, 0.07688140869140625, 1.502197265625, 1.6669921875, 0.5816650390625, 1.493408203125, 1.673583984375, 10.0, 1.0, 10.0, 1.642647624015808
9961, 0.12263673543930054, -0.730922520160675, -0.4688636064529419, 0.00233402568846941, -0.0004057793994434178, -1.0895440578460693, 0.024483900517225266, -0.004252661485224962, -0.26067841053009033, -0.8396726250648499, -0.9608334302902222, 0.05682137608528137, -0.4540421405517553, 0.6746777772978874, -0.37367167352498065, 9362.0, 30146.0, 35388.0, 9362.0, 8.271075248718262, -0.01310979388654232, 0.03310201317071915, -0.2969454824924469, -0.07302547246217728, -0.0016157908830791712, 0.9993662238121033, -0.06666101515293121, 0.07688140869140625, 1.502197265625, 1.6611328125, 0.566650390625, 1.494873046875, 1.68603515625, 10.0, 1.0, 10.0, 1.6427886486053467
9971, 0.12235568463802338, -0.7304341197013855, -0.47062599658966064, 0.002585115609690547, -0.00044941797386854887, -1.092151165008545, 0.025734078139066696, -0.004475018475204706, -0.26075413823127747, -0.8396663665771484, -0.9608311057090759, 0.056829825043678284, -0.45200956596843694, 0.6795922412288178, -0.37256269350399246, 9362.0, 30146.0, 35388.0, 9362.0, 8.271075248718262, 0.09689953923225403, -0.28213390707969666, 0.1873357892036438, -0.07004045695066452, -0.0032377163879573345, 0.9973453879356384, -0.06666101515293121, 0.07688140869140625, 1.502197265625, 1.656005859375, 0.553802490234375, 1.494873046875, 1.6376953125, 10.0, 1.0, 10.0, 1.6427720785140991
9981, 0.12314867973327637, -0.7283843755722046, -0.46875056624412537, 0.0028487006202340126, -0.0004952684976160526, -1.0947591066360474, 0.026982946321368217, -0.004695125389844179, -0.2608243525028229, -0.839660108089447, -0.9608469605445862, 0.056828588247299194, -0.4536171617323327, 0.6784043795159107, -0.37326075469535136, 9362.0, 30146.0, 35388.0, 9362.0, 8.271075248718262, 0.030366836115717888, 0.19980022311210632, 0.30336445569992065, -0.07296349853277206, -0.0027268456760793924, 0.9978145956993103, -0.06666101515293121, 0.07688140869140625, 1.502197265625, 1.634765625, 0.5010528564453125, 1.5, 1.6669921875, 10.0, 1.0, 10.0, 1.6428507566452026
9991, 0.12319323420524597, -0.7295207381248474, -0.46588659286499023, 0.0031247581355273724, -0.0005433157202787697, -1.097368597984314, 0.02822856791317463, -0.004914273042231798, -0.2610851526260376, -0.8396680355072021, -0.9608479142189026, 0.056814659386873245, -0.4497398274687181, 0.6791849529638512, -0.3801462865279007, 9362.0, 30146.0, 35388.0, 9362.0, 8.271075248718262, 0.04728682339191437, 0.03124549798667431, -0.021765654906630516, -0.07475051283836365, -0.0023884435649961233, 0.996871292591095, -0.06666101515293121, 0.07688140869140625, 1.502197265625, 1.65234375, 0.5445709228515625, 1.5, 1.6904296875, 10.0, 1.0, 10.0, 1.64300537109375
10001, 0.12337880581617355, -0.7303693890571594, -0.46513473987579346, 0.003413254162296653, -0.0005935608060099185, -1.0999807119369507, 0.029470667243003845, -0.005134684965014458, -0.26134711503982544, -0.8396634459495544, -0.9608381390571594, 0.05683493614196777, -0.45166899552074086, 0.6789836764999109, -0.3763126063361497, 9362.0, 30146.0, 35388.0, 9362.0, 8.271075248718262, 0.23944324254989624, 0.2328389585018158, -0.1334107220172882, -0.0741218850016594, -0.0021211581770330667, 0.9988930821418762, -0.06666101515293121, 0.07688140869140625, 1.502197265625, 1.704345703125, 0.67974853515625, 1.496337890625, 1.658935546875, 10.0, 1.0, 10.0, 1.643057107925415
10011, 0.12542256712913513, -0.7320034503936768, -0.4649244546890259, 0.0037141789216548204, -0.0006460098084062338, -1.1025956869125366, 0.03071427345275879, -0.005355094559490681, -0.2616429626941681, -0.8396762013435364, -0.9608427286148071, 0.05680792033672333, -0.4504341441901964, 0.6814708263480043, -0.36838130434033795, 9362.0, 30146.0, 35388.0, 9362.0, 8.271075248718262, -0.045158419758081436, 0.1272749900817871, 0.24558056890964508, -0.07437911629676819, -0.0013049705885350704, 0.9967142939567566, -0.06666101515293121, 0.07688140869140625, 1.502197265625, 1.685302734375, 0.6289520263671875, 1.496337890625, 1.705078125, 10.0, 1.0, 10.0, 1.6432585716247559
10021, 0.12514081597328186, -0.7308923602104187, -0.46312206983566284, 0.004027554765343666, -0.0007006658124737442, -1.105212926864624, 0.03196088597178459, -0.005576100666075945, -0.2618162930011749, -0.8396727442741394, -0.9608255624771118, 0.05682005360722542, -0.4495268683639393, 0.6752807869335982, -0.37896064150138675, 9362.0, 30146.0, 35388.0, 9362.0, 8.271075248718262, -0.11385080218315125, -0.023104174062609673, -0.09802939742803574, -0.07410165667533875, -0.002082602819427848, 0.9957636594772339, -0.06666101515293121, 0.07688140869140625, 1.502197265625, 1.66845703125, 0.5852813720703125, 1.496337890625, 1.646484375, 10.0, 1.0, 10.0, 1.6432690620422363
10031, 0.12458943575620651, -0.7290912866592407, -0.4642065167427063, 0.004353401251137257, -0.0007575477939099073, -1.107832670211792, 0.03320840001106262, -0.00580025278031826, -0.26213693618774414, -0.8396779298782349, -0.9608355760574341, 0.056819457560777664, -0.4500971493778972, 0.6821705753059177, -0.3738371982048181, 9362.0, 30146.0, 35388.0, 9362.0, 8.271075248718262, -0.26792672276496887, -0.18012294173240662, 0.01896703615784645, -0.07315661758184433, -0.0018216364551335573, 0.9989686012268066, -0.06666101515293121, 0.07688140869140625, 1.502197265625, 1.692626953125, 0.648193359375, 1.496337890625, 1.616455078125, 10.0, 1.0, 10.0, 1.6431820392608643
10041, 0.1241254061460495, -0.7279561758041382, -0.4641236960887909, 0.00469170743599534, -0.0008166675688698888, -1.110456109046936, 0.034452877938747406, -0.006023726891726255, -0.2625483274459839, -0.8396809101104736, -0.960839569568634, 0.05682915449142456, -0.44838375577772926, 0.6754578914471949, -0.37157789719667406, 9362.0, 30146.0, 35388.0, 9362.0, 8.271075248718262, 0.19914661347866058, 0.4059322774410248, -0.001405447837896645, -0.07168640196323395, -0.0019176723435521126, 0.9969839453697205, -0.06666101515293121, 0.07688140869140625, 1.502197265625, 1.63623046875, 0.504730224609375, 1.5, 1.707275390625, 10.0, 1.0, 10.0, 1.64339017868042
10051, 0.12541380524635315, -0.7310435175895691, -0.4639219641685486, 0.005042458884418011, -0.0008780201897025108, -1.1130824089050293, 0.035697415471076965, -0.006246794480830431, -0.2627122402191162, -0.8396639227867126, -0.9608377814292908, 0.056807197630405426, -0.44069828568829233, 0.6693207368092544, -0.36627037304733895, 9362.0, 30146.0, 35388.0, 9362.0, 8.271075248718262, -0.1689407080411911, 0.12089984863996506, 0.07438110560178757, -0.07305927574634552, -0.0020292180124670267, 0.9972026944160461, -0.04366157203912735, 0.014162063598632812, 1.4970703125, 1.70068359375, 0.6697845458984375, 1.5, 1.58056640625, 10.0, 1.0, 10.0, 1.6431862115859985
10061, 0.12400040775537491, -0.7313470840454102, -0.4627210795879364, 0.005405638832598925, -0.0009415981476195157, -1.1157108545303345, 0.03693859651684761, -0.006468791048973799, -0.2629871368408203, -0.8396608233451843, -0.9608449935913086, 0.056811291724443436, -0.4476401989327964, 0.6729716928458345, -0.3743344318810556, 9362.0, 30146.0, 35388.0, 9362.0, 8.271075248718262, -0.1039099246263504, -0.06606849282979965, -0.1477329134941101, -0.07612301409244537, -0.0021276231855154037, 0.9962292909622192, -0.04366157203912735, 0.014162063598632812, 1.4970703125, 1.639892578125, 0.5136566162109375, 1.49560546875, 1.68310546875, 10.0, 1.0, 10.0, 1.6433157920837402
10071, 0.12377074360847473, -0.7296444177627563, -0.46372804045677185, 0.005781255662441254, -0.00100740697234869, -1.1183422803878784, 0.03818472847342491, -0.006692956201732159, -0.2632881700992584, -0.8396843671798706, -0.9608429074287415, 0.05684172362089157, -0.45257291324095233, 0.6764760253544182, -0.36939146932674544, 9362.0, 30146.0, 35388.0, 9362.0, 8.271075248718262, 0.061723727732896805, 0.0922044962644577, -0.059513241052627563, -0.07612301409244537, -0.0021276231855154037, 0.9962292909622192, -0.04366157203912735, 0.014162063598632812, 1.4970703125, 1.67138671875, 0.5928802490234375, 1.49560546875, 1.68310546875, 10.0, 1.0, 10.0, 1.6432262659072876
10101, 0.12238939106464386, -0.73006272315979, -0.46248120069503784, 0.006169330794364214, -0.0010754442773759365, -1.1209770441055298, 0.03943029046058655, -0.006914532743394375, -0.2636754512786865, -0.8396617770195007, -0.9608396887779236, 0.056819409132003784, -0.4436187846773987, 0.6874509913563429, -0.38067710435277435, 9362.0, 30146.0, 35388.0, 9362.0, 8.271075248718262, -0.08918788284063339, 0.17593127489089966, -0.21078333258628845, -0.0744088739156723, -0.002110601169988513, 0.9994539618492126, -0.04366157203912735, 0.014162063598632812, 1.4970703125, 1.67138671875, 0.5928802490234375, 1.496337890625, 1.68310546875, 10.0, 1.0, 10.0, 1.6430656909942627
10111, 0.12201982736587524, -0.7309380173683167, -0.4633975327014923, 0.006169330794364214, -0.0010754442773759365, -1.1209770441055298, 0.03943029046058655, -0.006914532743394375, -0.2636754512786865, -0.8396416902542114, -0.9608451724052429, 0.056797631084918976, -0.44146580102465904, 0.6721758797152404, -0.3643845133687709, 9362.0, 30146.0, 35388.0, 9362.0, 8.271075248718262, 0.15107300877571106, 0.27709656953811646, 0.027831153944134712, -0.0744088739156723, -0.002110601169988513, 0.9994539618492126, -0.04366157203912735, 0.014162063598632812, 1.4970703125, 1.67138671875, 0.5928802490234375, 1.496337890625, 1.68310546875, 10.0, 1.0, 10.0, 1.643494725227356
10131, 0.12197000533342361, -0.7314838767051697, -0.46039870381355286, 0.008296377956867218, -0.00144875212572515, -1.134195327758789, 0.04565637931227684, -0.00801501888781786, -0.2648647725582123, -0.8397030234336853, -0.9608486890792847, 0.056820422410964966, -0.4481792132222673, 0.6913868025317527, -0.3833606536586206, 9362.0, 30146.0, 35388.0, 9362.0, 8.271075248718262, -0.051902756094932556, -0.12505744397640228, 0.11739563196897507, -0.07390058785676956, -0.0032016669865697622, 0.9974390268325806, -0.04366157203912735, 0.014162063598632812, 1.4970703125, 1.65673828125, 0.55560302734375, 1.496337890625, 1.68310546875, 10.0, 1.0, 10.0, 1.643494725227356
10141, 0.12250981479883194, -0.7308722734451294, -0.4591993987560272, 0.00875918474048376, -0.0015300008235499263, -1.1368452310562134, 0.0469050332903862, -0.008234668523073196, -0.26512572169303894, -0.8396649360656738, -0.9608370661735535, 0.056828245520591736, -0.4464726598192272, 0.6858342647575455, -0.3809841874996125, 9362.0, 30146.0, 35388.0, 9362.0, 8.271075248718262, 0.03427022323012352, 0.07385310530662537, -0.003125161863863468, -0.07407239824533463, -0.003130733035504818, 0.9975816607475281, -0.04366157203912735, 0.014162063598632812, 1.4970703125, 1.65673828125, 0.55560302734375, 1.496337890625, 1.68310546875, 10.0, 1.0, 10.0, 1.6437263488769531
10151, 0.1219264343380928, -0.7308400273323059, -0.45875245332717896, 0.00875918474048376, -0.0015300008235499263, -1.1368452310562134, 0.0469050332903862, -0.008234668523073196, -0.26512572169303894, -0.8396813273429871, -0.9608373641967773, 0.05683883652091026, -0.4503138482792605, 0.6815655882371345, -0.37849844419995404, 9362.0, 30146.0, 35388.0, 9362.0, 8.271075248718262, -0.09033166617155075, 0.15385451912879944, 0.23953653872013092, -0.07407239824533463, -0.003130733035504818, 0.9975816607475281, -0.04366157203912735, 0.014162063598632812, 1.4970703125, 1.65673828125, 0.55560302734375, 1.496337890625, 1.68310546875, 10.0, 1.0, 10.0, 1.6437263488769531
10161, 0.12027695775032043, -0.7318674921989441, -0.45825615525245667, 0.009722230024635792, -0.0016990649746730924, -1.142153024673462, 0.049399182200431824, -0.008672223426401615, -0.2656238079071045, -0.8396853804588318, -0.9608414173126221, 0.056827861815690994, -0.44896556756391603, 0.6798036279768098, -0.3685038552026676, 9362.0, 30146.0, 35388.0, 9362.0, 8.271075248718262, 0.0059059057384729385, -0.22798436880111694, -0.013187826611101627, -0.07368846982717514, -0.00240923254750669, 0.9975391626358032, -0.04366157203912735, 0.014162063598632812, 1.4970703125, 1.65673828125, 0.55560302734375, 1.496337890625, 1.68310546875, 10.0, 1.0, 10.0, 1.6437263488769531
10171, 0.12046519666910172, -0.7297072410583496, -0.4581097364425659, 0.010222462937235832, -0.0017868798458948731, -1.1448098421096802, 0.05064735189080238, -0.00889074057340622, -0.26574304699897766, -0.839683473110199, -0.9608320593833923, 0.056831084191799164, -0.4503643963270602, 0.6794360111943831, -0.3717846984220496, 9362.0, 30146.0, 35388.0, 9362.0, 8.271075248718262, -0.11407545953989029, -0.475284218788147, -0.3554700016975403, -0.07368846982717514, -0.00240923254750669, 0.9975391626358032, -0.04366157203912735, 0.014162063598632812, 1.4970703125, 1.65673828125, 0.55560302734375, 1.496337890625, 1.68310546875, 10.0, 1.0, 10.0, 1.6438305377960205
10181, 0.12043467909097672, -0.7262441515922546, -0.45933207869529724, 0.010222462937235832, -0.0017868798458948731, -1.1448098421096802, 0.05064735189080238, -0.00889074057340622, -0.26574304699897766, -0.8396732211112976, -0.9608353972434998, 0.0568288117647171, -0.4509016213176622, 0.6781868631458963, -0.37231061107311164, 9362.0, 30146.0, 35388.0, 9362.0, 8.271075248718262, 0.201349675655365, 0.4239574670791626, 0.14926396310329437, -0.07368846982717514, -0.00240923254750669, 0.9975391626358032, -0.04366157203912735, 0.014162063598632812, 1.4970703125, 1.65673828125, 0.55560302734375, 1.493408203125, 1.68310546875, 10.0, 1.0, 10.0, 1.643912672996521
10201, 0.12254677712917328, -0.7289111018180847, -0.45750686526298523, 0.011260365135967731, -0.001969005912542343, -1.1501290798187256, 0.05314096435904503, -0.009322014637291431, -0.26618364453315735, -0.8396773934364319, -0.9608348608016968, 0.056830573827028275, -0.4435096387283309, 0.6834117382712179, -0.3740190435236797, 9362.0, 30146.0, 35388.0, 9362.0, 8.271075248718262, 0.1697658747434616, 0.2298799306154251, 0.18077658116817474, -0.07316923886537552, -0.002247624332085252, 0.9986091256141663, -0.04366157203912735, 0.014162063598632812, 1.4970703125, 1.65673828125, 0.55560302734375, 1.49560546875, 1.68310546875, 10.0, 1.0, 10.0, 1.643912672996521
10211, 0.1234210878610611, -0.7305902242660522, -0.4557594358921051, 0.012347972020506859, -0.00215977244079113, -1.1554583311080933, 0.0556226521730423, -0.009756261482834816, -0.2666773498058319, -0.8396726846694946, -0.9608286023139954, 0.05684029683470726, -0.4461438785869902, 0.6794155288673664, -0.3742726510707729, 9362.0, 30146.0, 35388.0, 9362.0, 8.271075248718262, 0.3939385712146759, 0.2107972949743271, -0.3252919018268585, -0.07316923886537552, -0.002247624332085252, 0.9986091256141663, -0.04366157203912735, 0.014162063598632812, 1.4970703125, 1.65673828125, 0.55560302734375, 1.49560546875, 1.68310546875, 10.0, 1.0, 10.0, 1.643912672996521
10231, 0.12694749236106873, -0.734519362449646, -0.4571450650691986, 0.013485278934240341, -0.0023592852521687746, -1.1607987880706787, 0.05810888111591339, -0.010195665061473846, -0.26741263270378113, -0.8396478295326233, -0.9608451128005981, 0.05681357905268669, -0.4450640867628208, 0.6811388268074268, -0.362425782721385, 9362.0, 30146.0, 35388.0, 9362.0, 8.271075248718262, -0.05068305507302284, -0.3397302031517029, -0.04206692799925804, -0.07379554957151413, -0.001158323953859508, 0.9961626529693604, -0.04366157203912735, 0.014162063598632812, 1.4970703125, 1.65673828125, 0.55560302734375, 1.49560546875, 1.68310546875, 10.0, 1.0, 10.0, 1.643912672996521
10251, 0.12744839489459991, -0.7316956520080566, -0.4571714699268341, 0.014672445133328438, -0.002567691495642066, -1.1661535501480103, 0.06060880795121193, -0.010646204464137554, -0.26810500025749207, -0.8397063612937927, -0.9608476161956787, 0.05686269700527191, -0.4476857711844076, 0.7059687206348997, -0.3824290078191032, 9362.0, 30146.0, 35388.0, 9362.0, 8.271075248718262, 0.006616004277020693, -0.1942332535982132, -0.016213472932577133, -0.07578855007886887, -0.0013511014403775334, 0.9953278303146362, -0.04366157203912735, 0.014162063598632812, 1.4970703125, 1.65673828125, 0.55560302734375, 1.49560546875, 1.68310546875, 10.0, 1.0, 10.0, 1.64473557472229
10261, 0.12620209157466888, -0.7292253971099854, -0.4575461745262146, 0.014672445133328438, -0.002567691495642066, -1.1661535501480103, 0.06060880795121193, -0.010646204464137554, -0.26810500025749207, -0.8396766185760498, -0.960841953754425, 0.05683322995901108, -0.45103412196108483, 0.6802120423304814, -0.374172745898618, 9362.0, 30146.0, 35388.0, 9362.0, 8.271075248718262, 0.08647742122411728, -0.23175163567066193, 0.037230245769023895, -0.07461777329444885, 4.974048715666868e-05, 0.9977299571037292, -0.04366157203912735, 0.014162063598632812, 1.4970703125, 1.65673828125, 0.55560302734375, 1.505859375, 1.68310546875, 10.0, 1.0, 10.0, 1.6450287103652954
10271, 0.12588976323604584, -0.7270742058753967, -0.4576599597930908, 0.014672445133328438, -0.002567691495642066, -1.1661535501480103, 0.06060880795121193, -0.010646204464137554, -0.26810500025749207, -0.8396875262260437, -0.9608347415924072, 0.056856218725442886, -0.4487920099770606, 0.7027459636622382, -0.3773919260899336, 9362.0, 30146.0, 35388.0, 9362.0, 8.271075248718262, -0.07307975739240646, -0.2924400866031647, -0.16609081625938416, -0.07484550029039383, -0.0024745131377130747, 0.9963315725326538, -0.04366157203912735, 0.014162063598632812, 1.4970703125, 1.65673828125, 0.55560302734375, 1.505859375, 1.68310546875, 10.0, 1.0, 10.0, 1.6450287103652954
10281, 0.1253843903541565, -0.7259566187858582, -0.45923125743865967, 0.016546815633773804, -0.002897266997024417, -1.1742135286331177, 0.0643475130200386, -0.01132529228925705, -0.2690483033657074, -0.8396448493003845, -0.9608312845230103, 0.056813571602106094, -0.44306308731506827, 0.6746678690562362, -0.3747554256281807, 9362.0, 30146.0, 35388.0, 9362.0, 8.271075248718262, 0.08315981179475784, 0.11276689916849136, -0.02105722762644291, -0.07396377623081207, -0.0012058339780196548, 0.9980033040046692, -0.04366157203912735, 0.014162063598632812, 1.4970703125, 1.65673828125, 0.55560302734375, 1.505859375, 1.68310546875, 10.0, 1.0, 10.0, 1.6450287103652954
10291, 0.12557978928089142, -0.7269270420074463, -0.4596814215183258, 0.01719648577272892, -0.003011643420904875, -1.1769057512283325, 0.06558636575937271, -0.01155004184693098, -0.2693903148174286, -0.8396672606468201, -0.9608439803123474, 0.05682452768087387, -0.44990423033006244, 0.6823240807895274, -0.3740382225613148, 9362.0, 30146.0, 35388.0, 9362.0, 8.271075248718262, -0.06934505701065063, -0.31900036334991455, 0.19705326855182648, -0.0722840204834938, -0.000670405279379338, 0.997806191444397, -0.04366157203912735, 0.014162063598632812, 1.4970703125, 1.65673828125, 0.55560302734375, 1.505859375, 1.68310546875, 10.0, 1.0, 10.0, 1.6450287103652954
10301, 0.12634699046611786, -0.7251869440078735, -0.4594912528991699, 0.01719648577272892, -0.003011643420904875, -1.1769057512283325, 0.06558636575937271, -0.01155004184693098, -0.2693903148174286, -0.8396681547164917, -0.9608317017555237, 0.056830935180187225, -0.44539331495523654, 0.6846751996298508, -0.3836427094620497, 9362.0, 30146.0, 35388.0, 9362.0, 8.271075248718262, -0.17928385734558105, -0.13140606880187988, -0.114282988011837, -0.0722840204834938, -0.000670405279379338, 0.997806191444397, -0.04366157203912735, 0.014162063598632812, 1.4970703125, 1.65673828125, 0.55560302734375, 1.49560546875, 1.68310546875, 10.0, 1.0, 10.0, 1.645466923713684
10311, 0.12602263689041138, -0.7233185172080994, -0.46104317903518677, 0.01853298768401146, -0.0032471283338963985, -1.1822983026504517, 0.06806466728448868, -0.011998639442026615, -0.2698548436164856, -0.8396614789962769, -0.9608339071273804, 0.056834954768419266, -0.4487997820118551, 0.6858570997819129, -0.37462482970583355, 9362.0, 30146.0, 35388.0, 9362.0, 8.271075248718262, 0.04345232620835304, -0.0061049810610711575, 0.09212926775217056, -0.07386453449726105, -0.0023540982510894537, 1.0011180639266968, -0.04366157203912735, 0.014162063598632812, 1.4970703125, 1.65673828125, 0.55560302734375, 1.49560546875, 1.68310546875, 10.0, 1.0, 10.0, 1.645466923713684
10321, 0.12650994956493378, -0.7244958281517029, -0.46037834882736206, 0.01921982690691948, -0.0033682449720799923, -1.1849974393844604, 0.0693032294511795, -0.012224721722304821, -0.2699616551399231, -0.8396904468536377, -0.9608433246612549, 0.05685877054929733, -0.4473652718431761, 0.701823760080174, -0.3748347829040747, 9362.0, 30146.0, 35388.0, 9362.0, 8.271075248718262, -0.02420995570719242, -0.03721468895673752, -0.4976576864719391, -0.07575590908527374, -0.004466391634196043, 1.0008512735366821, -0.04366157203912735, 0.014162063598632812, 1.4970703125, 1.65673828125, 0.55560302734375, 1.49560546875, 1.68310546875, 10.0, 1.0, 10.0, 1.645466923713684
10331, 0.12597332894802094, -0.7255557775497437, -0.4637604355812073, 0.019919047132134438, -0.003491621697321534, -1.1876968145370483, 0.07054072618484497, -0.012450595386326313, -0.26990148425102234, -0.8397001028060913, -0.9608424305915833, 0.05684235692024231, -0.44920344839262, 0.7088855995004906, -0.38438539869031135, 9362.0, 30146.0, 35388.0, 9362.0, 8.271075248718262, -0.02420995570719242, -0.03721468895673752, -0.4976576864719391, -0.07575590908527374, -0.004466391634196043, 1.0008512735366821, -0.04366157203912735, 0.014162063598632812, 1.4970703125, 1.65673828125, 0.55560302734375, 1.49560546875, 1.68310546875, 10.0, 1.0, 10.0, 1.6460975408554077
10351, 0.1265670359134674, -0.7219070792198181, -0.464396208524704, 0.02135464921593666, -0.0037451626267284155, -1.1930944919586182, 0.07301913946866989, -0.012902872636914253, -0.2699691951274872, -0.8396706581115723, -0.9608312249183655, 0.05683459714055061, -0.44934263227404364, 0.6852420555065919, -0.37578182441160995, 9362.0, 30146.0, 35388.0, 9362.0, 8.271075248718262, -0.06472160667181015, -0.015514029189944267, -0.1628631204366684, -0.07339932024478912, -0.0012065706541761756, 0.9979150295257568, -0.04366157203912735, 0.014162063598632812, 1.4970703125, 1.65673828125, 0.55560302734375, 1.49560546875, 1.68310546875, 10.0, 1.0, 10.0, 1.6462739706039429
10361, 0.12621831893920898, -0.7200915813446045, -0.46551573276519775, 0.02135464921593666, -0.0037451626267284155, -1.1930944919586182, 0.07301913946866989, -0.012902872636914253, -0.2699691951274872, -0.8396652340888977, -0.9608337879180908, 0.05685064569115639, -0.44643086594265896, 0.6840732118356811, -0.3743867180489369, 9362.0, 30146.0, 35388.0, 9362.0, 8.271075248718262, 0.0012326728319749236, -0.03571297600865364, 0.020708920434117317, -0.07328867167234421, -0.0016508932458236814, 0.996799886226654, -0.04366157203912735, 0.014162063598632812, 1.4970703125, 1.65673828125, 0.55560302734375, 1.49853515625, 1.68310546875, 10.0, 1.0, 10.0, 1.6462739706039429
10381, 0.12389623373746872, -0.7170097231864929, -0.46370846033096313, 0.02283976972103119, -0.004007754847407341, -1.1984984874725342, 0.07548807561397552, -0.013355779461562634, -0.2705320715904236, -0.8396732807159424, -0.9608283042907715, 0.056826990097761154, -0.4494192662568589, 0.6821530345359577, -0.3741431044756935, 9362.0, 30146.0, 35388.0, 9362.0, 8.271075248718262, 0.07892376184463501, -0.1064542829990387, -0.04529813304543495, -0.0724944919347763, -0.0017222011229023337, 0.9971086978912354, -0.04366157203912735, 0.014162063598632812, 1.4970703125, 1.65673828125, 0.55560302734375, 1.4970703125, 1.68310546875, 10.0, 1.0, 10.0, 1.6462739706039429
10391, 0.12427029758691788, -0.7171087265014648, -0.46387919783592224, 0.02437407895922661, -0.0042793783359229565, -1.2039145231246948, 0.0779435783624649, -0.013806641101837158, -0.27095457911491394, -0.8396676778793335, -0.9608345627784729, 0.05685216933488846, -0.4462512021080829, 0.6907082894816199, -0.3694039510144839, 9362.0, 30146.0, 35388.0, 9362.0, 8.271075248718262, -0.0007448957767337561, -0.03790568932890892, 0.24989446997642517, -0.074332095682621, -0.0017293456476181746, 0.9975484609603882, -0.04366157203912735, 0.014162063598632812, 1.4970703125, 1.65673828125, 0.55560302734375, 1.4970703125, 1.68310546875, 10.0, 1.0, 10.0, 1.6462739706039429
10401, 0.1247151643037796, -0.7180241942405701, -0.4622765779495239, 0.025159629061818123, -0.00441855238750577, -1.2066253423690796, 0.07916642725467682, -0.014028158038854599, -0.2712027132511139, -0.8396743535995483, -0.9608442187309265, 0.05684185028076172, -0.44936269005011675, 0.6806530481616733, -0.37098091025871044, 9362.0, 30146.0, 35388.0, 9362.0, 8.271075248718262, 0.0007200085674412549, -0.021554363891482353, -0.06620167195796967, -0.074332095682621, -0.0017293456476181746, 0.9975484609603882, -0.04366157203912735, 0.014162063598632812, 1.4970703125, 1.65673828125, 0.55560302734375, 1.4970703125, 1.68310546875, 10.0, 1.0, 10.0, 1.6474674940109253
10411, 0.12511086463928223, -0.7185772657394409, -0.46248725056648254, 0.02595740742981434, -0.00455994438380003, -1.209338665008545, 0.08038924634456635, -0.014250245876610279, -0.2714664041996002, -0.8396837711334229, -0.9608454704284668, 0.056839678436517715, -0.450835312227251, 0.6854234043206873, -0.3711648017856355, 9362.0, 30146.0, 35388.0, 9362.0, 8.271075248718262, -0.1713121384382248, -0.29519718885421753, -0.2277355045080185, -0.07453767955303192, -0.0013606924330815673, 0.9974643588066101, -0.04366157203912735, 0.014162063598632812, 1.4970703125, 1.65673828125, 0.55560302734375, 1.4970703125, 1.68310546875, 10.0, 1.0, 10.0, 1.6474674940109253
10421, 0.12399446219205856, -0.7177416086196899, -0.4631876051425934, 0.02595740742981434, -0.00455994438380003, -1.209338665008545, 0.08038924634456635, -0.014250245876610279, -0.2714664041996002, -0.8396966457366943, -0.9608761668205261, 0.05683717876672745, -0.455570467294643, 0.687386879577673, -0.36239618735358337, 9362.0, 30146.0, 35388.0, 9362.0, 8.271075248718262, -0.036091603338718414, -0.47031450271606445, -0.10552498698234558, -0.07508201897144318, -0.002952041570097208, 0.9973728656768799, -0.04366157203912735, 0.014162063598632812, 1.4970703125, 1.65673828125, 0.55560302734375, 1.4970703125, 1.68310546875, 10.0, 1.0, 10.0, 1.6474674940109253
10441, 0.12330862879753113, -0.7162453532218933, -0.4629543721675873, 0.028424136340618134, -0.004997474607080221, -1.217499017715454, 0.08406084775924683, -0.014917980879545212, -0.2724171578884125, -0.8396724462509155, -0.9608445167541504, 0.05683894827961922, -0.4478407694312362, 0.690885538018307, -0.37667266365675756, 9362.0, 30146.0, 35388.0, 9362.0, 8.271075248718262, -0.10418915003538132, -0.1294226497411728, -0.2323417067527771, -0.0727858617901802, -0.00402411911636591, 0.9998542070388794, -0.04366157203912735, 0.014162063598632812, 1.4970703125, 1.65673828125, 0.55560302734375, 1.50146484375, 1.68310546875, 10.0, 1.0, 10.0, 1.648184895515442
10451, 0.1224847063422203, -0.7160431146621704, -0.46332213282585144, 0.02927083522081375, -0.005147759336978197, -1.2202244997024536, 0.08527899533510208, -0.015138974413275719, -0.27268484234809875, -0.8397047519683838, -0.9608464241027832, 0.056861940771341324, -0.43977630677138263, 0.7061540333635321, -0.3904201524065713, 9362.0, 30146.0, 35388.0, 9362.0, 8.271075248718262, -0.10418915003538132, -0.1294226497411728, -0.2323417067527771, -0.0727858617901802, -0.00402411911636591, 0.9998542070388794, -0.06545775383710861, -0.2098369598388672, 1.478759765625, 1.65673828125, 0.55560302734375, 1.50146484375, 1.68310546875, 10.0, 1.0, 10.0, 1.6486093997955322
10461, 0.12343157082796097, -0.7162749767303467, -0.4626818895339966, 0.02927083522081375, -0.005147759336978197, -1.2202244997024536, 0.08527899533510208, -0.015138974413275719, -0.27268484234809875, -0.8397083878517151, -0.9608328938484192, 0.05686493217945099, -0.44662441900460764, 0.7090460329493737, -0.38234963234229824, 9362.0, 30146.0, 35388.0, 9362.0, 8.271075248718262, 0.13242261111736298, -0.1517632156610489, -0.010261515155434608, -0.0727858617901802, -0.00402411911636591, 0.9998542070388794, -0.06545775383710861, -0.2098369598388672, 1.478759765625, 1.65673828125, 0.55560302734375, 1.50146484375, 1.68310546875, 10.0, 1.0, 10.0, 1.6489356756210327
10471, 0.12450668215751648, -0.714169442653656, -0.4622461497783661, 0.031000878661870956, -0.005454947706311941, -1.2256803512573242, 0.08772484213113785, -0.015579091385006905, -0.27293503284454346, -0.8396669030189514, -0.9608373641967773, 0.05682561174035072, -0.4514954545337939, 0.6836844047350041, -0.376021112201961, 9362.0, 30146.0, 35388.0, 9362.0, 8.271075248718262, -0.042814139276742935, 0.11511236429214478, 0.1786935031414032, -0.0739777684211731, -0.0021963270846754313, 0.9993746280670166, -0.06545775383710861, -0.2098369598388672, 1.478759765625, 1.65673828125, 0.55560302734375, 1.50146484375, 1.68310546875, 10.0, 1.0, 10.0, 1.6489356756210327
10481, 0.12471256405115128, -0.7145097255706787, -0.4614001214504242, 0.031000878661870956, -0.005454947706311941, -1.2256803512573242, 0.08772484213113785, -0.015579091385006905, -0.27293503284454346, -0.8397094011306763, -0.960845947265625, 0.056849658489227295, -0.4470472329976119, 0.7056255879529658, -0.38519062560718015, 9362.0, 30146.0, 35388.0, 9362.0, 8.271075248718262, -0.02852666564285755, -0.3057042956352234, 0.14669930934906006, -0.07261606305837631, -0.0009463275782763958, 0.995797872543335, -0.06545775383710861, -0.2098369598388672, 1.478759765625, 1.65673828125, 0.55560302734375, 1.49560546875, 1.68310546875, 10.0, 1.0, 10.0, 1.6489356756210327
10501, 0.12508510053157806, -0.7154682278633118, -0.4583337903022766, 0.031000878661870956, -0.005454947706311941, -1.2256803512573242, 0.08772484213113785, -0.015579091385006905, -0.27293503284454346, -0.83970046043396, -0.9608435034751892, 0.0568709559738636, -0.4484304119633089, 0.7055526222705453, -0.3872343690480674, 9362.0, 30146.0, 35388.0, 9362.0, 8.271075248718262, -0.02702891267836094, 0.09328523278236389, -0.030884921550750732, -0.07481098175048828, -0.001740147010423243, 0.9964486360549927, -0.06545775383710861, -0.2098369598388672, 1.478759765625, 1.65673828125, 0.55560302734375, 1.496337890625, 1.68310546875, 10.0, 1.0, 10.0, 1.6489356756210327
10511, 0.12486405670642853, -0.7153764367103577, -0.45802387595176697, 0.034607525914907455, -0.006095863413065672, -1.2366105318069458, 0.09260021895170212, -0.016466783359646797, -0.27387258410453796, -0.8396661281585693, -0.9608326554298401, 0.05685815215110779, -0.4533033967863068, 0.6882953048799152, -0.3667109500753852, 9362.0, 30146.0, 35388.0, 9362.0, 8.271075248718262, 0.1179855465888977, 0.19811755418777466, 0.17445950210094452, -0.07481098175048828, -0.001740147010423243, 0.9964486360549927, -0.06545775383710861, -0.2098369598388672, 1.478759765625, 1.65673828125, 0.55560302734375, 1.496337890625, 1.68310546875, 10.0, 1.0, 10.0, 1.649936318397522
10521, 0.1250912994146347, -0.7160783410072327, -0.4573533833026886, 0.034607525914907455, -0.006095863413065672, -1.2366105318069458, 0.09260021895170212, -0.016466783359646797, -0.27387258410453796, -0.8397112488746643, -0.9608513712882996, 0.05687669292092323, -0.4454023700102377, 0.7099075355647813, -0.3874259522484763, 9362.0, 30146.0, 35388.0, 9362.0, 8.271075248718262, 0.009427979588508606, -0.3594241142272949, 0.06061322242021561, -0.07481098175048828, -0.001740147010423243, 0.9964486360549927, -0.06545775383710861, -0.2098369598388672, 1.478759765625, 1.675048828125, 0.6022186279296875, 1.496337890625, 1.68310546875, 10.0, 1.0, 10.0, 1.649936318397522
10531, 0.1247042566537857, -0.7139235138893127, -0.45592519640922546, 0.03648388758301735, -0.006429656874388456, -1.2420965433120728, 0.09503677487373352, -0.016912510618567467, -0.27466803789138794, -0.8396784067153931, -0.9608441591262817, 0.05685095489025116, -0.4469128793263188, 0.6862481256142132, -0.3804984405876442, 9362.0, 30146.0, 35388.0, 9362.0, 8.271075248718262, 0.08490950614213943, -0.38093242049217224, -0.09726908057928085, -0.07432417571544647, -0.0006465742480941117, 0.9965943098068237, -0.06545775383710861, -0.2098369598388672, 1.478759765625, 1.675048828125, 0.6022186279296875, 1.496337890625, 1.68310546875, 10.0, 1.0, 10.0, 1.649936318397522
10541, 0.1254834532737732, -0.7109809517860413, -0.45663371682167053, 0.03648388758301735, -0.006429656874388456, -1.2420965433120728, 0.09503677487373352, -0.016912510618567467, -0.27466803789138794, -0.8397086262702942, -0.9608390927314758, 0.05684405565261841, -0.4453902117057822, 0.6995877677448163, -0.38156708970737324, 9362.0, 30146.0, 35388.0, 9362.0, 8.271075248718262, 0.17794649302959442, -0.3650709390640259, 0.06948163360357285, -0.07599591463804245, -0.0016596438363194466, 0.9992108345031738, -0.06545775383710861, -0.2098369598388672, 1.478759765625, 1.675048828125, 0.6022186279296875, 1.496337890625, 1.68310546875, 10.0, 1.0, 10.0, 1.650529146194458
10551, 0.12646424770355225, -0.7085298895835876, -0.45569339394569397, 0.03648388758301735, -0.006429656874388456, -1.2420965433120728, 0.09503677487373352, -0.016912510618567467, -0.27466803789138794, -0.839698851108551, -0.9608436226844788, 0.05684538185596466, -0.4466590256083108, 0.7092385504725769, -0.38772042809365326, 9362.0, 30146.0, 35388.0, 9362.0, 8.271075248718262, -0.18598130345344543, 0.23808656632900238, 0.06701048463582993, -0.07599591463804245, -0.0016596438363194466, 0.9992108345031738, -0.06545775383710861, -0.2098369598388672, 1.478759765625, 1.675048828125, 0.6022186279296875, 1.496337890625, 1.68310546875, 10.0, 1.0, 10.0, 1.6507402658462524
10561, 0.12577755749225616, -0.7099161744117737, -0.4544185400009155, 0.03648388758301735, -0.006429656874388456, -1.2420965433120728, 0.09503677487373352, -0.016912510618567467, -0.27466803789138794, -0.8396689891815186, -0.960837185382843, 0.05684652179479599, -0.4510771347565014, 0.6908308335676736, -0.37606451825747783, 9362.0, 30146.0, 35388.0, 9362.0, 8.271075248718262, 0.17807210981845856, -0.29738619923591614, 0.07979179918766022, -0.07459795475006104, 1.010327423500712e-06, 0.9982905387878418, -0.06545775383710861, -0.2098369598388672, 1.478759765625, 1.675048828125, 0.6022186279296875, 1.4970703125, 1.68310546875, 10.0, 1.0, 10.0, 1.6507402658462524
10591, 0.12871144711971283, -0.7112919092178345, -0.4566481113433838, 0.042404983192682266, -0.007484705653041601, -1.2586150169372559, 0.10231941193342209, -0.01825948804616928, -0.2758628726005554, -0.839662492275238, -0.9608334898948669, 0.05686357989907265, -0.4491253925090611, 0.6927094962044293, -0.3776329275306544, 9362.0, 30146.0, 35388.0, 9362.0, 8.271075248718262, -0.017146220430731773, 0.06563656777143478, -0.21897615492343903, -0.07398398965597153, -0.002747495425865054, 0.9980613589286804, -0.06545775383710861, -0.2098369598388672, 1.478759765625, 1.69921875, 0.665863037109375, 1.4970703125, 1.68310546875, 10.0, 1.0, 10.0, 1.651153564453125
10601, 0.12915733456611633, -0.7114994525909424, -0.45930016040802, 0.042404983192682266, -0.007484705653041601, -1.2586150169372559, 0.10231941193342209, -0.01825948804616928, -0.2758628726005554, -0.8396828174591064, -0.9608688950538635, 0.05684883892536163, -0.45466148370807413, 0.6884762980994026, -0.3588597464285985, 9362.0, 30146.0, 35388.0, 9362.0, 8.271075248718262, -0.192562073469162, -0.3868659436702728, -0.1937575489282608, -0.07398398965597153, -0.002747495425865054, 0.9980613589286804, -0.06545775383710861, -0.2098369598388672, 1.478759765625, 1.69921875, 0.665863037109375, 1.49560546875, 1.68310546875, 10.0, 1.0, 10.0, 1.651703953742981
10611, 0.12861861288547516, -0.7085142731666565, -0.45995521545410156, 0.04447561874985695, -0.007854493334889412, -1.2641361951828003, 0.10474521666765213, -0.018719181418418884, -0.27625545859336853, -0.8396702408790588, -0.9608448147773743, 0.05685359612107277, -0.44803196562376346, 0.6872230826627401, -0.37509395485050295, 9362.0, 30146.0, 35388.0, 9362.0, 8.271075248718262, -0.10849682241678238, -0.12332084774971008, -0.12763366103172302, -0.07398398965597153, -0.002747495425865054, 0.9980613589286804, -0.06545775383710861, -0.2098369598388672, 1.478759765625, 1.69921875, 0.665863037109375, 1.49560546875, 1.68310546875, 10.0, 1.0, 10.0, 1.6517131328582764
10621, 0.12753482162952423, -0.70779949426651, -0.4612022638320923, 0.04447561874985695, -0.007854493334889412, -1.2641361951828003, 0.10474521666765213, -0.018719181418418884, -0.27625545859336853, -0.8396804928779602, -0.9608407020568848, 0.05685160681605339, -0.448985050724955, 0.6945365349634471, -0.37916647519954455, 9362.0, 30146.0, 35388.0, 9362.0, 8.271075248718262, -0.06340420246124268, 0.2058212161064148, 0.20626229047775269, -0.07398398965597153, -0.002747495425865054, 0.9980613589286804, -0.06545775383710861, -0.2098369598388672, 1.478759765625, 1.69921875, 0.665863037109375, 1.494140625, 1.68310546875, 10.0, 1.0, 10.0, 1.6517131328582764
10631, 0.12780766189098358, -0.7085555791854858, -0.46097129583358765, 0.046594761312007904, -0.008233478292822838, -1.2696666717529297, 0.10716638714075089, -0.01917884685099125, -0.27679112553596497, -0.8396739363670349, -0.9608466029167175, 0.05686235427856445, -0.4536195357779055, 0.6901445418572507, -0.38048174917343314, 9362.0, 30146.0, 35388.0, 9362.0, 8.271075248718262, -0.020566247403621674, -0.07077427953481674, 0.2256254404783249, -0.07398367673158646, -0.0033970323856920004, 0.9995793104171753, -0.06545775383710861, -0.2098369598388672, 1.478759765625, 1.69921875, 0.665863037109375, 1.494140625, 1.68310546875, 10.0, 1.0, 10.0, 1.6517131328582764
10651, 0.1263362020254135, -0.7067199945449829, -0.4585892856121063, 0.04876227304339409, -0.008621614426374435, -1.2752045392990112, 0.10958600789308548, -0.019635168835520744, -0.27694910764694214, -0.8396636843681335, -0.9608455896377563, 0.05684976279735565, -0.4518090716635109, 0.6958745785371434, -0.3745162277665462, 9362.0, 30146.0, 35388.0, 9362.0, 8.271075248718262, -0.15691377222537994, -0.1267595887184143, 0.11724807322025299, -0.07207785546779633, -0.0021366290748119354, 0.9990552067756653, -0.06519561260938644, -0.13815879821777344, 1.484619140625, 1.69921875, 0.665863037109375, 1.494140625, 1.68310546875, 10.0, 1.0, 10.0, 1.6517131328582764
10671, 0.12668079137802124, -0.708591103553772, -0.457802414894104, 0.050978150218725204, -0.009018858894705772, -1.2807470560073853, 0.11199948191642761, -0.02008812129497528, -0.2773915231227875, -0.8396711945533752, -0.960841178894043, 0.056877654045820236, -0.45343919568963387, 0.6973641767646939, -0.37668403889296487, 9362.0, 30146.0, 35388.0, 9362.0, 8.271075248718262, -0.3041127622127533, 0.23930877447128296, 0.17525576055049896, -0.07472484558820724, -0.0016503854421898723, 0.9986655712127686, -0.06519561260938644, -0.13815879821777344, 1.484619140625, 1.69921875, 0.665863037109375, 1.494140625, 1.68310546875, 10.0, 1.0, 10.0, 1.6525992155075073
10691, 0.1260485053062439, -0.7103574275970459, -0.4563498795032501, 0.05324229225516319, -0.00942512322217226, -1.286299705505371, 0.11441436409950256, -0.020538711920380592, -0.277951180934906, -0.8396840691566467, -0.9608303308486938, 0.056852079927921295, -0.4568451100488374, 0.6943180511878211, -0.37212784349800143, 9362.0, 30146.0, 35388.0, 9362.0, 8.271075248718262, -0.12416777014732361, 0.18933695554733276, 0.14425724744796753, -0.07339781522750854, -0.0003555040748324245, 0.9968438744544983, -0.06519561260938644, -0.13815879821777344, 1.484619140625, 1.69921875, 0.665863037109375, 1.494140625, 1.68310546875, 10.0, 1.0, 10.0, 1.653594732284546
10711, 0.12704436480998993, -0.7106277346611023, -0.4533572494983673, 0.05555476248264313, -0.009840366430580616, -1.291865348815918, 0.11683378368616104, -0.020986460149288177, -0.27859362959861755, -0.8396744728088379, -0.9608348608016968, 0.05688455328345299, -0.44931015799227475, 0.6933158829414197, -0.375282790918812, 9362.0, 30146.0, 35388.0, 9362.0, 8.271075248718262, -0.1042964830994606, -0.12646789848804474, 0.32488977909088135, -0.07153163105249405, -0.001214286545291543, 0.9988276958465576, -0.06519561260938644, -0.13815879821777344, 1.484619140625, 1.727783203125, 0.7447052001953125, 1.494140625, 1.68310546875, 10.0, 1.0, 10.0, 1.653594732284546
10721, 0.12597694993019104, -0.7100529670715332, -0.45046499371528625, 0.05555476248264313, -0.009840366430580616, -1.291865348815918, 0.11683378368616104, -0.020986460149288177, -0.27859362959861755, -0.8397059440612793, -0.9608422517776489, 0.056897081434726715, -0.4466827478545586, 0.7112741663765689, -0.38806321947021744, 9362.0, 30146.0, 35388.0, 9362.0, 8.271075248718262, -0.13371959328651428, 0.1348947137594223, 0.09986571967601776, -0.07260169088840485, -0.0013165066484361887, 0.9973917603492737, -0.06519561260938644, -0.13815879821777344, 1.484619140625, 1.727783203125, 0.7447052001953125, 1.5, 1.68310546875, 10.0, 1.0, 10.0, 1.653594732284546
10731, 0.12494651228189468, -0.7104647159576416, -0.4496638774871826, 0.05555476248264313, -0.009840366430580616, -1.291865348815918, 0.11683378368616104, -0.020986460149288177, -0.27859362959861755, -0.8396777510643005, -0.9608367085456848, 0.05687315762042999, -0.44759903471081236, 0.6904159268831052, -0.3751009619995168, 9362.0, 30146.0, 35388.0, 9362.0, 8.271075248718262, -0.11021165549755096, -0.23429949581623077, 0.15878188610076904, -0.07258474826812744, -0.0018592519918456674, 1.0001099109649658, -0.06519561260938644, -0.13815879821777344, 1.484619140625, 1.727783203125, 0.7447052001953125, 1.5, 1.68310546875, 10.0, 1.0, 10.0, 1.653594732284546
10741, 0.12457193434238434, -0.7083412408828735, -0.44799166917800903, 0.05555476248264313, -0.009840366430580616, -1.291865348815918, 0.11683378368616104, -0.020986460149288177, -0.27859362959861755, -0.8396741151809692, -0.9608432054519653, 0.05685297027230263, -0.44785738764254285, 0.6920440966920864, -0.3709575941202201, 9362.0, 30146.0, 35388.0, 9362.0, 8.271075248718262, -0.019369347020983696, 0.11041267216205597, -0.11486295610666275, -0.07288211584091187, -0.0017616170225664973, 1.0002472400665283, -0.06519561260938644, -0.13815879821777344, 1.484619140625, 1.727783203125, 0.7447052001953125, 1.4970703125, 1.68310546875, 10.0, 1.0, 10.0, 1.653594732284546
10751, 0.1247287318110466, -0.7093497514724731, -0.44725507497787476, 0.06032511591911316, -0.010697862133383751, -1.3030246496200562, 0.1216849535703659, -0.02188648097217083, -0.2792333960533142, -0.8397048711776733, -0.9608373045921326, 0.056884683668613434, -0.4463214291034946, 0.7098947884184668, -0.3792397392919626, 9362.0, 30146.0, 35388.0, 9362.0, 8.271075248718262, -0.019369347020983696, 0.11041267216205597, -0.11486295610666275, -0.07288211584091187, -0.0017616170225664973, 1.0002472400665283, -0.06666002422571182, -0.2098369598388672, 1.478759765625, 1.727783203125, 0.7447052001953125, 1.4970703125, 1.68310546875, 10.0, 1.0, 10.0, 1.653594732284546
10781, 0.12532392144203186, -0.710482656955719, -0.4422929584980011, 0.06403014063835144, -0.011364481411874294, -1.311405897140503, 0.12531566619873047, -0.02255546674132347, -0.2796635329723358, -0.8396996259689331, -0.9608491063117981, 0.05686734616756439, -0.4501493035735832, 0.7045167270353829, -0.37708388184347497, 9362.0, 30146.0, 35388.0, 9362.0, 8.271075248718262, -0.14205946028232574, 0.17484061419963837, 0.27067509293556213, -0.07406289130449295, -0.00035660594585351646, 0.9965458512306213, -0.06666002422571182, -0.2098369598388672, 1.478759765625, 1.727783203125, 0.7447052001953125, 1.4970703125, 1.68310546875, 10.0, 1.0, 10.0, 1.653594732284546
10791, 0.12490309029817581, -0.7121680974960327, -0.43972015380859375, 0.06528935581445694, -0.011591163463890553, -1.3142033815383911, 0.12652793526649475, -0.02278091385960579, -0.27983996272087097, -0.8397082090377808, -0.9608361721038818, 0.05689666420221329, -0.4428060699323346, 0.7127862331061863, -0.38517210068319707, 9362.0, 30146.0, 35388.0, 9362.0, 8.271075248718262, -0.07545287907123566, -0.13740290701389313, -0.07142534106969833, -0.07538995146751404, -0.0008582337177358568, 0.9975495338439941, -0.06666002422571182, -0.2098369598388672, 1.478759765625, 1.727783203125, 0.7447052001953125, 1.4970703125, 1.68310546875, 10.0, 1.0, 10.0, 1.653594732284546
10801, 0.12466644495725632, -0.7118096351623535, -0.43918946385383606, 0.06528935581445694, -0.011591163463890553, -1.3142033815383911, 0.12652793526649475, -0.02278091385960579, -0.27983996272087097, -0.839709997177124, -0.9608543515205383, 0.056889358907938004, -0.4440642563455695, 0.7113830676623252, -0.38872188705904326, 9362.0, 30146.0, 35388.0, 9362.0, 8.271075248718262, -0.07545287907123566, -0.13740290701389313, -0.07142534106969833, -0.07305730879306793, -0.0013638598611578345, 0.9981561303138733, -0.06666002422571182, -0.2098369598388672, 1.478759765625, 1.727783203125, 0.7447052001953125, 1.49267578125, 1.68310546875, 10.0, 1.0, 10.0, 1.653594732284546
10811, 0.12393732368946075, -0.7099214196205139, -0.4389941096305847, 0.06784415245056152, -0.012051243335008621, -1.3198062181472778, 0.12895335257053375, -0.02322673238813877, -0.2804187536239624, -0.839684009552002, -0.9608411192893982, 0.056876227259635925, -0.45219616582417255, 0.6912557363014855, -0.37345212690075824, 9362.0, 30146.0, 35388.0, 9362.0, 8.271075248718262, -0.12314889580011368, 0.026919610798358917, 0.16123047471046448, -0.07213565707206726, -0.003889001440256834, 0.9983818531036377, -0.06666002422571182, -0.2098369598388672, 1.478759765625, 1.727783203125, 0.7447052001953125, 1.49267578125, 1.68310546875, 10.0, 1.0, 10.0, 1.6566431522369385
10821, 0.12359984219074249, -0.7102804183959961, -0.4384894371032715, 0.06784415245056152, -0.012051243335008621, -1.3198062181472778, 0.12895335257053375, -0.02322673238813877, -0.2804187536239624, -0.839678943157196, -0.9608342051506042, 0.05686519294977188, -0.4487090005588856, 0.6912742156999627, -0.38113440516063435, 9362.0, 30146.0, 35388.0, 9362.0, 8.271075248718262, -0.12655076384544373, -0.3638099431991577, -0.10173548012971878, -0.07522373646497726, -0.004620294086635113, 0.9968805313110352, -0.06666002422571182, -0.2098369598388672, 1.478759765625, 1.727783203125, 0.7447052001953125, 1.49267578125, 1.68310546875, 10.0, 1.0, 10.0, 1.6566431522369385
10831, 0.12360259145498276, -0.7078004479408264, -0.43985509872436523, 0.07044750452041626, -0.012520219199359417, -1.3254181146621704, 0.1313800811767578, -0.023670265451073647, -0.2807646691799164, -0.8396803140640259, -0.9608355760574341, 0.05687766894698143, -0.4510009522477132, 0.6937476025703972, -0.3757717450021917, 9362.0, 30146.0, 35388.0, 9362.0, 8.271075248718262, 0.10241639614105225, -0.5505357980728149, -0.16983452439308167, -0.07452414184808731, -0.002346519846469164, 0.9969797134399414, -0.06666002422571182, -0.2098369598388672, 1.478759765625, 1.727783203125, 0.7447052001953125, 1.49267578125, 1.68310546875, 10.0, 1.0, 10.0, 1.6566431522369385
