timeTick, roll, pitch, yaw, stateX, stateY, stateZ, stateVX, stateVY, stateVZ, otX0, otY0, otZ0, otRoll0, otPitch0, otYaw0, left wing, pitch motor, yaw motor, right wing, voltage, roll rate, pitch rate, yaw rate, A_x, A_y, A_z, current, i_raw, v_raw, airflow_voltage, airflow_speed, pot_Pitch, voltage_nKF, kFFx, state, State, volt_KF
23469, 0.5400531888008118, 4.206298351287842, -6.1645684242248535, 0, 0, 0, 0, 0, 0, 0, 0, 0, 0, 0, 0, 0, 0, 0, 0, 0, 0, 0, 0, 0, 0, 0, 0, 0, 0, 0, 0, 0, 0, 0, 0, 0, 0
23479, 0.4622037410736084, 4.275847434997559, -6.2117486000061035, 0.0, 0.0, 22.43863868713379, 0.0, 0.0, -0.27980804443359375, 0, 0, 0, 0, 0, 0, 9362.0, 30146.0, 35388.0, 9362.0, 0, 0, 0, 0, 0, 0, 0, 0, 0, 0, 0, 0, 0, 0, 0, 0, 0, 0
23489, 0.40651318430900574, 4.322014331817627, -6.228022575378418, 0.0, 0.0, 22.436119079589844, 0.0, 0.0, -0.25196075439453125, 0, 0, 0, 0, 0, 0, 9362.0, 30146.0, 35388.0, 9362.0, 0, -6.3509111404418945, -4.6516900062561035, -2.902780532836914, 0.13638003170490265, -0.011690233834087849, 1.0333443880081177, 0, 0, 0, 2.999267578125, 102.66284942626953, 0, 2.999267578125, 23.0, 6.0, 10.0, 2.9808359146118164
23499, 0.32580527663230896, 4.3897385597229, -6.245274543762207, 0.0, 0.0, 22.433305740356445, 0.0, 0.0, -0.28133392333984375, 0, 0, 0, 0, 0, 0, 9362.0, 30146.0, 35388.0, 9362.0, 0, -7.127846717834473, -4.51735782623291, -2.070925235748291, 0.14282755553722382, -0.0002563915913924575, 1.0300257205963135, 0, 0, 0, 2.999267578125, 102.66284942626953, 1.49560546875, 2.999267578125, 23.0, 6.0, 10.0, 2.980894088745117
23509, 0.281048983335495, 4.429964542388916, -6.2443671226501465, 0.0, 0.0, 22.43077278137207, 0.0, 0.0, -0.2532958984375, 0, 0, 0, 0, 0, 0, 9362.0, 30146.0, 35388.0, 9362.0, 0, -6.4247941970825195, -3.961404323577881, -0.8383640646934509, 0.14349235594272614, 0.00867516826838255, 1.0175001621246338, 0, 0, 0, 2.999267578125, 102.66284942626953, 1.49560546875, 2.999267578125, 23.0, 6.0, 10.0, 2.980952024459839
23519, 0.2358226776123047, 4.478929042816162, -6.230771064758301, 0.0, 0.0, 22.42576026916504, 0.0, 0.0, -0.501251220703125, 0, 0, 0, 0, 0, 0, 9362.0, 30146.0, 35388.0, 9362.0, 0, -4.861534118652344, -3.5084004402160645, 0.578464686870575, 0.13307632505893707, 0.013068814761936665, 1.001304268836975, 0, 0, 0, 2.999267578125, 102.66284942626953, 1.490478515625, 2.999267578125, 23.0, 6.0, 10.0, 2.9810099601745605
23529, 0.21885773539543152, 4.5014262199401855, -6.230199813842773, 0.0, 0.0, 22.421249389648438, 0.0, 0.0, -0.45108795166015625, 0, 0, 0, 0, 0, 0, 9362.0, 30146.0, 35388.0, 9362.0, 0, -3.275970697402954, -2.6022961139678955, 1.3211719989776611, 0.12461016327142715, 0.019254960119724274, 0.993270993232727, 0, 0, 0, 2.999267578125, 102.66284942626953, 1.490478515625, 2.999267578125, 23.0, 6.0, 10.0, 2.981067657470703
23539, 0.20984791219234467, 4.52254056930542, -6.239182949066162, 0.0, 0.0, 22.42484474182129, 0.0, 0.0, 0.35953521728515625, 0, 0, 0, 0, 0, 0, 9362.0, 30146.0, 35388.0, 9362.0, 0, -1.9581378698349, -1.6417901515960693, -0.8471308350563049, 0.11617663502693176, 0.021393951028585434, 1.002143383026123, 0, 0, 0, 2.999267578125, 102.66284942626953, 1.48974609375, 2.999267578125, 23.0, 6.0, 10.0, 2.9811251163482666
23549, 0.21389803290367126, 4.530670642852783, -6.244976043701172, 0.0, 0.0, 22.42807960510254, 0.0, 0.0, 0.323486328125, 0, 0, 0, 0, 0, 0, 9362.0, 30146.0, 35388.0, 9362.0, 0, -0.5808306932449341, -0.9117053151130676, -0.4477577805519104, 0.10728928446769714, 0.020935434848070145, 1.0080326795578003, 0, 0, 0, 2.999267578125, 102.66284942626953, 1.48974609375, 2.999267578125, 23.0, 6.0, 10.0, 2.981182336807251
23559, 0.23366932570934296, 4.541456699371338, -6.234759330749512, 0.0, 0.0, 22.42388343811035, 0.0, 0.0, -0.41961669921875, 0, 0, 0, 0, 0, 0, 9362.0, 30146.0, 35388.0, 9362.0, 0, 0.7798191905021667, -0.20738106966018677, -0.3933740258216858, 0.10986543446779251, 0.021280210465192795, 1.0199998617172241, 0, 0, 0, 2.999267578125, 102.66284942626953, 1.49560546875, 2.999267578125, 23.0, 6.0, 10.0, 2.9812395572662354
23569, 0.253171443939209, 4.545803070068359, -6.207881450653076, 0.0, 0.0, 22.420106887817383, 0.0, 0.0, -0.377655029296875, 0, 0, 0, 0, 0, 0, 9362.0, 30146.0, 35388.0, 9362.0, 8.370248794555664, 1.823832631111145, -0.3179949223995209, 2.309654951095581, 0.11119846254587173, 0.02269548550248146, 1.0268820524215698, 0, 0, 0, 2.999267578125, 102.66284942626953, 1.49560546875, 2.999267578125, 23.0, 6.0, 10.0, 2.9812965393066406
23579, 0.2839203178882599, 4.551289081573486, -6.1500959396362305, 0.0, 0.0, 22.422176361083984, 0.0, 0.0, 0.20694732666015625, 0, 0, 0, 0, 0, 0, 9362.0, 30146.0, 35388.0, 9362.0, 8.370248794555664, 2.2962303161621094, 0.1367958039045334, 3.9413061141967773, 0.11601781845092773, 0.025865992531180382, 1.031347393989563, -0.07550495117902756, -0.15607833862304688, 1.483154296875, 2.999267578125, 102.66284942626953, 1.496337890625, 2.999267578125, 23.0, 6.0, 10.0, 2.981353282928467
23589, 0.3064752519130707, 4.552700519561768, -6.095905303955078, 0.0, 0.0, 22.42403793334961, 0.0, 0.0, 0.1861572265625, 0, 0, 0, 0, 0, 0, 9362.0, 30146.0, 35388.0, 9362.0, 8.370248794555664, 2.7592663764953613, 0.32687175273895264, 5.39669942855835, 0.12493594735860825, 0.024154940620064735, 1.0331270694732666, -0.07550495117902756, -0.15607833862304688, 1.483154296875, 2.999267578125, 102.66284942626953, 1.496337890625, 2.999267578125, 23.0, 6.0, 10.0, 2.981409788131714
23599, 0.34257039427757263, 4.554565906524658, -6.014805316925049, 0.0, 0.0, 22.43172836303711, 0.0, 0.0, 0.76904296875, 0, 0, 0, 0, 0, 0, 9362.0, 30146.0, 35388.0, 9362.0, 8.370248794555664, 3.119300365447998, 0.8603401184082031, 7.144137382507324, 0.13001708686351776, 0.018956320360302925, 1.0270262956619263, -0.07550495117902756, -0.15607833862304688, 1.483154296875, 2.999267578125, 102.66284942626953, 1.497802734375, 2.999267578125, 23.0, 6.0, 10.0, 2.981466293334961
23609, 0.3674774169921875, 4.558251857757568, -5.9738664627075195, 0.0, 0.0, 22.438650131225586, 0.0, 0.0, 0.6921768188476562, 0, 0, 0, 0, 0, 0, 9362.0, 30146.0, 35388.0, 9362.0, 8.370248794555664, 3.1953349113464355, 0.8288199305534363, 6.0146989822387695, 0.12879228591918945, 0.01998438499867916, 1.0197478532791138, -0.07550495117902756, -0.15607833862304688, 1.483154296875, 2.999267578125, 102.66284942626953, 1.497802734375, 2.999267578125, 23.0, 6.0, 10.0, 2.981522560119629
23619, 0.40637555718421936, 4.556426525115967, -5.931173324584961, 0.0, 0.0, 22.447612762451172, 0.0, 0.0, 0.8962631225585938, 0, 0, 0, 0, 0, 0, 9362.0, 30146.0, 35388.0, 9362.0, 8.370248794555664, 3.344769239425659, 0.9205363988876343, 4.466917514801025, 0.12800586223602295, 0.019776666536927223, 1.0106078386306763, -0.07550495117902756, -0.15607833862304688, 1.483154296875, 2.999267578125, 102.66284942626953, 1.496337890625, 2.999267578125, 23.0, 6.0, 10.0, 2.9815785884857178
23629, 0.4343082308769226, 4.548232078552246, -5.910062789916992, 0.0, 0.0, 22.455678939819336, 0.0, 0.0, 0.8066177368164062, 0, 0, 0, 0, 0, 0, 9362.0, 30146.0, 35388.0, 9362.0, 8.370248794555664, 3.163447380065918, 1.2775323390960693, 3.227236747741699, 0.12150277942419052, 0.028680430725216866, 0.9943350553512573, -0.07550495117902756, -0.15607833862304688, 1.483154296875, 2.999267578125, 102.66284942626953, 1.496337890625, 2.999267578125, 23.0, 6.0, 10.0, 2.9816343784332275
23639, 0.4789413511753082, 4.517808437347412, -5.911159038543701, 0.0, 0.0, 22.463485717773438, 0.0, 0.0, 0.7806777954101562, 0, 0, 0, 0, 0, 0, 9362.0, 30146.0, 35388.0, 9362.0, 8.370248794555664, 2.6865313053131104, 2.180849075317383, 1.3997769355773926, 0.10574115067720413, 0.04219730943441391, 0.9908169507980347, -0.07550495117902756, -0.15607833862304688, 1.483154296875, 2.999267578125, 102.66284942626953, 1.48974609375, 2.999267578125, 23.0, 6.0, 10.0, 2.9816901683807373
23649, 0.5088527798652649, 4.487790584564209, -5.922996997833252, 0.0, 0.0, 22.47051239013672, 0.0, 0.0, 0.702667236328125, 0, 0, 0, 0, 0, 0, 9362.0, 30146.0, 35388.0, 9362.0, 8.370248794555664, 2.5742058753967285, 3.45135235786438, -0.9760115146636963, 0.0997069850564003, 0.05536557361483574, 0.9974659085273743, -0.07550495117902756, -0.15607833862304688, 1.483154296875, 2.999267578125, 102.66284942626953, 1.48974609375, 2.999267578125, 23.0, 6.0, 10.0, 2.981745719909668
23659, 0.5502938032150269, 4.419338226318359, -5.938200950622559, 0.0, 0.0, 22.483943939208984, 0.0, 0.0, 1.3431549072265625, 0, 0, 0, 0, 0, 0, 9362.0, 30146.0, 35388.0, 9362.0, 8.370248794555664, 2.335561752319336, 4.909110069274902, -1.6737031936645508, 0.10017798840999603, 0.0584995336830616, 1.0103219747543335, -0.07550495117902756, -0.15607833862304688, 1.483154296875, 2.999267578125, 102.66284942626953, 1.5, 2.999267578125, 23.0, 6.0, 10.0, 2.9818010330200195
23669, 0.5725364089012146, 4.364067554473877, -5.932888984680176, 0.0, 0.0, 22.49603271484375, 0.0, 0.0, 1.2088775634765625, 0, 0, 0, 0, 0, 0, 9362.0, 30146.0, 35388.0, 9362.0, 8.370248794555664, 2.2986109256744385, 6.652953147888184, -0.8965646624565125, 0.09871448576450348, 0.052767958492040634, 1.027635097503662, -0.07550495117902756, -0.15607833862304688, 1.483154296875, 2.999267578125, 102.66284942626953, 1.5, 2.999267578125, 23.0, 6.0, 10.0, 2.981856107711792
23679, 0.600856602191925, 4.268551826477051, -5.903193473815918, 0.0, 0.0, 22.506916046142578, 0.0, 0.0, 1.0883331298828125, 0, 0, 0, 0, 0, 0, 9362.0, 30146.0, 35388.0, 9362.0, 8.370248794555664, 1.9481791257858276, 7.96452522277832, 1.7930445671081543, 0.0984615907073021, 0.048005908727645874, 1.0427935123443604, -0.07544179260730743, 0.1485614776611328, 1.508056640625, 2.999267578125, 102.66284942626953, 1.49560546875, 2.999267578125, 23.0, 6.0, 10.0, 2.9819111824035645
23689, 0.6156665682792664, 4.203319072723389, -5.875364303588867, 0.0, 0.0, 22.516719818115234, 0.0, 0.0, 0.980377197265625, 0, 0, 0, 0, 0, 0, 9362.0, 30146.0, 35388.0, 9362.0, 8.370248794555664, 1.6246111392974854, 8.784668922424316, 2.866058588027954, 0.10121791809797287, 0.04439682140946388, 1.0443528890609741, -0.07544179260730743, 0.1485614776611328, 1.508056640625, 2.999267578125, 102.66284942626953, 1.49560546875, 2.999267578125, 23.0, 6.0, 10.0, 2.981966018676758
23699, 0.6351155042648315, 4.113440036773682, -5.818565845489502, 0.0, 0.0, 22.533199310302734, 0.0, 0.0, 1.64794921875, 0, 0, 0, 0, 0, 0, 9362.0, 30146.0, 35388.0, 9362.0, 8.370248794555664, 1.4370626211166382, 8.764274597167969, 4.2696027755737305, 0.10341436415910721, 0.04046482965350151, 1.0264793634414673, -0.07544179260730743, 0.1485614776611328, 1.508056640625, 2.999267578125, 102.66284942626953, 1.494140625, 2.999267578125, 23.0, 6.0, 10.0, 2.982020616531372
23709, 0.6473325490951538, 4.06536340713501, -5.772098064422607, 0.0, 0.0, 22.548030853271484, 0.0, 0.0, 1.483154296875, 0, 0, 0, 0, 0, 0, 9362.0, 30146.0, 35388.0, 9362.0, 8.370248794555664, 1.374565601348877, 7.498210906982422, 5.054086208343506, 0.10806739330291748, 0.035874977707862854, 1.0085958242416382, -0.07544179260730743, 0.1485614776611328, 1.508056640625, 2.999267578125, 102.66284942626953, 1.494140625, 2.999267578125, 23.0, 6.0, 10.0, 2.9820752143859863
23719, 0.6620222926139832, 4.014174461364746, -5.698193073272705, 0.0, 0.0, 22.55974006652832, 0.0, 0.0, 1.1709213256835938, 0, 0, 0, 0, 0, 0, 9362.0, 30146.0, 35388.0, 9362.0, 8.370248794555664, 1.3763872385025024, 6.1154985427856445, 6.317447185516357, 0.10779094696044922, 0.03535526618361473, 0.9920812249183655, -0.07544179260730743, 0.1485614776611328, 1.508056640625, 2.999267578125, 102.66284942626953, 1.49267578125, 2.999267578125, 23.0, 6.0, 10.0, 2.9821295738220215
23729, 0.6694828867912292, 3.997445583343506, -5.6490373611450195, 0.0, 0.0, 22.57027816772461, 0.0, 0.0, 1.0538101196289062, 0, 0, 0, 0, 0, 0, 9362.0, 30146.0, 35388.0, 9362.0, 8.370248794555664, 1.0038491487503052, 4.125653266906738, 5.955777645111084, 0.10512164235115051, 0.03197463974356651, 0.9796951413154602, -0.07544179260730743, 0.1485614776611328, 1.508056640625, 2.999267578125, 102.66284942626953, 1.49267578125, 2.999267578125, 23.0, 6.0, 10.0, 2.9821836948394775
23739, 0.6798576712608337, 3.989433765411377, -5.573265552520752, 0.0, 0.0, 22.576480865478516, 0.0, 0.0, 0.620269775390625, 0, 0, 0, 0, 0, 0, 9362.0, 30146.0, 35388.0, 9362.0, 8.370248794555664, 0.9195528030395508, 2.0525145530700684, 6.1274919509887695, 0.09988615661859512, 0.028510788455605507, 0.9744997024536133, -0.07544179260730743, 0.1485614776611328, 1.508056640625, 2.999267578125, 102.66284942626953, 1.494140625, 2.999267578125, 23.0, 6.0, 10.0, 2.9822375774383545
23749, 0.6883352398872375, 3.9892232418060303, -5.530545711517334, 0.0, 0.0, 22.582063674926758, 0.0, 0.0, 0.5582809448242188, 0, 0, 0, 0, 0, 0, 9362.0, 30146.0, 35388.0, 9362.0, 8.370248794555664, 0.8379474878311157, 0.8851508498191833, 6.478440761566162, 0.09609279781579971, 0.035336777567863464, 0.9770528674125671, -0.07544179260730743, 0.1485614776611328, 1.508056640625, 2.999267578125, 102.66284942626953, 1.494140625, 2.999267578125, 23.0, 6.0, 10.0, 2.9822914600372314
23759, 0.7071602940559387, 3.991849660873413, -5.504069805145264, 0.0, 0.0, 22.584354400634766, 0.0, 0.0, 0.22907257080078125, 0, 0, 0, 0, 0, 0, 9362.0, 30146.0, 35388.0, 9362.0, 8.370248794555664, 0.6103611588478088, -0.057475656270980835, 3.780210256576538, 0.08468261361122131, 0.0543188601732254, 0.9840903878211975, -0.07544179260730743, 0.1485614776611328, 1.508056640625, 2.999267578125, 102.66284942626953, 1.491943359375, 2.999267578125, 23.0, 6.0, 10.0, 2.9823451042175293
23769, 0.7211151123046875, 3.99143648147583, -5.486846923828125, 0.0, 0.0, 22.586416244506836, 0.0, 0.0, 0.20618438720703125, 0, 0, 0, 0, 0, 0, 9362.0, 30146.0, 35388.0, 9362.0, 8.370248794555664, 0.8132238984107971, 0.26580774784088135, 1.8313149213790894, 0.0763738602399826, 0.056899674236774445, 0.985763669013977, -0.07544179260730743, 0.1485614776611328, 1.508056640625, 2.999267578125, 102.66284942626953, 1.491943359375, 2.999267578125, 23.0, 6.0, 10.0, 2.982398509979248
23779, 0.7454550266265869, 3.9756553173065186, -5.451951026916504, 0.0, 0.0, 22.588817596435547, 0.0, 0.0, 0.24013519287109375, 0, 0, 0, 0, 0, 0, 9362.0, 30146.0, 35388.0, 9362.0, 8.370248794555664, 1.0577099323272705, 0.13622485101222992, 2.302321672439575, 0.07593044638633728, 0.04946131631731987, 1.0051026344299316, -0.061189502477645874, -0.22775840759277344, 1.477294921875, 2.999267578125, 102.66284942626953, 1.49267578125, 2.999267578125, 23.0, 6.0, 10.0, 2.982451915740967
23789, 0.7595497965812683, 3.9549851417541504, -5.412792205810547, 0.0, 0.0, 22.590978622436523, 0.0, 0.0, 0.21610260009765625, 0, 0, 0, 0, 0, 0, 9362.0, 30146.0, 35388.0, 9362.0, 8.370248794555664, 1.3756353855133057, 2.2224502563476562, 3.518507957458496, 0.07633822411298752, 0.049048785120248795, 1.0138212442398071, -0.061189502477645874, -0.22775840759277344, 1.477294921875, 2.999267578125, 102.66284942626953, 1.49267578125, 2.999267578125, 23.0, 6.0, 10.0, 2.9825050830841064
23799, 0.785804808139801, 3.909392833709717, -5.340866565704346, 0.0, 0.0, 22.59183120727539, 0.0, 0.0, 0.08525848388671875, 0, 0, 0, 0, 0, 0, 9362.0, 30146.0, 35388.0, 9362.0, 8.370248794555664, 1.4102553129196167, 3.1610569953918457, 5.408084869384766, 0.07310798019170761, 0.05019700154662132, 1.0122863054275513, -0.061189502477645874, -0.22775840759277344, 1.477294921875, 2.999267578125, 102.66284942626953, 1.493408203125, 2.999267578125, 23.0, 6.0, 10.0, 2.982558012008667
23809, 0.8079383969306946, 3.8701233863830566, -5.2753095626831055, 0.0, 0.0, 22.59259605407715, 0.0, 0.0, 0.07648468017578125, 0, 0, 0, 0, 0, 0, 9362.0, 30146.0, 35388.0, 9362.0, 8.370248794555664, 2.1267788410186768, 4.570622444152832, 6.453858852386475, 0.07331802695989609, 0.04529817774891853, 1.0088328123092651, -0.061189502477645874, -0.22775840759277344, 1.477294921875, 2.999267578125, 102.66284942626953, 1.493408203125, 2.999267578125, 23.0, 6.0, 10.0, 2.9826107025146484
23819, 0.8469467759132385, 3.796964168548584, -5.169142246246338, 0.0, 0.0, 22.594924926757812, 0.0, 0.0, 0.23288726806640625, 0, 0, 0, 0, 0, 0, 9362.0, 30146.0, 35388.0, 9362.0, 8.370248794555664, 3.1297407150268555, 5.925451278686523, 8.411392211914062, 0.07609344273805618, 0.038458116352558136, 1.010259985923767, -0.061189502477645874, -0.22775840759277344, 1.477294921875, 2.999267578125, 102.66284942626953, 1.494873046875, 2.999267578125, 23.0, 6.0, 10.0, 2.98266339302063
23829, 0.8747090101242065, 3.7429323196411133, -5.090743541717529, 0.0, 0.0, 22.597021102905273, 0.0, 0.0, 0.20961761474609375, 0, 0, 0, 0, 0, 0, 9362.0, 30146.0, 35388.0, 9362.0, 8.370248794555664, 3.6098999977111816, 6.553662300109863, 9.128152847290039, 0.0806758850812912, 0.02721978724002838, 1.0117911100387573, -0.061189502477645874, -0.22775840759277344, 1.477294921875, 2.999267578125, 102.66284942626953, 1.494873046875, 2.999267578125, 23.0, 6.0, 10.0, 2.9827158451080322
23839, 0.918348491191864, 3.6645851135253906, -4.965838432312012, 0.0, 0.0, 22.597814559936523, 0.0, 0.0, 0.079345703125, 0, 0, 0, 0, 0, 0, 9362.0, 30146.0, 35388.0, 9362.0, 8.370248794555664, 4.094192981719971, 7.434006214141846, 10.012344360351562, 0.08074016124010086, 0.019960451871156693, 1.01107919216156, -0.061189502477645874, -0.22775840759277344, 1.477294921875, 2.999267578125, 102.66284942626953, 1.497802734375, 2.999267578125, 23.0, 6.0, 10.0, 2.9827680587768555
23849, 0.9481886029243469, 3.6150341033935547, -4.875366687774658, 0.0, 0.0, 22.598527908325195, 0.0, 0.0, 0.0713348388671875, 0, 0, 0, 0, 0, 0, 9362.0, 30146.0, 35388.0, 9362.0, 8.370248794555664, 4.296104907989502, 6.942953109741211, 10.499890327453613, 0.08129020780324936, 0.013597987592220306, 1.0057744979858398, -0.061189502477645874, -0.22775840759277344, 1.477294921875, 2.999267578125, 102.66284942626953, 1.497802734375, 2.999267578125, 23.0, 6.0, 10.0, 2.9828202724456787
23859, 0.9919693470001221, 3.549901247024536, -4.731229782104492, 0.0, 0.0, 22.602996826171875, 0.0, 0.0, 0.44689178466796875, 0, 0, 0, 0, 0, 0, 9362.0, 30146.0, 35388.0, 9362.0, 8.370248794555664, 4.568558216094971, 6.462668418884277, 11.766324043273926, 0.07820732146501541, 0.01034579984843731, 1.0076316595077515, -0.061189502477645874, -0.22775840759277344, 1.477294921875, 2.999267578125, 102.66284942626953, 1.48974609375, 2.999267578125, 23.0, 6.0, 10.0, 2.9828202724456787
23869, 1.0204575061798096, 3.5116448402404785, -4.642622470855713, 0.0, 0.0, 22.607019424438477, 0.0, 0.0, 0.40225982666015625, 0, 0, 0, 0, 0, 0, 9362.0, 30146.0, 35388.0, 9362.0, 8.370248794555664, 4.568558216094971, 6.462668418884277, 11.766324043273926, 0.07820732146501541, 0.01034579984843731, 1.0076316595077515, -0.061189502477645874, -0.22775840759277344, 1.477294921875, 2.999267578125, 102.66284942626953, 1.48974609375, 2.999267578125, 23.0, 6.0, 10.0, 2.9828202724456787
23879, 1.0666285753250122, 3.4649367332458496, -4.529384136199951, 0.0, 0.0, 22.60845184326172, 0.0, 0.0, 0.14324188232421875, 0, 0, 0, 0, 0, 0, 9362.0, 30146.0, 35388.0, 9362.0, 8.370248794555664, 4.568558216094971, 6.462668418884277, 11.766324043273926, 0.07820732146501541, 0.01034579984843731, 1.0076316595077515, -0.07910370826721191, -0.05751800537109375, 1.4912109375, 2.999267578125, 102.66284942626953, 1.496337890625, 2.999267578125, 23.0, 6.0, 10.0, 2.982975721359253
23889, 1.0994294881820679, 3.438194990158081, -4.461908340454102, 0.0, 0.0, 22.6097412109375, 0.0, 0.0, 0.128936767578125, 0, 0, 0, 0, 0, 0, 9362.0, 30146.0, 35388.0, 9362.0, 8.370248794555664, 4.568558216094971, 6.462668418884277, 11.766324043273926, 0.07820732146501541, 0.01034579984843731, 1.0076316595077515, -0.07910370826721191, -0.05751800537109375, 1.4912109375, 2.999267578125, 102.66284942626953, 1.496337890625, 2.999267578125, 23.0, 6.0, 10.0, 2.982975721359253
23899, 1.14505934715271, 3.4075026512145996, -4.363646984100342, 0.0, 0.0, 22.61582374572754, 0.0, 0.0, 0.6082534790039062, 0, 0, 0, 0, 0, 0, 9362.0, 30146.0, 35388.0, 9362.0, 8.370248794555664, 3.847144842147827, 2.5800576210021973, 8.01798152923584, 0.07820732146501541, 0.01034579984843731, 1.0076316595077515, -0.07910370826721191, -0.05751800537109375, 1.4912109375, 2.999267578125, 102.66284942626953, 1.48974609375, 2.999267578125, 23.0, 6.0, 10.0, 2.9830784797668457
23909, 1.172654151916504, 3.3921713829040527, -4.2974066734313965, 0.0, 0.0, 22.62129783630371, 0.0, 0.0, 0.5474090576171875, 0, 0, 0, 0, 0, 0, 9362.0, 30146.0, 35388.0, 9362.0, 8.370248794555664, 3.5808446407318115, 2.000368118286133, 8.36185073852539, 0.07820732146501541, 0.01034579984843731, 1.0076316595077515, -0.07910370826721191, -0.05751800537109375, 1.4912109375, 2.999267578125, 102.66284942626953, 1.48974609375, 2.999267578125, 23.0, 6.0, 10.0, 2.9831295013427734
23919, 1.208397626876831, 3.37660551071167, -4.166457176208496, 0.0, 0.0, 22.62129783630371, 0.0, 0.0, 0.5474090576171875, 0, 0, 0, 0, 0, 0, 9362.0, 30146.0, 35388.0, 9362.0, 8.370248794555664, 3.5808446407318115, 2.000368118286133, 8.36185073852539, 0.039726756513118744, 0.045747507363557816, 1.0052127838134766, -0.07910370826721191, -0.05751800537109375, 1.4912109375, 2.999267578125, 102.66284942626953, 1.48974609375, 2.999267578125, 23.0, 6.0, 10.0, 2.983180522918701
23929, 1.228305459022522, 3.3717691898345947, -4.063199996948242, 0.0, 0.0, 22.6400089263916, 0.0, 0.0, 0.8863449096679688, 0, 0, 0, 0, 0, 0, 9362.0, 30146.0, 35388.0, 9362.0, 8.370248794555664, 2.9746010303497314, 0.8745126128196716, 11.783510208129883, 0.039726756513118744, 0.045747507363557816, 1.0052127838134766, -0.07910370826721191, -0.05751800537109375, 1.4912109375, 2.999267578125, 102.66284942626953, 1.48974609375, 2.999267578125, 23.0, 6.0, 10.0, 2.98323130607605
23949, 1.2720005512237549, 3.375047445297241, -3.79111909866333, 0.0, 0.0, 22.66139793395996, 0.0, 0.0, 1.01318359375, 0, 0, 0, 0, 0, 0, 9362.0, 30146.0, 35388.0, 9362.0, 8.370248794555664, 2.7189321517944336, -0.17648673057556152, 13.516273498535156, 0.043375685811042786, 0.032628729939460754, 1.0002132654190063, -0.07910370826721191, -0.05751800537109375, 1.4912109375, 2.999267578125, 102.66284942626953, 1.5, 2.999267578125, 23.0, 6.0, 10.0, 2.98323130607605
23959, 1.3040049076080322, 3.381135940551758, -3.6365902423858643, 0.0, 0.0, 22.66139793395996, 0.0, 0.0, 1.01318359375, 0, 0, 0, 0, 0, 0, 9362.0, 30146.0, 35388.0, 9362.0, 8.370248794555664, 2.720014810562134, 0.16984903812408447, 13.283774375915527, 0.056640174239873886, 0.033951982855796814, 0.981395423412323, -0.07910370826721191, -0.05751800537109375, 1.4912109375, 2.999267578125, 102.66284942626953, 1.49560546875, 2.999267578125, 23.0, 6.0, 10.0, 2.9833827018737793
23969, 1.3266875743865967, 3.3841564655303955, -3.5248336791992188, 0.0, 0.0, 22.662099838256836, 0.0, 0.0, 0.0331878662109375, 0, 0, 0, 0, 0, 0, 9362.0, 30146.0, 35388.0, 9362.0, 8.350414276123047, 2.720014810562134, 0.16984903812408447, 13.283774375915527, 0.06077494099736214, 0.029774030670523643, 0.9703167676925659, -0.07910370826721191, -0.05751800537109375, 1.4912109375, 2.999267578125, 102.66284942626953, 1.49560546875, 2.999267578125, 23.0, 6.0, 10.0, 2.9834327697753906
23979, 1.3639014959335327, 3.3855860233306885, -3.335533380508423, 0.0, 0.0, 22.662099838256836, 0.0, 0.0, 0.0331878662109375, 0, 0, 0, 0, 0, 0, 9362.0, 30146.0, 35388.0, 9362.0, 8.350414276123047, 2.720014810562134, 0.16984903812408447, 13.283774375915527, 0.06077494099736214, 0.029774030670523643, 0.9703167676925659, -0.044274166226387024, -0.07543754577636719, 1.48974609375, 2.999267578125, 102.66284942626953, 1.4912109375, 2.999267578125, 23.0, 6.0, 10.0, 2.9834327697753906
23989, 1.3924893140792847, 3.3810081481933594, -3.2027862071990967, 0.0, 0.0, 22.6636905670166, 0.0, 0.0, 0.07476806640625, 0, 0, 0, 0, 0, 0, 9362.0, 30146.0, 35388.0, 9362.0, 8.350414276123047, 3.7834737300872803, 0.19358713924884796, 16.735340118408203, 0.06077494099736214, 0.029774030670523643, 0.9703167676925659, -0.044274166226387024, -0.07543754577636719, 1.48974609375, 2.999267578125, 102.66284942626953, 1.4912109375, 2.999267578125, 23.0, 6.0, 10.0, 2.9834327697753906
23999, 1.4461848735809326, 3.3626809120178223, -3.0047433376312256, 0.0, 0.0, 22.6636905670166, 0.0, 0.0, 0.07476806640625, 0, 0, 0, 0, 0, 0, 9362.0, 30146.0, 35388.0, 9362.0, 8.350414276123047, 4.6575093269348145, 0.5615434050559998, 16.184457778930664, 0.04028795287013054, 0.04394618421792984, 0.9421383738517761, -0.044274166226387024, -0.07543754577636719, 1.48974609375, 2.999267578125, 102.66284942626953, 1.497802734375, 2.999267578125, 23.0, 6.0, 10.0, 2.9834327697753906
24009, 1.481507658958435, 3.342729330062866, -2.8572990894317627, 0.0, 0.0, 22.652456283569336, 0.0, 0.0, -0.53253173828125, 0, 0, 0, 0, 0, 0, 9362.0, 30146.0, 35388.0, 9362.0, 8.350414276123047, 5.17495584487915, 1.8140617609024048, 16.803977966308594, 0.04028795287013054, 0.04394618421792984, 0.9421383738517761, -0.044274166226387024, -0.07543754577636719, 1.48974609375, 2.999267578125, 102.66284942626953, 1.497802734375, 2.999267578125, 23.0, 6.0, 10.0, 2.9836318492889404
24019, 1.5331697463989258, 3.294239044189453, -2.600576162338257, 0.0, 0.0, 22.652456283569336, 0.0, 0.0, -0.53253173828125, 0, 0, 0, 0, 0, 0, 9362.0, 30146.0, 35388.0, 9362.0, 8.350414276123047, 5.377411365509033, 2.693127393722534, 19.320236206054688, 0.04028795287013054, 0.04394618421792984, 0.9421383738517761, -0.044274166226387024, -0.07543754577636719, 1.48974609375, 2.999267578125, 102.66284942626953, 1.493408203125, 2.999267578125, 23.0, 6.0, 10.0, 2.9836812019348145
24029, 1.566408634185791, 3.2498021125793457, -2.416006326675415, 0.0, 0.0, 22.65892219543457, 0.0, 0.0, 0.3063201904296875, 0, 0, 0, 0, 0, 0, 9362.0, 30146.0, 35388.0, 9362.0, 8.350414276123047, 5.377411365509033, 2.693127393722534, 19.320236206054688, 0.04028795287013054, 0.04394618421792984, 0.9421383738517761, -0.044274166226387024, -0.07543754577636719, 1.48974609375, 2.999267578125, 102.66284942626953, 1.493408203125, 2.999267578125, 23.0, 6.0, 10.0, 2.9837303161621094
24039, 1.618381142616272, 3.1690707206726074, -2.1442599296569824, 0.0, 0.0, 22.65892219543457, 0.0, 0.0, 0.3063201904296875, 0, 0, 0, 0, 0, 0, 9362.0, 30146.0, 35388.0, 9362.0, 8.350414276123047, 5.377411365509033, 2.693127393722534, 19.320236206054688, 0.04155706241726875, 0.032613400369882584, 1.0200766324996948, -0.044274166226387024, -0.07543754577636719, 1.48974609375, 2.999267578125, 102.66284942626953, 1.496337890625, 2.999267578125, 23.0, 6.0, 10.0, 2.9837303161621094
24049, 1.6515936851501465, 3.110201597213745, -1.9695305824279785, 0.0, 0.0, 22.66416358947754, 0.0, 0.0, 0.2483367919921875, 0, 0, 0, 0, 0, 0, 9362.0, 30146.0, 35388.0, 9362.0, 8.350414276123047, 5.377411365509033, 2.693127393722534, 19.320236206054688, 0.053278274834156036, 0.024709926918148994, 1.0355207920074463, -0.044274166226387024, -0.07543754577636719, 1.48974609375, 2.999267578125, 102.66284942626953, 1.496337890625, 2.999267578125, 23.0, 6.0, 10.0, 2.9837303161621094
24059, 1.701466679573059, 3.0217063426971436, -1.7431820631027222, 0.0, 0.0, 22.66913414001465, 0.0, 0.0, 0.4970550537109375, 0, 0, 0, 0, 0, 0, 9362.0, 30146.0, 35388.0, 9362.0, 8.350414276123047, 5.592515468597412, 8.31029224395752, 20.743898391723633, 0.053278274834156036, 0.024709926918148994, 1.0355207920074463, -0.044274166226387024, -0.07543754577636719, 1.48974609375, 2.999267578125, 102.66284942626953, 1.493408203125, 2.999267578125, 23.0, 6.0, 10.0, 2.983877182006836
24079, 1.785557746887207, 2.9076297283172607, -1.4612239599227905, 0.0, 0.0, 22.67927360534668, 0.0, 0.0, 0.5666732788085938, 0, 0, 0, 0, 0, 0, 9362.0, 30146.0, 35388.0, 9362.0, 8.350414276123047, 5.592515468597412, 8.31029224395752, 20.743898391723633, 0.06511087715625763, 0.0069105615839362144, 1.0131709575653076, -0.044274166226387024, -0.07543754577636719, 1.48974609375, 2.999267578125, 102.66284942626953, 1.494873046875, 2.999267578125, 23.0, 6.0, 10.0, 2.9839742183685303
24089, 1.81516432762146, 2.8793833255767822, -1.3806604146957397, 0.0, 0.0, 22.68437385559082, 0.0, 0.0, 0.5100250244140625, 0, 0, 0, 0, 0, 0, 9362.0, 30146.0, 35388.0, 9362.0, 8.350414276123047, 5.592515468597412, 8.31029224395752, 20.743898391723633, 0.06070443615317345, 0.004898098297417164, 0.9984661936759949, -0.044274166226387024, -0.07543754577636719, 1.48974609375, 2.999267578125, 102.66284942626953, 1.494873046875, 2.999267578125, 23.0, 6.0, 10.0, 2.984022617340088
24099, 1.8502424955368042, 2.8515820503234863, -1.2473928928375244, 0.0, 0.0, 22.68437385559082, 0.0, 0.0, 0.5100250244140625, 0, 0, 0, 0, 0, 0, 9362.0, 30146.0, 35388.0, 9362.0, 8.350414276123047, 4.650146961212158, 3.726032257080078, 9.9777250289917, 0.06070443615317345, 0.004898098297417164, 0.9984661936759949, -0.044274166226387024, -0.07543754577636719, 1.48974609375, 2.999267578125, 102.66284942626953, 1.490478515625, 2.999267578125, 23.0, 6.0, 10.0, 2.9840707778930664
24109, 1.869831919670105, 2.8404958248138428, -1.140755534172058, 0.0, 0.0, 22.68437385559082, 0.0, 0.0, 0.5100250244140625, 0, 0, 0, 0, 0, 0, 9362.0, 30146.0, 35388.0, 9362.0, 8.350414276123047, 4.650146961212158, 3.726032257080078, 9.9777250289917, 0.0433146171271801, 0.0019679756369441748, 0.9906553626060486, -0.044274166226387024, -0.07543754577636719, 1.48974609375, 2.999267578125, 102.66284942626953, 1.490478515625, 2.999267578125, 23.0, 6.0, 10.0, 2.984118700027466
24119, 1.8958522081375122, 2.823176860809326, -0.9579758048057556, 0.0, 0.0, 22.68437385559082, 0.0, 0.0, 0.5100250244140625, 0, 0, 0, 0, 0, 0, 9362.0, 30146.0, 35388.0, 9362.0, 8.350414276123047, 4.650146961212158, 3.726032257080078, 9.9777250289917, 0.03795623034238815, 0.010050266981124878, 0.9929322600364685, -0.044274166226387024, -0.07543754577636719, 1.48974609375, 2.999267578125, 102.66284942626953, 1.490478515625, 2.999267578125, 23.0, 6.0, 10.0, 2.9841666221618652
24129, 1.9100793600082397, 2.8065688610076904, -0.8166409730911255, 0.0, 0.0, 22.694522857666016, 0.0, 0.0, 0.21514892578125, 0, 0, 0, 0, 0, 0, 9362.0, 30146.0, 35388.0, 9362.0, 8.350414276123047, 4.650146961212158, 3.726032257080078, 9.9777250289917, 0.043545857071876526, 0.010568065568804741, 1.0100749731063843, -0.044274166226387024, -0.07543754577636719, 1.48974609375, 2.999267578125, 102.66284942626953, 1.490478515625, 2.999267578125, 23.0, 6.0, 10.0, 2.9842143058776855
24139, 1.934748888015747, 2.77734375, -0.6021737456321716, 0.0, 0.0, 22.694522857666016, 0.0, 0.0, 0.21514892578125, 0, 0, 0, 0, 0, 0, 9362.0, 30146.0, 35388.0, 9362.0, 8.350414276123047, 4.650146961212158, 3.726032257080078, 9.9777250289917, 0.051362983882427216, 0.00878994632512331, 1.0407363176345825, -0.044274166226387024, -0.07543754577636719, 1.48974609375, 2.999267578125, 102.66284942626953, 1.49853515625, 2.999267578125, 23.0, 6.0, 10.0, 2.9842617511749268
24149, 1.9522238969802856, 2.75710129737854, -0.4740310609340668, 0.0, 0.0, 22.696138381958008, 0.0, 0.0, 0.077056884765625, 0, 0, 0, 0, 0, 0, 9362.0, 30146.0, 35388.0, 9362.0, 8.350414276123047, 3.446606397628784, 3.42695951461792, 17.874752044677734, 0.051362983882427216, 0.00878994632512331, 1.0407363176345825, -0.044274166226387024, -0.07543754577636719, 1.48974609375, 2.999267578125, 102.66284942626953, 1.49853515625, 2.999267578125, 23.0, 6.0, 10.0, 2.9842617511749268
24159, 1.9822100400924683, 2.7351956367492676, -0.3121439516544342, 0.0, 0.0, 22.696138381958008, 0.0, 0.0, 0.077056884765625, 0, 0, 0, 0, 0, 0, 9362.0, 30146.0, 35388.0, 9362.0, 8.350414276123047, 3.446606397628784, 3.42695951461792, 17.874752044677734, 0.051362983882427216, 0.00878994632512331, 1.0407363176345825, -0.044274166226387024, -0.07543754577636719, 1.48974609375, 2.999267578125, 102.66284942626953, 1.5, 2.999267578125, 23.0, 6.0, 10.0, 2.98435640335083
24179, 2.032510280609131, 2.743485450744629, -0.08588013052940369, 0.0, 0.0, 22.688138961791992, 0.0, 0.0, -0.3787994384765625, 0, 0, 0, 0, 0, 0, 9362.0, 30146.0, 35388.0, 9362.0, 8.370248794555664, 3.446606397628784, 3.42695951461792, 17.874752044677734, 0.08101755380630493, -0.029545361176133156, 1.0089077949523926, -0.07351954281330109, -0.13815879821777344, 1.484619140625, 2.999267578125, 102.66284942626953, 1.496337890625, 2.999267578125, 23.0, 6.0, 10.0, 2.984450578689575
24189, 2.059154748916626, 2.7645559310913086, -0.013576628640294075, 0.0, 0.0, 22.680622100830078, 0.0, 0.0, -0.35610198974609375, 0, 0, 0, 0, 0, 0, 9362.0, 30146.0, 35388.0, 9362.0, 8.370248794555664, 3.446606397628784, 3.42695951461792, 17.874752044677734, 0.08156079798936844, -0.032936941832304, 0.9934101700782776, -0.07351954281330109, -0.13815879821777344, 1.484619140625, 2.999267578125, 102.66284942626953, 1.496337890625, 2.999267578125, 23.0, 6.0, 10.0, 2.984450578689575
24199, 2.1097867488861084, 2.8054471015930176, 0.08332646638154984, 0.0, 0.0, 22.680622100830078, 0.0, 0.0, -0.35610198974609375, 0, 0, 0, 0, 0, 0, 9362.0, 30146.0, 35388.0, 9362.0, 8.370248794555664, 5.597942352294922, -2.2219932079315186, 8.711952209472656, 0.08156079798936844, -0.032936941832304, 0.9934101700782776, -0.07351954281330109, -0.13815879821777344, 1.484619140625, 2.999267578125, 102.66284942626953, 1.490478515625, 2.999267578125, 23.0, 6.0, 10.0, 2.984450578689575
24209, 2.155865430831909, 2.8353188037872314, 0.1250215619802475, 0.0, 0.0, 22.692195892333984, 0.0, 0.0, 0.5481719970703125, 0, 0, 0, 0, 0, 0, 9362.0, 30146.0, 35388.0, 9362.0, 8.370248794555664, 6.425647258758545, -2.9148755073547363, 7.212883472442627, 0.08156079798936844, -0.032936941832304, 0.9934101700782776, -0.07351954281330109, -0.13815879821777344, 1.484619140625, 2.999267578125, 102.66284942626953, 1.490478515625, 2.999267578125, 23.0, 6.0, 10.0, 2.984450578689575
24219, 2.250720977783203, 2.8834714889526367, 0.1574295163154602, 0.0, 0.0, 22.692195892333984, 0.0, 0.0, 0.5481719970703125, 0, 0, 0, 0, 0, 0, 9362.0, 30146.0, 35388.0, 9362.0, 8.370248794555664, 7.655855655670166, -3.4828574657440186, 4.003219127655029, 0.08156079798936844, -0.032936941832304, 0.9934101700782776, -0.07351954281330109, -0.13815879821777344, 1.484619140625, 2.999267578125, 102.66284942626953, 1.494140625, 2.999267578125, 23.0, 6.0, 10.0, 2.984450578689575
24229, 2.3260881900787354, 2.911156415939331, 0.16948936879634857, 0.0, 0.0, 22.684947967529297, 0.0, 0.0, -0.34332275390625, 0, 0, 0, 0, 0, 0, 9362.0, 30146.0, 35388.0, 9362.0, 8.370248794555664, 7.655855655670166, -3.4828574657440186, 4.003219127655029, 0.04340691119432449, 0.022128352895379066, 0.9726448059082031, -0.07351954281330109, -0.13815879821777344, 1.484619140625, 2.999267578125, 102.66284942626953, 1.494140625, 2.999267578125, 23.0, 6.0, 10.0, 2.984450578689575
24239, 2.4523351192474365, 2.9495177268981934, 0.2010626494884491, 0.0, 0.0, 22.684947967529297, 0.0, 0.0, -0.34332275390625, 0, 0, 0, 0, 0, 0, 9362.0, 30146.0, 35388.0, 9362.0, 8.370248794555664, 7.655855655670166, -3.4828574657440186, 4.003219127655029, 0.03485522046685219, 0.0376897007226944, 0.9657159447669983, -0.07351954281330109, -0.13815879821777344, 1.484619140625, 2.999267578125, 102.66284942626953, 1.493408203125, 2.999267578125, 23.0, 6.0, 10.0, 2.984450578689575
24249, 2.5445806980133057, 2.973332643508911, 0.2506245970726013, 0.0, 0.0, 22.669727325439453, 0.0, 0.0, -0.720977783203125, 0, 0, 0, 0, 0, 0, 9362.0, 30146.0, 35388.0, 9362.0, 8.370248794555664, 10.919693946838379, -3.571646213531494, 3.98392391204834, 0.03485522046685219, 0.0376897007226944, 0.9657159447669983, -0.07351954281330109, -0.13815879821777344, 1.484619140625, 2.999267578125, 102.66284942626953, 1.493408203125, 2.999267578125, 23.0, 6.0, 10.0, 2.9847750663757324
24259, 2.6839425563812256, 3.009326696395874, 0.36543112993240356, 0.0, 0.0, 22.669727325439453, 0.0, 0.0, -0.720977783203125, 0, 0, 0, 0, 0, 0, 9362.0, 30146.0, 35388.0, 9362.0, 8.370248794555664, 10.919693946838379, -3.571646213531494, 3.98392391204834, 0.0350031852722168, 0.06151755526661873, 0.958906888961792, -0.07351954281330109, -0.13815879821777344, 1.484619140625, 2.999267578125, 102.66284942626953, 1.49267578125, 2.999267578125, 23.0, 6.0, 10.0, 2.9847750663757324
24269, 2.7739615440368652, 3.0320279598236084, 0.47136908769607544, 0.0, 0.0, 22.666748046875, 0.0, 0.0, -0.141143798828125, 0, 0, 0, 0, 0, 0, 9362.0, 30146.0, 35388.0, 9362.0, 8.370248794555664, 10.919693946838379, -3.571646213531494, 3.98392391204834, 0.03589430823922157, 0.059538908302783966, 0.9662299156188965, -0.07351954281330109, -0.13815879821777344, 1.484619140625, 2.999267578125, 102.66284942626953, 1.49267578125, 2.999267578125, 23.0, 6.0, 10.0, 2.9847750663757324
24279, 2.901782512664795, 3.0527305603027344, 0.6468390822410583, 0.0, 0.0, 22.666748046875, 0.0, 0.0, -0.141143798828125, 0, 0, 0, 0, 0, 0, 9362.0, 30146.0, 35388.0, 9362.0, 8.370248794555664, 10.919693946838379, -3.571646213531494, 3.98392391204834, 0.03589430823922157, 0.059538908302783966, 0.9662299156188965, -0.07351954281330109, -0.13815879821777344, 1.484619140625, 2.999267578125, 102.66284942626953, 1.49560546875, 2.999267578125, 23.0, 6.0, 10.0, 2.9849119186401367
24289, 2.9799273014068604, 3.062532663345337, 0.740574300289154, 0.0, 0.0, 22.645633697509766, 0.0, 0.0, -1.000213623046875, 0, 0, 0, 0, 0, 0, 9362.0, 30146.0, 35388.0, 9362.0, 8.370248794555664, 10.919693946838379, -3.571646213531494, 3.98392391204834, 0.05980849266052246, 0.02604593150317669, 0.9837507009506226, -0.07351954281330109, -0.13815879821777344, 1.484619140625, 2.999267578125, 102.66284942626953, 1.49560546875, 2.999267578125, 23.0, 6.0, 10.0, 2.984957218170166
24299, 3.082166910171509, 3.0678648948669434, 0.8478060960769653, 0.0, 0.0, 22.645633697509766, 0.0, 0.0, -1.000213623046875, 0, 0, 0, 0, 0, 0, 9362.0, 30146.0, 35388.0, 9362.0, 8.370248794555664, 10.919693946838379, -3.571646213531494, 3.98392391204834, 0.0678761675953865, 0.018789228051900864, 0.9906368851661682, -0.07351954281330109, -0.13815879821777344, 1.484619140625, 2.999267578125, 102.66284942626953, 1.497802734375, 2.999267578125, 23.0, 6.0, 10.0, 2.9850025177001953
24309, 3.13765287399292, 3.0692954063415527, 0.9009637236595154, 0.0, 0.0, 22.633726119995117, 0.0, 0.0, -0.5640029907226562, 0, 0, 0, 0, 0, 0, 9362.0, 30146.0, 35388.0, 9362.0, 8.370248794555664, 9.366167068481445, 0.1991799771785736, 7.911777019500732, 0.0678761675953865, 0.018789228051900864, 0.9906368851661682, -0.07351954281330109, -0.13815879821777344, 1.484619140625, 2.999267578125, 102.66284942626953, 1.497802734375, 2.999267578125, 23.0, 6.0, 10.0, 2.9850025177001953
24319, 3.196883201599121, 3.0737407207489014, 0.9847012758255005, 0.0, 0.0, 22.633726119995117, 0.0, 0.0, -0.5640029907226562, 0, 0, 0, 0, 0, 0, 9362.0, 30146.0, 35388.0, 9362.0, 8.370248794555664, 7.892979621887207, 0.39952319860458374, 6.087514400482178, 0.0678761675953865, 0.018789228051900864, 0.9906368851661682, -0.07351954281330109, -0.13815879821777344, 1.484619140625, 2.999267578125, 102.66284942626953, 1.49560546875, 2.999267578125, 23.0, 6.0, 10.0, 2.9850924015045166
24329, 3.2180590629577637, 3.077108860015869, 1.046679973602295, 0.0, 0.0, 22.618885040283203, 0.0, 0.0, -0.7030487060546875, 0, 0, 0, 0, 0, 0, 9362.0, 30146.0, 35388.0, 9362.0, 8.370248794555664, 7.892979621887207, 0.39952319860458374, 6.087514400482178, 0.06907258927822113, 0.0015436160610988736, 0.9774448275566101, -0.07351954281330109, -0.13815879821777344, 1.484619140625, 2.999267578125, 102.66284942626953, 1.49560546875, 2.999267578125, 23.0, 6.0, 10.0, 2.9850924015045166
24339, 3.2197670936584473, 3.0787951946258545, 1.1511387825012207, 0.0, 0.0, 22.618885040283203, 0.0, 0.0, -0.7030487060546875, 0, 0, 0, 0, 0, 0, 9362.0, 30146.0, 35388.0, 9362.0, 8.370248794555664, 3.2043867111206055, 0.33404630422592163, 7.789797782897949, 0.06532853096723557, 0.005060876719653606, 0.9751400351524353, -0.07351954281330109, -0.13815879821777344, 1.484619140625, 2.999267578125, 102.66284942626953, 1.49560546875, 2.999267578125, 23.0, 6.0, 10.0, 2.9851818084716797
24349, 3.203495502471924, 3.070094108581543, 1.2338340282440186, 0.0, 0.0, 22.60167121887207, 0.0, 0.0, -0.8153915405273438, 0, 0, 0, 0, 0, 0, 9362.0, 30146.0, 35388.0, 9362.0, 8.370248794555664, 3.2043867111206055, 0.33404630422592163, 7.789797782897949, 0.06276006996631622, 0.013138149864971638, 0.9837020039558411, -0.07351954281330109, -0.13815879821777344, 1.484619140625, 2.999267578125, 102.66284942626953, 1.49560546875, 2.999267578125, 23.0, 6.0, 10.0, 2.9851818084716797
24359, 3.152118444442749, 3.0404441356658936, 1.366644024848938, 0.0, 0.0, 22.60167121887207, 0.0, 0.0, -0.8153915405273438, 0, 0, 0, 0, 0, 0, 9362.0, 30146.0, 35388.0, 9362.0, 8.370248794555664, 3.2043867111206055, 0.33404630422592163, 7.789797782897949, 0.06276006996631622, 0.013138149864971638, 0.9837020039558411, -0.07351954281330109, -0.13815879821777344, 1.484619140625, 2.999267578125, 102.66284942626953, 1.496337890625, 2.999267578125, 23.0, 6.0, 10.0, 2.9852707386016846
24379, 2.9981980323791504, 2.952972173690796, 1.5896735191345215, 0.0, 0.0, 22.585649490356445, 0.0, 0.0, -0.7589340209960938, 0, 0, 0, 0, 0, 0, 9362.0, 30146.0, 35388.0, 9362.0, 8.370248794555664, 3.2043867111206055, 0.33404630422592163, 7.789797782897949, 0.04914764314889908, 0.05638108402490616, 1.0001194477081299, -0.07351954281330109, -0.13815879821777344, 1.484619140625, 2.999267578125, 102.66284942626953, 1.5029296875, 2.999267578125, 23.0, 6.0, 10.0, 2.985358953475952
24389, 2.9112775325775146, 2.9146511554718018, 1.6688231229782104, 0.0, 0.0, 22.57890510559082, 0.0, 0.0, -0.31948089599609375, 0, 0, 0, 0, 0, 0, 9362.0, 30146.0, 35388.0, 9362.0, 8.370248794555664, 3.2043867111206055, 0.33404630422592163, 7.789797782897949, 0.0518387146294117, 0.06231635436415672, 1.0032354593276978, -0.07351954281330109, -0.13815879821777344, 1.484619140625, 2.999267578125, 102.66284942626953, 1.5029296875, 2.999267578125, 23.0, 6.0, 10.0, 2.985358953475952
24399, 2.755337953567505, 2.8614840507507324, 1.788171410560608, 0.0, 0.0, 22.57890510559082, 0.0, 0.0, -0.31948089599609375, 0, 0, 0, 0, 0, 0, 9362.0, 30146.0, 35388.0, 9362.0, 8.370248794555664, -11.261475563049316, 5.509305953979492, 9.610098838806152, 0.06176271662116051, 0.0531536303460598, 1.0073963403701782, -0.07351954281330109, -0.13815879821777344, 1.484619140625, 2.999267578125, 102.66284942626953, 1.496337890625, 2.999267578125, 23.0, 6.0, 10.0, 2.9854466915130615
24409, 2.6336889266967773, 2.8329672813415527, 1.8637750148773193, 0.0, 0.0, 22.585908889770508, 0.0, 0.0, 0.33168792724609375, 0, 0, 0, 0, 0, 0, 9362.0, 30146.0, 35388.0, 9362.0, 8.370248794555664, -11.261475563049316, 5.509305953979492, 9.610098838806152, 0.06176271662116051, 0.0531536303460598, 1.0073963403701782, -0.07351954281330109, -0.13815879821777344, 1.484619140625, 2.999267578125, 102.66284942626953, 1.496337890625, 2.999267578125, 23.0, 6.0, 10.0, 2.9854466915130615
24419, 2.4358408451080322, 2.8001270294189453, 1.9450360536575317, 0.0, 0.0, 22.585908889770508, 0.0, 0.0, 0.33168792724609375, 0, 0, 0, 0, 0, 0, 9362.0, 30146.0, 35388.0, 9362.0, 8.370248794555664, -14.574009895324707, 4.02838134765625, 7.9474263191223145, 0.06176271662116051, 0.0531536303460598, 1.0073963403701782, -0.07351954281330109, -0.13815879821777344, 1.484619140625, 2.999267578125, 102.66284942626953, 1.496337890625, 2.999267578125, 23.0, 6.0, 10.0, 2.9854466915130615
24429, 2.2962934970855713, 2.7875618934631348, 1.9857686758041382, 0.0, 0.0, 22.59989356994629, 0.0, 0.0, 0.6624221801757812, 0, 0, 0, 0, 0, 0, 9362.0, 30146.0, 35388.0, 9362.0, 8.370248794555664, -16.119855880737305, 2.9536640644073486, 5.819920539855957, 0.06176271662116051, 0.0531536303460598, 1.0073963403701782, -0.07351954281330109, -0.13815879821777344, 1.484619140625, 2.999267578125, 102.66284942626953, 1.496337890625, 2.999267578125, 23.0, 6.0, 10.0, 2.9854466915130615
24439, 2.0855085849761963, 2.7714881896972656, 2.035425901412964, 0.0, 0.0, 22.59989356994629, 0.0, 0.0, 0.6624221801757812, 0, 0, 0, 0, 0, 0, 9362.0, 30146.0, 35388.0, 9362.0, 8.370248794555664, -16.119855880737305, 2.9536640644073486, 5.819920539855957, 0.07327772676944733, 0.00036338699283078313, 0.991908073425293, -0.07351954281330109, -0.13815879821777344, 1.484619140625, 2.999267578125, 102.66284942626953, 1.490478515625, 2.999267578125, 23.0, 6.0, 10.0, 2.9856204986572266
24449, 1.9447669982910156, 2.7666940689086914, 2.0498087406158447, 0.0, 0.0, 22.597715377807617, 0.0, 0.0, -0.10318756103515625, 0, 0, 0, 0, 0, 0, 9362.0, 30146.0, 35388.0, 9362.0, 8.370248794555664, -16.119855880737305, 2.9536640644073486, 5.819920539855957, 0.07327772676944733, 0.00036338699283078313, 0.991908073425293, -0.07351954281330109, -0.13815879821777344, 1.484619140625, 2.999267578125, 102.66284942626953, 1.490478515625, 2.999267578125, 23.0, 6.0, 10.0, 2.985663652420044
24459, 1.7471386194229126, 2.762831211090088, 2.0508880615234375, 0.0, 0.0, 22.597715377807617, 0.0, 0.0, -0.10318756103515625, 0, 0, 0, 0, 0, 0, 9362.0, 30146.0, 35388.0, 9362.0, 8.370248794555664, -16.119855880737305, 2.9536640644073486, 5.819920539855957, 0.0636398196220398, 0.007869168184697628, 1.0097769498825073, -0.07351954281330109, -0.13815879821777344, 1.484619140625, 2.999267578125, 102.66284942626953, 1.494140625, 2.999267578125, 23.0, 6.0, 10.0, 2.9857065677642822
24469, 1.6270643472671509, 2.7611324787139893, 2.0391147136688232, 0.0, 0.0, 22.604267120361328, 0.0, 0.0, 0.31032562255859375, 0, 0, 0, 0, 0, 0, 9362.0, 30146.0, 35388.0, 9362.0, 8.350414276123047, -16.119855880737305, 2.9536640644073486, 5.819920539855957, 0.05632709711790085, 0.015694253146648407, 1.0154156684875488, -0.07351954281330109, -0.13815879821777344, 1.484619140625, 2.999267578125, 102.66284942626953, 1.494140625, 2.999267578125, 23.0, 6.0, 10.0, 2.9857065677642822
24479, 1.4719256162643433, 2.7603139877319336, 2.0153329372406006, 0.0, 0.0, 22.599403381347656, 0.0, 0.0, -0.4863739013671875, 0, 0, 0, 0, 0, 0, 9362.0, 30146.0, 35388.0, 9362.0, 8.350414276123047, -16.119855880737305, 2.9536640644073486, 5.819920539855957, 0.05632709711790085, 0.015694253146648407, 1.0154156684875488, -0.060356590896844864, -0.08439826965332031, 1.489013671875, 2.999267578125, 102.66284942626953, 1.496337890625, 2.999267578125, 23.0, 6.0, 10.0, 2.9857921600341797
24489, 1.385888934135437, 2.75880765914917, 1.9890120029449463, 0.0, 0.0, 22.59502601623535, 0.0, 0.0, -0.43773651123046875, 0, 0, 0, 0, 0, 0, 9362.0, 30146.0, 35388.0, 9362.0, 8.350414276123047, -16.119855880737305, 2.9536640644073486, 5.819920539855957, 0.046954445540905, 0.020861266180872917, 1.0273520946502686, -0.060356590896844864, -0.08439826965332031, 1.489013671875, 2.999267578125, 102.66284942626953, 1.496337890625, 2.999267578125, 23.0, 6.0, 10.0, 2.9857921600341797
24499, 1.2828543186187744, 2.762406826019287, 1.9602441787719727, 0.0, 0.0, 22.592727661132812, 0.0, 0.0, -0.22983551025390625, 0, 0, 0, 0, 0, 0, 9362.0, 30146.0, 35388.0, 9362.0, 8.350414276123047, -9.934082984924316, -0.0886058360338211, -2.9416539669036865, 0.051455602049827576, 0.01744208298623562, 1.0255308151245117, -0.060356590896844864, -0.08439826965332031, 1.489013671875, 2.999267578125, 102.66284942626953, 1.490478515625, 2.999267578125, 23.0, 6.0, 10.0, 2.9857921600341797
24509, 1.2369513511657715, 2.7635178565979004, 1.9590221643447876, 0.0, 0.0, 22.59065818786621, 0.0, 0.0, -0.20694732666015625, 0, 0, 0, 0, 0, 0, 9362.0, 30146.0, 35388.0, 9362.0, 8.350414276123047, -7.53372049331665, -0.07972414046525955, -1.745084285736084, 0.05841873586177826, 0.01750745065510273, 1.0240026712417603, -0.060356590896844864, -0.08439826965332031, 1.489013671875, 2.999267578125, 102.66284942626953, 1.490478515625, 2.999267578125, 23.0, 6.0, 10.0, 2.98591947555542
24519, 1.1959285736083984, 2.769716262817383, 1.9843231439590454, 0.0, 0.0, 22.587703704833984, 0.0, 0.0, -0.29544830322265625, 0, 0, 0, 0, 0, 0, 9362.0, 30146.0, 35388.0, 9362.0, 8.350414276123047, -7.53372049331665, -0.07972414046525955, -1.745084285736084, 0.055990830063819885, 0.017497630789875984, 1.0218734741210938, -0.060356590896844864, -0.08439826965332031, 1.489013671875, 2.999267578125, 102.66284942626953, 1.494140625, 2.999267578125, 23.0, 6.0, 10.0, 2.985961675643921
24529, 1.1884037256240845, 2.7723331451416016, 2.008607864379883, 0.0, 0.0, 22.587703704833984, 0.0, 0.0, -0.29544830322265625, 0, 0, 0, 0, 0, 0, 9362.0, 30146.0, 35388.0, 9362.0, 8.350414276123047, -7.53372049331665, -0.07972414046525955, -1.745084285736084, 0.055990830063819885, 0.017497630789875984, 1.0218734741210938, -0.060356590896844864, -0.08439826965332031, 1.489013671875, 2.999267578125, 102.66284942626953, 1.494140625, 2.999267578125, 23.0, 6.0, 10.0, 2.9860036373138428
24539, 1.1996455192565918, 2.778181791305542, 2.0476272106170654, 0.0, 0.0, 22.587703704833984, 0.0, 0.0, -0.29544830322265625, 0, 0, 0, 0, 0, 0, 9362.0, 30146.0, 35388.0, 9362.0, 8.350414276123047, -7.53372049331665, -0.07972414046525955, -1.745084285736084, 0.04806461185216904, 0.0257734302431345, 1.0173707008361816, -0.060356590896844864, -0.08439826965332031, 1.489013671875, 2.999267578125, 102.66284942626953, 1.494140625, 2.999267578125, 23.0, 6.0, 10.0, 2.9860036373138428
24549, 1.219285488128662, 2.782440185546875, 2.0771002769470215, 0.0, 0.0, 22.580495834350586, 0.0, 0.0, -0.2155303955078125, 0, 0, 0, 0, 0, 0, 9362.0, 30146.0, 35388.0, 9362.0, 8.350414276123047, -7.53372049331665, -0.07972414046525955, -1.745084285736084, 0.04806461185216904, 0.0257734302431345, 1.0173707008361816, -0.060356590896844864, -0.08439826965332031, 1.489013671875, 2.999267578125, 102.66284942626953, 1.494140625, 2.999267578125, 23.0, 6.0, 10.0, 2.9860873222351074
24559, 1.2600035667419434, 2.787874698638916, 2.1019623279571533, 0.0, 0.0, 22.580495834350586, 0.0, 0.0, -0.2155303955078125, 0, 0, 0, 0, 0, 0, 9362.0, 30146.0, 35388.0, 9362.0, 8.350414276123047, 3.5538861751556396, -0.3804599344730377, 3.4266934394836426, 0.04806461185216904, 0.0257734302431345, 1.0173707008361816, -0.060356590896844864, -0.08439826965332031, 1.489013671875, 2.999267578125, 102.66284942626953, 1.49267578125, 2.999267578125, 23.0, 6.0, 10.0, 2.98612904548645
24569, 1.296186923980713, 2.7886860370635986, 2.1183922290802, 0.0, 0.0, 22.591371536254883, 0.0, 0.0, 0.5157470703125, 0, 0, 0, 0, 0, 0, 9362.0, 30146.0, 35388.0, 9362.0, 8.350414276123047, 4.833250999450684, 0.3980884552001953, 0.9661670327186584, 0.04806461185216904, 0.0257734302431345, 1.0173707008361816, -0.060356590896844864, -0.08439826965332031, 1.489013671875, 2.999267578125, 102.66284942626953, 1.49267578125, 2.999267578125, 23.0, 6.0, 10.0, 2.98612904548645
24579, 1.3609541654586792, 2.7892305850982666, 2.1291322708129883, 0.0, 0.0, 22.591371536254883, 0.0, 0.0, 0.5157470703125, 0, 0, 0, 0, 0, 0, 9362.0, 30146.0, 35388.0, 9362.0, 8.350414276123047, 4.833250999450684, 0.3980884552001953, 0.9661670327186584, 0.04806461185216904, 0.0257734302431345, 1.0173707008361816, -0.05316580832004547, 0.11272048950195312, 1.505126953125, 2.999267578125, 102.66284942626953, 1.49560546875, 2.999267578125, 23.0, 6.0, 10.0, 2.98612904548645
24589, 1.411302924156189, 2.7873237133026123, 2.130690574645996, 0.0, 0.0, 22.59505844116211, 0.0, 0.0, 0.1758575439453125, 0, 0, 0, 0, 0, 0, 9362.0, 30146.0, 35388.0, 9362.0, 8.350414276123047, 6.539511203765869, 0.6095584034919739, 0.28262433409690857, 0.04806461185216904, 0.0257734302431345, 1.0173707008361816, -0.05316580832004547, 0.11272048950195312, 1.505126953125, 2.999267578125, 102.66284942626953, 1.49560546875, 2.999267578125, 23.0, 6.0, 10.0, 2.98612904548645
24599, 1.4987454414367676, 2.7870452404022217, 2.1136281490325928, 0.0, 0.0, 22.59505844116211, 0.0, 0.0, 0.1758575439453125, 0, 0, 0, 0, 0, 0, 9362.0, 30146.0, 35388.0, 9362.0, 8.350414276123047, 7.613829612731934, 0.42034587264060974, -0.4038929343223572, 0.04806461185216904, 0.0257734302431345, 1.0173707008361816, -0.05316580832004547, 0.11272048950195312, 1.505126953125, 2.999267578125, 102.66284942626953, 1.49560546875, 2.999267578125, 23.0, 6.0, 10.0, 2.98612904548645
24609, 1.5613731145858765, 2.7850940227508545, 2.08229398727417, 0.0, 0.0, 22.600238800048828, 0.0, 0.0, 0.2468109130859375, 0, 0, 0, 0, 0, 0, 9362.0, 30146.0, 35388.0, 9362.0, 8.350414276123047, 7.613829612731934, 0.42034587264060974, -0.4038929343223572, 0.06729806959629059, 0.006513316184282303, 1.0743353366851807, -0.05316580832004547, 0.11272048950195312, 1.505126953125, 2.999267578125, 102.66284942626953, 1.49560546875, 2.999267578125, 23.0, 6.0, 10.0, 2.98612904548645
24619, 1.6630103588104248, 2.7870640754699707, 2.0082993507385254, 0.0, 0.0, 22.600238800048828, 0.0, 0.0, 0.2468109130859375, 0, 0, 0, 0, 0, 0, 9362.0, 30146.0, 35388.0, 9362.0, 8.350414276123047, 8.017524719238281, 0.35193371772766113, -4.836273670196533, 0.06729806959629059, 0.006513316184282303, 1.0743353366851807, -0.05316580832004547, 0.11272048950195312, 1.505126953125, 2.999267578125, 102.66284942626953, 1.49267578125, 2.999267578125, 23.0, 6.0, 10.0, 2.98612904548645
24629, 1.7318252325057983, 2.7909393310546875, 1.9422391653060913, 0.0, 0.0, 22.600412368774414, 0.0, 0.0, 0.00972747802734375, 0, 0, 0, 0, 0, 0, 9362.0, 30146.0, 35388.0, 9362.0, 8.350414276123047, 8.017524719238281, 0.35193371772766113, -4.836273670196533, 0.06413587927818298, 0.020304637029767036, 1.0737000703811646, -0.05316580832004547, 0.11272048950195312, 1.505126953125, 2.999267578125, 102.66284942626953, 1.49267578125, 2.999267578125, 23.0, 6.0, 10.0, 2.98612904548645
24639, 1.83040189743042, 2.805345058441162, 1.832754135131836, 0.0, 0.0, 22.600412368774414, 0.0, 0.0, 0.00972747802734375, 0, 0, 0, 0, 0, 0, 9362.0, 30146.0, 35388.0, 9362.0, 8.350414276123047, 8.47314167022705, -0.4874279499053955, -9.00094985961914, 0.06413587927818298, 0.020304637029767036, 1.0737000703811646, -0.05316580832004547, 0.11272048950195312, 1.505126953125, 2.999267578125, 102.66284942626953, 1.48974609375, 2.999267578125, 23.0, 6.0, 10.0, 2.98612904548645
24649, 1.8866716623306274, 2.8164749145507812, 1.7603442668914795, 0.0, 0.0, 22.59337615966797, 0.0, 0.0, -0.33245086669921875, 0, 0, 0, 0, 0, 0, 9362.0, 30146.0, 35388.0, 9362.0, 8.350414276123047, 8.47314167022705, -0.4874279499053955, -9.00094985961914, 0.06896253675222397, -0.005024667363613844, 1.0634170770645142, -0.05316580832004547, 0.11272048950195312, 1.505126953125, 2.999267578125, 102.66284942626953, 1.48974609375, 2.999267578125, 23.0, 6.0, 10.0, 2.98612904548645
24659, 1.9552348852157593, 2.8460159301757812, 1.6511878967285156, 0.0, 0.0, 22.59337615966797, 0.0, 0.0, -0.33245086669921875, 0, 0, 0, 0, 0, 0, 9362.0, 30146.0, 35388.0, 9362.0, 8.350414276123047, 8.47314167022705, -0.4874279499053955, -9.00094985961914, 0.06419449299573898, -0.007166776340454817, 1.0588935613632202, -0.05316580832004547, 0.11272048950195312, 1.505126953125, 2.999267578125, 102.66284942626953, 1.49560546875, 2.999267578125, 23.0, 6.0, 10.0, 2.98612904548645
24669, 1.9907792806625366, 2.8725030422210693, 1.5747790336608887, 0.0, 0.0, 22.589807510375977, 0.0, 0.0, -0.1689910888671875, 0, 0, 0, 0, 0, 0, 9362.0, 30146.0, 35388.0, 9362.0, 8.370248794555664, 8.47314167022705, -0.4874279499053955, -9.00094985961914, 0.05372864380478859, 0.0005545371677726507, 1.0360393524169922, -0.05316580832004547, 0.11272048950195312, 1.505126953125, 2.999267578125, 102.66284942626953, 1.49560546875, 2.999267578125, 23.0, 6.0, 10.0, 2.98612904548645
24679, 2.024062395095825, 2.918109178543091, 1.4560835361480713, 0.0, 0.0, 22.589807510375977, 0.0, 0.0, -0.1689910888671875, 0, 0, 0, 0, 0, 0, 9362.0, 30146.0, 35388.0, 9362.0, 8.370248794555664, 8.47314167022705, -0.4874279499053955, -9.00094985961914, 0.05372864380478859, 0.0005545371677726507, 1.0360393524169922, -0.062095172703266144, -0.0037593841552734375, 1.49560546875, 2.999267578125, 102.66284942626953, 1.494873046875, 2.999267578125, 23.0, 6.0, 10.0, 2.98612904548645
24689, 2.0251052379608154, 2.95247483253479, 1.3706203699111938, 0.0, 0.0, 22.588987350463867, 0.0, 0.0, -0.038909912109375, 0, 0, 0, 0, 0, 0, 9362.0, 30146.0, 35388.0, 9362.0, 8.370248794555664, 2.1248748302459717, -4.162184238433838, -9.755881309509277, 0.05372864380478859, 0.0005545371677726507, 1.0360393524169922, -0.062095172703266144, -0.0037593841552734375, 1.49560546875, 2.999267578125, 102.66284942626953, 1.494873046875, 2.999267578125, 23.0, 6.0, 10.0, 2.9866583347320557
24699, 1.994482398033142, 3.003671646118164, 1.2459009885787964, 0.0, 0.0, 22.588987350463867, 0.0, 0.0, -0.038909912109375, 0, 0, 0, 0, 0, 0, 9362.0, 30146.0, 35388.0, 9362.0, 8.370248794555664, 2.1248748302459717, -4.162184238433838, -9.755881309509277, 0.048203956335783005, -0.0010379917221143842, 1.0190011262893677, -0.062095172703266144, -0.0037593841552734375, 1.49560546875, 2.999267578125, 102.66284942626953, 1.497802734375, 2.999267578125, 23.0, 6.0, 10.0, 2.9866981506347656
24719, 1.8799717426300049, 3.0619027614593506, 1.0505555868148804, 0.0, 0.0, 22.576881408691406, 0.0, 0.0, -0.5735397338867188, 0, 0, 0, 0, 0, 0, 9362.0, 30146.0, 35388.0, 9362.0, 8.370248794555664, -4.833343029022217, -3.563875675201416, -9.135639190673828, 0.048203956335783005, -0.0010379917221143842, 1.0190011262893677, -0.062095172703266144, -0.0037593841552734375, 1.49560546875, 2.999267578125, 102.66284942626953, 1.49560546875, 2.999267578125, 23.0, 6.0, 10.0, 2.9866981506347656
24729, 1.8218274116516113, 3.0670390129089355, 0.9623817205429077, 0.0, 0.0, 22.569149017333984, 0.0, 0.0, -0.3662109375, 0, 0, 0, 0, 0, 0, 9362.0, 30146.0, 35388.0, 9362.0, 8.370248794555664, -6.094029903411865, -1.6606472730636597, -10.398885726928711, 0.048203956335783005, -0.0010379917221143842, 1.0190011262893677, -0.062095172703266144, -0.0037593841552734375, 1.49560546875, 2.999267578125, 102.66284942626953, 1.49560546875, 2.999267578125, 23.0, 6.0, 10.0, 2.9866981506347656
24739, 1.7346960306167603, 3.0612831115722656, 0.817924976348877, 0.0, 0.0, 22.569149017333984, 0.0, 0.0, -0.3662109375, 0, 0, 0, 0, 0, 0, 9362.0, 30146.0, 35388.0, 9362.0, 8.370248794555664, -7.011414527893066, -0.1781836599111557, -11.607762336730957, 0.048203956335783005, -0.0010379917221143842, 1.0190011262893677, -0.062095172703266144, -0.0037593841552734375, 1.49560546875, 2.999267578125, 102.66284942626953, 1.5, 2.999267578125, 23.0, 6.0, 10.0, 2.9866981506347656
24749, 1.6805434226989746, 3.0475761890411377, 0.725136935710907, 0.0, 0.0, 22.580570220947266, 0.0, 0.0, 0.5414962768554688, 0, 0, 0, 0, 0, 0, 9362.0, 30146.0, 35388.0, 9362.0, 8.370248794555664, -7.011414527893066, -0.1781836599111557, -11.607762336730957, 0.07380365580320358, -0.014316275715827942, 1.0529502630233765, -0.062095172703266144, -0.0037593841552734375, 1.49560546875, 2.999267578125, 102.66284942626953, 1.5, 2.999267578125, 23.0, 6.0, 10.0, 2.9868953227996826
24759, 1.6087456941604614, 3.0309267044067383, 0.5684785842895508, 0.0, 0.0, 22.580570220947266, 0.0, 0.0, 0.5414962768554688, 0, 0, 0, 0, 0, 0, 9362.0, 30146.0, 35388.0, 9362.0, 8.370248794555664, -6.135535717010498, 1.886901617050171, -12.254671096801758, 0.07380365580320358, -0.014316275715827942, 1.0529502630233765, -0.062095172703266144, -0.0037593841552734375, 1.49560546875, 2.999267578125, 102.66284942626953, 1.4970703125, 2.999267578125, 23.0, 6.0, 10.0, 2.9869344234466553
24779, 1.5029832124710083, 3.0272181034088135, 0.3259454667568207, 0.0, 0.0, 22.57842254638672, 0.0, 0.0, -0.10166168212890625, 0, 0, 0, 0, 0, 0, 9362.0, 30146.0, 35388.0, 9362.0, 8.370248794555664, -5.43419075012207, 1.1222233772277832, -13.446020126342773, 0.07380365580320358, -0.014316275715827942, 1.0529502630233765, -0.040862150490283966, 0.03208160400390625, 1.49853515625, 2.999267578125, 102.66284942626953, 1.49560546875, 2.999267578125, 23.0, 6.0, 10.0, 2.986973285675049
