timeTick, roll, pitch, yaw, stateX, stateY, stateZ, stateVX, stateVY, stateVZ, otX0, otY0, otZ0, otRoll0, otPitch0, otYaw0, left wing, pitch motor, yaw motor, right wing, voltage, roll rate, pitch rate, yaw rate, A_x, A_y, A_z, current, i_raw, v_raw, airflow_voltage, airflow_speed, pot_Pitch
48695, 0.0011786180548369884, -0.003984532319009304, 0.0006051880773156881, 0, 0, 0, 0, 0, 0, -0.8205254673957825, -1.0268534421920776, 0.052478592842817307, -0.22334318361050362, 0.7427707668807102, 1.6596871380251101, 0, 0, 0, 0, 0, 0, 0, 0, 0, 0, 0, 0, 0, 0, 0, 0, 0
48705, 0.0008443818078376353, -0.004957998637109995, 0.002401910489425063, 2.253392068496396e-07, -1.0452409071604052e-07, 0.00019662338308990002, 1.6539932403247803e-05, -6.731630492140539e-06, 0.009840033017098904, -0.8205150365829468, -1.0268356800079346, 0.05246708542108536, -0.23343089397767308, 0.738716421176008, 1.6603479732142237, 9362.0, 30146.0, 35388.0, 9362.0, 0, 0.003499989164993167, 0.17476533353328705, -0.324403315782547, 0, 0, 0, 0, 0, 0, 0, 0, 0
48715, 0.0009807177120819688, -0.00753273768350482, 0.0016598474467173219, 4.342983856986393e-07, -1.792570429870466e-07, 0.0003079069429077208, 2.5367684429511428e-05, -8.221199095714837e-06, 0.0124170808121562, -0.8205060362815857, -1.0268516540527344, 0.05248723179101944, -0.21996709590277538, 0.7353757709281297, 1.666164681204694, 9362.0, 30146.0, 35388.0, 9362.0, 0, 0.16472023725509644, -0.11903427541255951, -0.27513280510902405, -0.08436402678489685, -0.016353825107216835, 1.026442050933838, 0, 0, 0, 1.51611328125, 0.2286224365234375, 0
48725, 0.0016979763749986887, -0.0069059026427567005, 0.0003807253669947386, 7.541324293924845e-07, -2.7008033498532313e-07, 0.00044478190829977393, 3.8571284676436335e-05, -9.975566172215622e-06, 0.014958309940993786, -0.8205210566520691, -1.0268474817276, 0.05248800665140152, -0.22281267862730678, 0.7429686137577676, 1.662580031164421, 9362.0, 30146.0, 35388.0, 9362.0, 0, 0.07309174537658691, -0.028784656897187233, -0.12574166059494019, -0.08367934823036194, -0.014743614941835403, 1.0250555276870728, 0, 0, 0, 1.443603515625, 0.0948486328125, 1.49267578125
48735, 0.0024026078172028065, -0.00743040069937706, 0.000577586586587131, 1.2004521749986452e-06, -3.8473714880638e-07, 0.0006066964706405997, 5.071525083621964e-05, -1.2986086403543595e-05, 0.01742500811815262, -0.8205202221870422, -1.0268515348434448, 0.052490945905447006, -0.2267294478826064, 0.7388331986085461, 1.6626859877359756, 9362.0, 30146.0, 35388.0, 9362.0, 0, -0.13001053035259247, -0.1405794769525528, 0.20294639468193054, -0.08614332973957062, -0.014951403252780437, 1.0253667831420898, 0, 0, 0, 1.4677734375, 0.1347198486328125, 1.49267578125
48745, 0.0023738709278404713, -0.0074882106855511665, 0.00045073562068864703, 1.7728390275806305e-06, -5.356906740416889e-07, 0.0007934658206067979, 6.376465171342716e-05, -1.720339059829712e-05, 0.01992926374077797, -0.8204975128173828, -1.0268441438674927, 0.05248500779271126, -0.2195919458094449, 0.7321082448184768, 1.6653937436204327, 9362.0, 30146.0, 35388.0, 9362.0, 0, -0.06654632091522217, -0.23064172267913818, -0.10623323172330856, -0.08375390619039536, -0.015664855018258095, 1.0249407291412354, 0, 0, 0, 1.389404296875, 0.03082275390625, 1.490478515625
48755, 0.0020605435129255056, -0.0042777168564498425, 6.664625834673643e-05, 2.4762418888713e-06, -7.285697165571037e-07, 0.001005389029160142, 7.67743622418493e-05, -2.135869362973608e-05, 0.022455789148807526, -0.8205178380012512, -1.0268621444702148, 0.052465882152318954, -0.2245681771651953, 0.7346377725153275, 1.6670650936019324, 9362.0, 30146.0, 35388.0, 9362.0, 0, 0.03203607350587845, -0.14819298684597015, -0.19317682087421417, -0.08273357152938843, -0.014215326867997646, 1.0269042253494263, 0, 0, 0, 1.446533203125, 0.09930419921875, 1.490478515625
48765, 0.001213584328070283, -0.005665753502398729, -0.0004365169443190098, 3.281532144683297e-06, -9.602424597687786e-07, 0.0012423460138961673, 8.43437373987399e-05, -2.49392724072095e-05, 0.024936001747846603, -0.8205170631408691, -1.0268388986587524, 0.05249191075563431, -0.22247237619624566, 0.7385469880300946, 1.6652488262279685, 9362.0, 30146.0, 35388.0, 9362.0, 0, -0.03741660341620445, -0.2126566767692566, 0.16371828317642212, -0.08347756415605545, -0.01573573797941208, 1.024601697921753, 0, 0, 0, 1.493408203125, 0.1825714111328125, 1.48974609375
48775, 0.0015319929225370288, -0.005562050733715296, -0.00012184509978396818, 4.17465207647183e-06, -1.2202773405078915e-06, 0.0015036268159747124, 9.427592158317566e-05, -2.7080901418230496e-05, 0.027320552617311478, -0.8205084800720215, -1.02683424949646, 0.052506159991025925, -0.22826686887198314, 0.738743196379545, 1.6671841650946515, 9362.0, 30146.0, 35388.0, 9362.0, 0, 0.08230084925889969, 0.20413018763065338, 0.047394800931215286, -0.08280178159475327, -0.01213121134787798, 1.0238879919052124, 0, 0, 0, 1.467041015625, 0.1334686279296875, 1.48974609375
48785, 0.0013285699533298612, -0.005904031917452812, -0.0002598992723505944, 5.16619547852315e-06, -1.5045234249555506e-06, 0.0017888699658215046, 0.0001040471761371009, -2.9759803510387428e-05, 0.029728496447205544, -0.820517897605896, -1.026836633682251, 0.05247780308127403, -0.2224916137003393, 0.7392210613625139, 1.6593784820029878, 9362.0, 30146.0, 35388.0, 9362.0, 0, -0.17178048193454742, -0.06858624517917633, -0.014270150102674961, -0.0867345929145813, -0.013432437554001808, 1.0251058340072632, 0, 0, 0, 1.4208984375, 0.063079833984375, 1.493408203125
48795, 0.001864562276750803, -0.008311016485095024, 0.0007694510277360678, 6.258513167267665e-06, -1.813788458093768e-06, 0.00209879782050848, 0.00011452269245637581, -3.211669172742404e-05, 0.03225748613476753, -0.8205164670944214, -1.0268328189849854, 0.052467092871665955, -0.2267478173565649, 0.7427186224573461, 1.6667882442993167, 9362.0, 30146.0, 35388.0, 9362.0, 8.390083312988281, -0.16343487799167633, -0.055175602436065674, -0.4089439809322357, -0.0849543958902359, -0.012078682892024517, 1.026018738746643, 0, 0, 0, 1.47802734375, 0.1532745361328125, 1.493408203125
48805, 0.00157067459076643, -0.008197917602956295, -0.00031190947629511356, 7.476747214241186e-06, -2.151333319488913e-06, 0.0024341787211596966, 0.00012911902740597725, -3.537943121045828e-05, 0.03481912240386009, -0.820521891117096, -1.0268418788909912, 0.05248567461967468, -0.23392733273775748, 0.740873480694745, 1.6629131491409488, 9362.0, 30146.0, 35388.0, 9362.0, 8.390083312988281, 0.1552422195672989, 0.009252320975065231, -0.09415727108716965, -0.08337635546922684, -0.013616225682199001, 1.02558434009552, -0.09180533140897751, -0.05751800537109375, 1.4912109375, 1.442138671875, 0.0926361083984375, 1.493408203125
48815, 0.0011698821326717734, -0.008109139278531075, -0.0028257654048502445, 8.839869224175345e-06, -2.5189096959365997e-06, 0.0027946080081164837, 0.00014350152923725545, -3.811937858699821e-05, 0.03726711869239807, -0.8205194473266602, -1.0268559455871582, 0.052473410964012146, -0.222496885617608, 0.7399755987252945, 1.6599096860232856, 9362.0, 30146.0, 35388.0, 9362.0, 8.390083312988281, 0.09427144378423691, -0.13542762398719788, -0.05955107510089874, -0.08228348940610886, -0.01416523102670908, 1.024983286857605, -0.09180533140897751, -0.05751800537109375, 1.4912109375, 1.45751953125, 0.117095947265625, 1.493408203125
48825, 0.001659913221374154, -0.008984607644379139, -0.0036935550160706043, 1.0346036106057e-05, -2.9103719043632736e-06, 0.00317951082251966, 0.0001577692455612123, -4.019419429823756e-05, 0.03971382975578308, -0.8205175399780273, -1.0268468856811523, 0.05249388888478279, -0.22748965121541775, 0.7336401147811102, 1.6682201430813692, 9362.0, 30146.0, 35388.0, 9362.0, 8.390083312988281, 0.13807013630867004, -0.16430413722991943, -0.0793026015162468, -0.08093056082725525, -0.013655946590006351, 1.0248658657073975, -0.09180533140897751, -0.05751800537109375, 1.4912109375, 1.55419921875, 0.311279296875, 1.491943359375
48835, 0.003497473197057843, -0.011451480910182, -0.004716674797236919, 1.2002528819721192e-05, -3.326877504150616e-06, 0.00358867016620934, 0.0001736326958052814, -4.31842781836167e-05, 0.04211845621466637, -0.8205166459083557, -1.0268402099609375, 0.052479881793260574, -0.22916330941388285, 0.7377503317514993, 1.6623412389941818, 9362.0, 30146.0, 35388.0, 9362.0, 8.390083312988281, 0.0040214392356574535, 0.04799063876271248, -0.18393559753894806, -0.08480526506900787, -0.014655254781246185, 1.0246716737747192, -0.09180533140897751, -0.05751800537109375, 1.4912109375, 1.41650390625, 0.0577545166015625, 1.491943359375
48845, 0.0040464987978339195, -0.012194335460662842, -0.00500862579792738, 1.3839320672559552e-05, -3.7894128581683617e-06, 0.004022027365863323, 0.0001937571942107752, -4.934622484142892e-05, 0.044553350657224655, -0.820515513420105, -1.0268421173095703, 0.05249321460723877, -0.22717603485194424, 0.7383949372534175, 1.6593593979361843, 9362.0, 30146.0, 35388.0, 9362.0, 8.390083312988281, 0.07994717359542847, 0.16418665647506714, 0.11819857358932495, -0.08449483662843704, -0.013487335294485092, 1.0246491432189941, -0.09180533140897751, -0.05751800537109375, 1.4912109375, 1.4912109375, 0.178253173828125, 1.487548828125
48855, 0.004700671415776014, -0.01518094539642334, -0.005286625120788813, 1.588370287208818e-05, -4.318329047237057e-06, 0.004478932823985815, 0.00021523793111555278, -5.6463079090463e-05, 0.046828169375658035, -0.8205177187919617, -1.0268466472625732, 0.052462972700595856, -0.22429287343949036, 0.7390147866157122, 1.6698072399117307, 9362.0, 30146.0, 35388.0, 9362.0, 8.390083312988281, 0.24518056213855743, -0.04901326820254326, -0.2811422049999237, -0.08395539969205856, -0.01415336225181818, 1.023048758506775, -0.09180533140897751, -0.05751800537109375, 1.4912109375, 1.4970703125, 0.18975830078125, 1.487548828125
48865, 0.005208239890635014, -0.01777695305645466, -0.005112697370350361, 1.816913027141709e-05, -4.924170752929058e-06, 0.004958876874297857, 0.00024195325386244804, -6.472582754213363e-05, 0.049161072820425034, -0.8205241560935974, -1.0268481969833374, 0.052468132227659225, -0.22747733118007174, 0.7437122959983924, 1.6657709798860039, 9362.0, 30146.0, 35388.0, 9362.0, 8.390083312988281, 0.05416322872042656, 0.1762232929468155, 0.11652195453643799, -0.08204533159732819, -0.014501727186143398, 1.0234142541885376, -0.09180533140897751, -0.05751800537109375, 1.4912109375, 1.51025390625, 0.2164154052734375, 1.49267578125
48875, 0.006634351797401905, -0.017073461785912514, -0.005770279094576836, 2.0744468201883137e-05, -5.617091119347606e-06, 0.005462164990603924, 0.000273085490334779, -7.391676626866683e-05, 0.05149698629975319, -0.8205262422561646, -1.026839256286621, 0.05248751863837242, -0.22326474154866338, 0.7359348069800262, 1.6610871971275922, 9362.0, 30146.0, 35388.0, 9362.0, 8.390083312988281, -0.07960701733827591, 0.1555657535791397, -0.020130207762122154, -0.08203490078449249, -0.014834785833954811, 1.0239895582199097, -0.09180533140897751, -0.05751800537109375, 1.4912109375, 1.468505859375, 0.13604736328125, 1.49267578125
48885, 0.006464141421020031, -0.019040938466787338, -0.004764453042298555, 2.3624836103408597e-05, -6.414373274310492e-06, 0.00598839670419693, 0.0003030656953342259, -8.553251245757565e-05, 0.053749702870845795, -0.820511519908905, -1.0268445014953613, 0.052480489015579224, -0.22274569223497404, 0.7406773980804928, 1.6677714179403957, 9362.0, 30146.0, 35388.0, 9362.0, 8.390083312988281, 0.2215794324874878, -0.1512896567583084, -0.12272177636623383, -0.0808723047375679, -0.014987579546868801, 1.0222269296646118, -0.09180533140897751, -0.05751800537109375, 1.4912109375, 1.497802734375, 0.19122314453125, 1.4912109375
48895, 0.007832486182451248, -0.01804530620574951, -0.00493247015401721, 2.6821871870197356e-05, -7.326197192014661e-06, 0.00653605442494154, 0.00033630611142143607, -9.688083810033277e-05, 0.05578218400478363, -0.820517361164093, -1.026837944984436, 0.05247309431433678, -0.22502460819798034, 0.7369050791852771, 1.6665714101194826, 9362.0, 30146.0, 35388.0, 9362.0, 8.390083312988281, 0.06307149678468704, -0.27780628204345703, -0.2242809385061264, -0.08359135687351227, -0.015138810500502586, 1.0202844142913818, -0.09180533140897751, -0.05751800537109375, 1.4912109375, 1.462646484375, 0.125823974609375, 1.4912109375
48905, 0.008335472084581852, -0.018325958400964737, -0.005237111356109381, 3.0342936952365562e-05, -8.363602319150232e-06, 0.007105070166289806, 0.00036791758611798286, -0.00011061994882766157, 0.058021314442157745, -0.8205164670944214, -1.0268394947052002, 0.05249714478850365, -0.22833593335621327, 0.742807876948774, 1.6621271783956812, 9362.0, 30146.0, 35388.0, 9362.0, 8.390083312988281, 0.10595289617776871, 0.2926046848297119, 0.12297457456588745, -0.08623822778463364, -0.015751047059893608, 1.024027943611145, -0.08140052855014801, -0.2904777526855469, 1.47216796875, 1.44580078125, 0.098236083984375, 1.490478515625
48915, 0.009642338380217552, -0.020742544904351234, -0.005473782774060965, 3.4182950912509114e-05, -9.54297593125375e-06, 0.007697662804275751, 0.0004001896595582366, -0.00012531141692306846, 0.060497622936964035, -0.8205188512802124, -1.0268408060073853, 0.05249909684062004, -0.22546488433649187, 0.7380697709480728, 1.6657405506363308, 9362.0, 30146.0, 35388.0, 9362.0, 8.390083312988281, -0.04314509406685829, -0.19039079546928406, 0.10340902209281921, -0.08558671176433563, -0.013483522459864616, 1.0259581804275513, -0.08140052855014801, -0.2904777526855469, 1.47216796875, 1.50439453125, 0.2044219970703125, 1.490478515625
48925, 0.008803337812423706, -0.02011859603226185, -0.003946356009691954, 3.836705218418501e-05, -1.0880810805247165e-05, 0.008315456099808216, 0.0004366033826954663, -0.00014221708988770843, 0.06306135654449463, -0.8205100297927856, -1.0268405675888062, 0.05250011384487152, -0.23055928813148674, 0.7372447489260594, 1.6690204246282436, 9362.0, 30146.0, 35388.0, 9362.0, 8.390083312988281, 0.25476518273353577, -0.13061214983463287, -0.1397508978843689, -0.08419609814882278, -0.014842706732451916, 1.0256237983703613, -0.08140052855014801, -0.2904777526855469, 1.47216796875, 1.5087890625, 0.21337890625, 1.493408203125
48935, 0.009680790826678276, -0.01977812871336937, -0.005148961208760738, 4.2909559851977974e-05, -1.238021650351584e-05, 0.00895816832780838, 0.00047188380267471075, -0.00015770187019370496, 0.06548147648572922, -0.8205235004425049, -1.0268369913101196, 0.052471913397312164, -0.22428292417768095, 0.739002094616211, 1.6654526650665973, 9362.0, 30146.0, 35388.0, 9362.0, 8.390083312988281, 0.040374547243118286, 0.05042989179491997, -0.06779039651155472, -0.08553777635097504, -0.014603551477193832, 1.0239557027816772, -0.08140052855014801, -0.2904777526855469, 1.47216796875, 1.532958984375, 0.2644195556640625, 1.493408203125
48945, 0.010435068048536777, -0.018311984837055206, -0.004940075799822807, 4.7801942855585366e-05, -1.4042199836694635e-05, 0.009625251404941082, 0.0005065301083959639, -0.0001747268543113023, 0.06793556362390518, -0.8205212950706482, -1.0268425941467285, 0.05248570069670677, -0.2251559968695809, 0.7366287423495237, 1.6614743712819622, 9362.0, 30146.0, 35388.0, 9362.0, 8.390083312988281, 0.09941905736923218, 0.08474285155534744, 0.17339769005775452, -0.08159390836954117, -0.012499326840043068, 1.0266916751861572, -0.08140052855014801, -0.2904777526855469, 1.47216796875, 1.50439453125, 0.2044219970703125, 1.4912109375
48955, 0.01059701293706894, -0.01859857141971588, -0.004796707071363926, 5.302816498442553e-05, -1.5881187209743075e-05, 0.010317632928490639, 0.0005387275014072657, -0.00019307796901557595, 0.07054107636213303, -0.8205237984657288, -1.026832938194275, 0.05248698592185974, -0.22661692320616408, 0.7350980981236717, 1.6590347934205267, 9362.0, 30146.0, 35388.0, 9362.0, 8.390083312988281, 0.07664869725704193, 0.27102482318878174, 0.2739291489124298, -0.08231980353593826, -0.013467744924128056, 1.0262250900268555, -0.08140052855014801, -0.2904777526855469, 1.47216796875, 1.4765625, 0.1505584716796875, 1.4912109375
48965, 0.010721095837652683, -0.019478879868984222, -0.002883666893467307, 5.857846554135904e-05, -1.7904872947838157e-05, 0.011034796014428139, 0.0005713696009479463, -0.00021166328224353492, 0.07289186120033264, -0.8205057382583618, -1.0268523693084717, 0.052493974566459656, -0.21913951965419548, 0.7349805519618542, 1.6646048737719286, 9362.0, 30146.0, 35388.0, 9362.0, 8.390083312988281, 0.04844217002391815, 0.2728821337223053, -0.004464283119887114, -0.0828462764620781, -0.014248046092689037, 1.0223079919815063, -0.08140052855014801, -0.2904777526855469, 1.47216796875, 1.518310546875, 0.2331390380859375, 1.491943359375
48975, 0.010547318495810032, -0.020532069727778435, -0.001842804835177958, 6.4462648879271e-05, -2.011535434576217e-05, 0.01177471224218607, 0.0006055082776583731, -0.00023042564862407744, 0.07509177178144455, -0.8205174803733826, -1.0268385410308838, 0.05246026813983917, -0.21988521738543415, 0.736260483347678, 1.6723007867357371, 9362.0, 30146.0, 35388.0, 9362.0, 8.390083312988281, 0.024097131565213203, -0.04807082563638687, -0.35258400440216064, -0.08335454016923904, -0.013670705258846283, 1.0233509540557861, -0.08140052855014801, -0.2904777526855469, 1.47216796875, 1.532958984375, 0.2644195556640625, 1.491943359375
48985, 0.0095512131229043, -0.02173144556581974, -0.003750588744878769, 7.069778075674549e-05, -2.2512109353556298e-05, 0.012537580914795399, 0.000641568040009588, -0.0002488852187525481, 0.07748235762119293, -0.8205286860466003, -1.0268372297286987, 0.05248100683093071, -0.22487366365849132, 0.7367043071064927, 1.6648100225410585, 9362.0, 30146.0, 35388.0, 9362.0, 8.390083312988281, 0.020135415717959404, 0.21124552190303802, 0.1958099752664566, -0.08535846322774887, -0.015357219614088535, 1.0250076055526733, -0.08140052855014801, -0.2904777526855469, 1.47216796875, 1.4736328125, 0.1452178955078125, 1.491943359375
48995, 0.009440267458558083, -0.02093764767050743, -0.0013221044791862369, 7.730413926765323e-05, -2.5084784283535555e-05, 0.013324658386409283, 0.0006796712405048311, -0.0002656431752257049, 0.07993350923061371, -0.8205143213272095, -1.0268287658691406, 0.05248183757066727, -0.22986777454512655, 0.7364582843503626, 1.6618349779430228, 9362.0, 30146.0, 35388.0, 9362.0, 8.390083312988281, -0.03917554020881653, -0.028360018506646156, 0.24550481140613556, -0.08405531942844391, -0.014809628017246723, 1.0238518714904785, -0.08140052855014801, -0.2904777526855469, 1.47216796875, 1.491943359375, 0.179656982421875, 1.491943359375
49005, 0.008717895485460758, -0.020436029881238937, 0.0006641265354119241, 8.428437286056578e-05, -2.7823965865536593e-05, 0.014135699719190598, 0.0007163553382270038, -0.00028216230566613376, 0.08227508515119553, -0.8205080628395081, -1.0268446207046509, 0.05249154940247536, -0.22901887490328401, 0.7350944111216506, 1.6641638142110238, 9362.0, 30146.0, 35388.0, 9362.0, 8.390083312988281, -0.07334616780281067, -0.026613987982273102, -0.20447243750095367, -0.08486419171094894, -0.012880022637546062, 1.0252797603607178, -0.08289541304111481, 0.014162063598632812, 1.4970703125, 1.48095703125, 0.1587677001953125, 1.490478515625
49015, 0.008600369095802307, -0.019328366965055466, 0.0005383657407946885, 9.162734204437584e-05, -3.072212348342873e-05, 0.014970972202718258, 0.0007521904190070927, -0.0002974643721245229, 0.08477982878684998, -0.8205163478851318, -1.0268456935882568, 0.05250004678964615, -0.2302633660500488, 0.7418021988176804, 1.6584022034364376, 9362.0, 30146.0, 35388.0, 9362.0, 8.390083312988281, 0.18674254417419434, -0.06412306427955627, 0.006458339747041464, -0.08484438806772232, -0.013048903085291386, 1.025171160697937, -0.08289541304111481, 0.014162063598632812, 1.4970703125, 1.497802734375, 0.19122314453125, 1.490478515625
49025, 0.00890134647488594, -0.020147498697042465, 0.0012599251931533217, 9.931880777003244e-05, -3.3772215829230845e-05, 0.015830915421247482, 0.0007861382327973843, -0.0003125663206446916, 0.08720918744802475, -0.8205145597457886, -1.0268335342407227, 0.052469708025455475, -0.22700665222675387, 0.7370089460845293, 1.664577996899145, 9362.0, 30146.0, 35388.0, 9362.0, 8.390083312988281, -0.05628855526447296, 0.26842737197875977, 0.10751881450414658, -0.08470999449491501, -0.012729204259812832, 1.0248816013336182, -0.08289541304111481, 0.014162063598632812, 1.4970703125, 1.45166015625, 0.107452392578125, 1.49560546875
49035, 0.008957932703197002, -0.022125285118818283, 0.001904355944134295, 0.00010735692194430158, -3.697595820995048e-05, 0.016715098172426224, 0.0008215684210881591, -0.00032818381441757083, 0.0896276906132698, -0.8205187916755676, -1.026833415031433, 0.05248679593205452, -0.22637285165468193, 0.7420613979571158, 1.6722953940392156, 9362.0, 30146.0, 35388.0, 9362.0, 8.390083312988281, -0.15732382237911224, -0.3345526456832886, -0.27758750319480896, -0.08361656963825226, -0.014908095821738243, 1.0245635509490967, -0.08289541304111481, 0.014162063598632812, 1.4970703125, 1.480224609375, 0.157379150390625, 1.49560546875
49045, 0.008951005525887012, -0.021185310557484627, -0.0005343271768651903, 0.00011576645192690194, -4.033627192256972e-05, 0.017622852697968483, 0.0008602993912063539, -0.00034388035419397056, 0.09192360937595367, -0.8205150961875916, -1.0268440246582031, 0.05250511318445206, -0.23110070558947804, 0.7358908245426221, 1.6609595783998767, 9362.0, 30146.0, 35388.0, 9362.0, 8.390083312988281, 0.08474453538656235, -0.2024199366569519, 0.046464789658784866, -0.08094792068004608, -0.01556312944740057, 1.0234750509262085, -0.08289541304111481, 0.014162063598632812, 1.4970703125, 1.516845703125, 0.23004150390625, 1.4912109375
49055, 0.009127658791840076, -0.02019953913986683, -0.0009584507206454873, 0.00012455499381758273, -4.385346983326599e-05, 0.018553394824266434, 0.0008973692893050611, -0.00035956682404503226, 0.09418513625860214, -0.8205112814903259, -1.0268356800079346, 0.05248084291815758, -0.2262996732857415, 0.7355817736543884, 1.66078389877589, 9362.0, 30146.0, 35388.0, 9362.0, 8.390083312988281, -0.20905621349811554, 0.14388775825500488, 0.015117285773158073, -0.08504616469144821, -0.015939898788928986, 1.0216909646987915, -0.08289541304111481, 0.014162063598632812, 1.4970703125, 1.470703125, 0.1399383544921875, 1.4912109375
49065, 0.00816949363797903, -0.020284293219447136, -0.0009565792279317975, 0.00013370522356126457, -4.7528912546113133e-05, 0.019505497068166733, 0.0009326799772679806, -0.0003754878416657448, 0.09623589366674423, -0.8205163478851318, -1.0268468856811523, 0.05247919261455536, -0.2240198870802502, 0.7367903355385295, 1.6670574422718447, 9362.0, 30146.0, 35388.0, 9362.0, 8.390083312988281, 0.11253128945827484, -0.053065601736307144, -0.07792076468467712, -0.08419585973024368, -0.01566649042069912, 1.0211869478225708, -0.08289541304111481, 0.014162063598632812, 1.4970703125, 1.40185546875, 0.0417938232421875, 1.487548828125
49075, 0.0073110065422952175, -0.019433680921792984, -0.0018864000448957086, 0.0001432096032658592, -5.1355316827539355e-05, 0.020478973165154457, 0.0009681638330221176, -0.0003897602728102356, 0.0984596237540245, -0.8205136656761169, -1.0268361568450928, 0.05249504745006561, -0.2236045713908222, 0.7397286512720598, 1.6621181154385167, 9362.0, 30146.0, 35388.0, 9362.0, 8.390083312988281, 0.08779978007078171, -0.020754940807819366, -0.10392142832279205, -0.08217702805995941, -0.016194645315408707, 1.023150086402893, -0.08289541304111481, 0.014162063598632812, 1.4970703125, 1.4208984375, 0.063079833984375, 1.487548828125
49085, 0.007834021002054214, -0.02052934654057026, -0.0020243425387889147, 0.00015306136629078537, -5.531692295335233e-05, 0.021474629640579224, 0.0010022297501564026, -0.00040258164517581463, 0.10067222267389297, -0.8205152153968811, -1.0268396139144897, 0.05247071385383606, -0.22435711520572596, 0.7326462663725977, 1.6683300758501882, 9362.0, 30146.0, 35388.0, 9362.0, 8.390083312988281, -0.43662378191947937, 0.3719976246356964, 0.3182539939880371, -0.086016945540905, -0.016364334151148796, 1.0215349197387695, -0.08289541304111481, 0.014162063598632812, 1.4970703125, 1.4765625, 0.1505584716796875, 1.491943359375
49095, 0.005663522519171238, -0.021892273798584938, -0.0015785051509737968, 0.00016326335025951266, -5.941131530562416e-05, 0.02249234728515148, 0.0010382194304838777, -0.00041621329728513956, 0.10287181288003922, -0.820522129535675, -1.0268453359603882, 0.05248495191335678, -0.2266402919647455, 0.7400880578616693, 1.663534460466356, 9362.0, 30146.0, 35388.0, 9362.0, 8.390083312988281, 0.1073576807975769, -0.3028148114681244, -0.16408489644527435, -0.08380737155675888, -0.014645325019955635, 1.0237926244735718, -0.08289541304111481, 0.014162063598632812, 1.4970703125, 1.503662109375, 0.2029876708984375, 1.491943359375
49105, 0.006029297597706318, -0.023414339870214462, -0.0006119786412455142, 0.00017383779049851, -6.362318526953459e-05, 0.023533718660473824, 0.001076736836694181, -0.0004261768772266805, 0.10540296137332916, -0.8205176591873169, -1.0268418788909912, 0.052496057003736496, -0.22193408294689645, 0.7290188777973867, 1.671422064133881, 9362.0, 30146.0, 35388.0, 9362.0, 8.390083312988281, 0.04836015775799751, -0.19357244670391083, -0.02923606149852276, -0.08299570530653, -0.014233026653528214, 1.027098536491394, -0.10262057930231094, -0.06647872924804688, 1.490478515625, 1.51025390625, 0.2164154052734375, 1.4912109375
49115, 0.006006999406963587, -0.021133191883563995, -0.0026089646853506565, 0.00018481079314369708, -6.793790817027912e-05, 0.024600449949502945, 0.001117762760259211, -0.0004367683141026646, 0.10794355720281601, -0.8205133676528931, -1.026837944984436, 0.05250051990151405, -0.2320694590839682, 0.73254302054238, 1.6725856890344315, 9362.0, 30146.0, 35388.0, 9362.0, 8.390083312988281, -0.005118090659379959, -0.005058889277279377, -0.061241474002599716, -0.0842331126332283, -0.016126718372106552, 1.0241671800613403, -0.10262057930231094, -0.06647872924804688, 1.490478515625, 1.494873046875, 0.185455322265625, 1.4912109375
49125, 0.005955588538199663, -0.020447060465812683, -0.004395710304379463, 0.00019617365614976734, -7.235825614770874e-05, 0.025691606104373932, 0.0011547822505235672, -0.0004472998552955687, 0.11028815060853958, -0.8205236196517944, -1.0268422365188599, 0.05247768014669418, -0.22773254350810385, 0.7329696103907963, 1.666841426691761, 9362.0, 30146.0, 35388.0, 9362.0, 8.390083312988281, 0.1385856717824936, 0.1652720421552658, -0.0343351848423481, -0.08332899957895279, -0.014833259396255016, 1.0238275527954102, -0.10262057930231094, -0.06647872924804688, 1.490478515625, 1.53662109375, 0.27239990234375, 1.4912109375
49135, 0.006177745293825865, -0.02261534333229065, -0.005513667594641447, 0.00020790052076335996, -7.68834215705283e-05, 0.026805710047483444, 0.0011906760046258569, -0.00045774225145578384, 0.11253323405981064, -0.8205278515815735, -1.0268398523330688, 0.052486125379800797, -0.22885939827193627, 0.7408704370530188, 1.6669002293172224, 9362.0, 30146.0, 35388.0, 9362.0, 8.390083312988281, -0.005132168997079134, 0.12787263095378876, -0.11557871848344803, -0.08336245268583298, -0.014044919051229954, 1.0222326517105103, -0.10262057930231094, -0.06647872924804688, 1.490478515625, 1.51904296875, 0.2346954345703125, 1.4912109375
49145, 0.005106288008391857, -0.02344786562025547, -0.006891207303851843, 0.00022000547323841602, -8.15150051494129e-05, 0.027942683547735214, 0.0012303487164899707, -0.0004685318854171783, 0.11486169695854187, -0.8205147981643677, -1.0268313884735107, 0.05249696597456932, -0.22710110182746626, 0.738024573225232, 1.6663248966762034, 9362.0, 30146.0, 35388.0, 9362.0, 8.390083312988281, -0.0912657082080841, -0.23983050882816315, 0.09402523189783096, -0.08455758541822433, -0.016566060483455658, 1.024932622909546, -0.10262057930231094, -0.06647872924804688, 1.490478515625, 1.502197265625, 0.20001220703125, 1.490478515625
49155, 0.00463782949373126, -0.022103462368249893, -0.006971270777285099, 0.00023251464881468564, -8.624514157418162e-05, 0.029103407636284828, 0.0012714286567643285, -0.00047747569624334574, 0.1172836422920227, -0.820521354675293, -1.0268365144729614, 0.052492912858724594, -0.22958120605095197, 0.7399100231315572, 1.6672724683857578, 9362.0, 30146.0, 35388.0, 9362.0, 8.390083312988281, -0.31922176480293274, -0.24946387112140656, 0.38208940625190735, -0.08321208506822586, -0.01665624789893627, 1.0241444110870361, -0.10262057930231094, -0.06647872924804688, 1.490478515625, 1.446533203125, 0.09930419921875, 1.490478515625
49165, 0.0027414762880653143, -0.019088180735707283, -0.005959664471447468, 0.00024542276514694095, -9.106058860197663e-05, 0.03028816729784012, 0.0013100674841552973, -0.0004855346051044762, 0.1196686327457428, -0.8205088376998901, -1.0268442630767822, 0.05250291898846626, -0.2240191182531159, 0.7286497719677811, 1.6674945015276106, 9362.0, 30146.0, 35388.0, 9362.0, 8.390083312988281, 0.10715249180793762, -0.04389588534832001, -0.28934258222579956, -0.0818459764122963, -0.012939843349158764, 1.0254539251327515, -0.10262057930231094, -0.06647872924804688, 1.490478515625, 1.47509765625, 0.147857666015625, 1.491943359375
49175, 0.004266785457730293, -0.020064501091837883, -0.006297941319644451, 0.0002586910268291831, -9.594002040103078e-05, 0.03149737790226936, 0.0013436261797323823, -0.0004904185771010816, 0.12217359989881516, -0.8205268383026123, -1.026832938194275, 0.05248905345797539, -0.2258017463650889, 0.7270926658297299, 1.6688928007215738, 9362.0, 30146.0, 35388.0, 9362.0, 8.390083312988281, 0.14057350158691406, -0.11409056186676025, -0.27108827233314514, -0.08431687206029892, -0.012014036066830158, 1.0251907110214233, -0.10262057930231094, -0.06647872924804688, 1.490478515625, 1.36669921875, 0.01806640625, 1.491943359375
49185, 0.004927716683596373, -0.0203130804002285, -0.008685742504894733, 0.0002723034704104066, -0.00010088169074151665, 0.032731737941503525, 0.0013788740616291761, -0.0004979465156793594, 0.12469865381717682, -0.820513904094696, -1.0268362760543823, 0.0525069497525692, -0.22764641740321775, 0.7256982496123783, 1.6695122973394847, 9362.0, 30146.0, 35388.0, 9362.0, 8.390083312988281, 0.16563676297664642, 0.19625239074230194, 0.1481059193611145, -0.08463115990161896, -0.014974146150052547, 1.0263276100158691, -0.10262057930231094, -0.06647872924804688, 1.490478515625, 1.383544921875, 0.026611328125, 1.487548828125
49195, 0.00527788233011961, -0.022161854431033134, -0.007574658375233412, 0.0002862705441657454, -0.00010590444435365498, 0.03399127721786499, 0.0014146234607324004, -0.0005066195735707879, 0.1272096186876297, -0.8205114006996155, -1.026837944984436, 0.052491672337055206, -0.23016832227664355, 0.7316949263780259, 1.660867197664378, 9362.0, 30146.0, 35388.0, 9362.0, 8.390083312988281, 0.008363191038370132, 0.17972412705421448, -0.4042682647705078, -0.08349388837814331, -0.01604766771197319, 1.0241193771362305, -0.10262057930231094, -0.06647872924804688, 1.490478515625, 1.404052734375, 0.04400634765625, 1.487548828125
49205, 0.0054460992105305195, -0.022244073450565338, -0.009673267602920532, 0.00030061096185818315, -0.0001110169105231762, 0.035274919122457504, 0.0014534633373841643, -0.0005158823332749307, 0.1295195072889328, -0.8205132484436035, -1.026849389076233, 0.052476730197668076, -0.22406553113430697, 0.7318653431031237, 1.6684226934069741, 9362.0, 30146.0, 35388.0, 9362.0, 8.390083312988281, 0.05336949974298477, -0.18960082530975342, 0.0070075951516628265, -0.08180610090494156, -0.014537525363266468, 1.0232412815093994, -0.11759915947914124, -0.10231781005859375, 1.487548828125, 1.475830078125, 0.1492767333984375, 1.48974609375
49215, 0.004947345238178968, -0.021645143628120422, -0.008687819354236126, 0.0003153404104523361, -0.00011622346937656403, 0.03658147156238556, 0.0014924058923497796, -0.0005254090065136552, 0.1317916363477707, -0.820512592792511, -1.0268397331237793, 0.052498046308755875, -0.22531832835805274, 0.7335317034099376, 1.667466260429175, 9362.0, 30146.0, 35388.0, 9362.0, 8.390083312988281, -0.30063700675964355, 0.08359435200691223, 0.02906513586640358, -0.08472314476966858, -0.014321069233119488, 1.0247348546981812, -0.11759915947914124, -0.10231781005859375, 1.487548828125, 1.4736328125, 0.1452178955078125, 1.48974609375
49225, 0.004437667783349752, -0.021720686927437782, -0.007671321742236614, 0.00033045452437363565, -0.00012152103590779006, 0.03791201859712601, 0.0015304225962609053, -0.000534080492798239, 0.1343185156583786, -0.8205248117446899, -1.0268422365188599, 0.0524795837700367, -0.22836786354596536, 0.7391980686809632, 1.6605926441188728, 9362.0, 30146.0, 35388.0, 9362.0, 8.390083312988281, -0.1317300647497177, -0.04421590268611908, -0.053036004304885864, -0.08349340409040451, -0.01287252176553011, 1.0262290239334106, -0.11759915947914124, -0.10231781005859375, 1.487548828125, 1.505126953125, 0.205902099609375, 1.4912109375
49235, 0.0029687818605452776, -0.021255912259221077, -0.008011451922357082, 0.00034594954922795296, -0.00012690084986388683, 0.03926798328757286, 0.0015685593243688345, -0.0005418164073489606, 0.13687491416931152, -0.8205117583274841, -1.0268336534500122, 0.052493415772914886, -0.2263331788447905, 0.7426463426486407, 1.6710820390351715, 9362.0, 30146.0, 35388.0, 9362.0, 8.390083312988281, 0.1602223813533783, 0.01935402676463127, -0.045226067304611206, -0.08474225550889969, -0.013027732260525227, 1.025706171989441, -0.11759915947914124, -0.10231781005859375, 1.487548828125, 1.399658203125, 0.0396575927734375, 1.4912109375
49245, 0.0037158741615712643, -0.0223772581666708, -0.00689803808927536, 0.0003618217015173286, -0.0001323450997006148, 0.040649086236953735, 0.0016059172339737415, -0.0005470642354339361, 0.13934585452079773, -0.8205156922340393, -1.0268408060073853, 0.052501797676086426, -0.22947426051094935, 0.7345701311525943, 1.6742003701422732, 9362.0, 30146.0, 35388.0, 9362.0, 8.390083312988281, 0.07717005163431168, -0.010847118683159351, -0.103121817111969, -0.0814327523112297, -0.013747709803283215, 1.024163842201233, -0.11759915947914124, -0.10231781005859375, 1.487548828125, 1.468505859375, 0.13604736328125, 1.493408203125
49255, 0.003950462210923433, -0.023556262254714966, -0.00718348752707243, 0.0003780767146963626, -0.00013784828479401767, 0.04205352067947388, 0.0016451324336230755, -0.0005535826785489917, 0.14154116809368134, -0.820515513420105, -1.0268418788909912, 0.05248956009745598, -0.22855671180196402, 0.7360127964225001, 1.6638007362260532, 9362.0, 30146.0, 35388.0, 9362.0, 8.390083312988281, 0.02373538911342621, -0.2965985834598541, -0.23277083039283752, -0.08473188430070877, -0.014582074247300625, 1.0220386981964111, -0.11759915947914124, -0.10231781005859375, 1.487548828125, 1.491943359375, 0.179656982421875, 1.493408203125
49265, 0.005185533314943314, -0.021235959604382515, -0.008835329674184322, 0.00039473414653912187, -0.0001434186997357756, 0.043479759246110916, 0.0016862665070220828, -0.0005605488549917936, 0.1437070220708847, -0.8205127716064453, -1.0268383026123047, 0.05247272923588753, -0.23141749910024562, 0.7352591610079457, 1.6682437729652522, 9362.0, 30146.0, 35388.0, 9362.0, 8.390083312988281, -0.022631457075476646, 0.23097696900367737, 0.26126953959465027, -0.08486024290323257, -0.014643304981291294, 1.0224348306655884, -0.11759915947914124, -0.10231781005859375, 1.487548828125, 1.420166015625, 0.0621337890625, 1.49267578125
49275, 0.004152023699134588, -0.02307584322988987, -0.007734421640634537, 0.000411782821174711, -0.0001490696449764073, 0.04492824152112007, 0.0017235439736396074, -0.0005695978761650622, 0.14598971605300903, -0.8205158710479736, -1.0268464088439941, 0.05249067395925522, -0.22453017448676488, 0.7408756884810543, 1.6575365585560673, 9362.0, 30146.0, 35388.0, 9362.0, 8.390083312988281, 0.1444910764694214, 0.08413835614919662, -0.1654980480670929, -0.0836072787642479, -0.016327979043126106, 1.0237890481948853, -0.11759915947914124, -0.10231781005859375, 1.487548828125, 1.52490234375, 0.247039794921875, 1.49267578125
49285, 0.003562108613550663, -0.02534239925444126, -0.007191048003733158, 0.000429220701334998, -0.00015480208094231784, 0.046400286257267, 0.0017641272861510515, -0.0005768630071543157, 0.1484193503856659, -0.8205227255821228, -1.026836633682251, 0.05247947946190834, -0.22206211290747555, 0.7383423850751853, 1.6579656334025743, 9362.0, 30146.0, 35388.0, 9362.0, 8.390083312988281, 0.1401347517967224, -0.0034205715637654066, 0.07820887118577957, -0.08356072008609772, -0.013581819832324982, 1.0251455307006836, -0.11759915947914124, -0.10231781005859375, 1.487548828125, 1.46923828125, 0.137359619140625, 1.49560546875
49295, 0.003917992115020752, -0.025048645213246346, -0.007203082088381052, 0.0004470840794965625, -0.00016060195048339665, 0.047896113246679306, 0.0018085342599079013, -0.000583126675337553, 0.15074673295021057, -0.8205227851867676, -1.0268363952636719, 0.05250167474150658, -0.22522970990089403, 0.7381693895537751, 1.6690785076161376, 9362.0, 30146.0, 35388.0, 9362.0, 8.390083312988281, 0.1937839835882187, -0.11399950832128525, -0.2461489886045456, -0.08296095579862595, -0.016096001490950584, 1.022935152053833, -0.11759915947914124, -0.10231781005859375, 1.487548828125, 1.506591796875, 0.2088775634765625, 1.49560546875
49315, 0.003830321365967393, -0.025401854887604713, -0.008736498653888702, 0.000484131567645818, -0.0001724099274724722, 0.0509558841586113, 0.0018961835885420442, -0.0005984075833112001, 0.15523706376552582, -0.820509672164917, -1.0268476009368896, 0.052506569772958755, -0.2251321118878884, 0.7362474676744739, 1.657201278155192, 9362.0, 30146.0, 35388.0, 9362.0, 8.390083312988281, 0.1725388616323471, -0.038206856697797775, -0.03290154039859772, -0.08296095579862595, -0.016096001490950584, 1.022935152053833, -0.11759915947914124, -0.10231781005859375, 1.487548828125, 1.45751953125, 0.117095947265625, 1.49560546875
49325, 0.0040612355805933475, -0.026583991944789886, -0.008411915972828865, 0.000484131567645818, -0.0001724099274724722, 0.0509558841586113, 0.0018961835885420442, -0.0005984075833112001, 0.15523706376552582, -0.8205140233039856, -1.0268303155899048, 0.05247921496629715, -0.22718341230690486, 0.736450241398785, 1.6700827817705999, 9362.0, 30146.0, 35388.0, 9362.0, 8.390083312988281, 0.09446542710065842, 0.029730815440416336, -0.32200825214385986, -0.08289724588394165, -0.013828710652887821, 1.0247067213058472, -0.11759915947914124, -0.10231781005859375, 1.487548828125, 1.40771484375, 0.0478363037109375, 1.49560546875
49335, 0.003647639648988843, -0.02777491696178913, -0.011210783384740353, 0.0005229571834206581, -0.00018451471987646073, 0.05410870164632797, 0.0019874644931405783, -0.0006122575723566115, 0.16003373265266418, -0.8205171823501587, -1.026835560798645, 0.052487656474113464, -0.22821538578487985, 0.7377800869705311, 1.6730617218203523, 9362.0, 30146.0, 35388.0, 9362.0, 8.390083312988281, 0.06981228291988373, 0.21134498715400696, -0.08085136860609055, -0.08289724588394165, -0.013828710652887821, 1.0247067213058472, -0.11759915947914124, -0.10231781005859375, 1.487548828125, 1.46044921875, 0.12200927734375, 1.49560546875
49345, 0.004071294330060482, -0.028754226863384247, -0.012483076192438602, 0.0005430749733932316, -0.00019066927779931575, 0.055720098316669464, 0.002036128658801317, -0.0006186706596054137, 0.16224581003189087, -0.8205196261405945, -1.0268481969833374, 0.05249568819999695, -0.22599139563205192, 0.7349681772717531, 1.6666175745148568, 9362.0, 30146.0, 35388.0, 9362.0, 8.390083312988281, 0.19703680276870728, 0.21729405224323273, -0.039101798087358475, -0.08289724588394165, -0.013828710652887821, 1.0247067213058472, -0.11759915947914124, -0.10231781005859375, 1.487548828125, 1.440673828125, 0.090423583984375, 1.49560546875
49365, 0.005571242421865463, -0.03418762981891632, -0.011908876709640026, 0.0005636880523525178, -0.00019689169130288064, 0.05735376477241516, 0.002086571417748928, -0.0006258502835407853, 0.16448788344860077, -0.8205134868621826, -1.02683687210083, 0.05249013379216194, -0.22448775078557684, 0.7275869920726734, 1.6655175407151894, 9362.0, 30146.0, 35388.0, 9362.0, 8.390083312988281, -0.09746337682008743, 0.25233304500579834, 0.1362680196762085, -0.08289724588394165, -0.013828710652887821, 1.0247067213058472, -0.11759915947914124, -0.10231781005859375, 1.487548828125, 1.5, 0.19561767578125, 1.4912109375
49375, 0.005062073469161987, -0.03616125509142876, -0.010701434686779976, 0.0005636880523525178, -0.00019689169130288064, 0.05735376477241516, 0.002086571417748928, -0.0006258502835407853, 0.16448788344860077, -0.8205088376998901, -1.026841163635254, 0.0524773932993412, -0.22849079345887263, 0.7317835678367146, 1.6566502721737228, 9362.0, 30146.0, 35388.0, 9362.0, 8.390083312988281, -0.03752549737691879, 0.014377993531525135, 0.1389484852552414, -0.08289724588394165, -0.013828710652887821, 1.0247067213058472, -0.11759915947914124, -0.10231781005859375, 1.487548828125, 1.505126953125, 0.205902099609375, 1.4912109375
49385, 0.004386032000184059, -0.03685677424073219, -0.009213892742991447, 0.0005636880523525178, -0.00019689169130288064, 0.05735376477241516, 0.002086571417748928, -0.0006258502835407853, 0.16448788344860077, -0.8205161094665527, -1.026837706565857, 0.05250342935323715, -0.22680990239695445, 0.7345851472638572, 1.6671134591273478, 9362.0, 30146.0, 35388.0, 9362.0, 8.390083312988281, 0.00207259482704103, -0.23329052329063416, 0.13643833994865417, -0.08289724588394165, -0.013828710652887821, 1.0247067213058472, -0.11759915947914124, -0.10231781005859375, 1.487548828125, 1.482421875, 0.161529541015625, 1.493408203125
49395, 0.004839087836444378, -0.03779640421271324, -0.006780159194022417, 0.0005636880523525178, -0.00019689169130288064, 0.05735376477241516, 0.002086571417748928, -0.0006258502835407853, 0.16448788344860077, -0.8205121159553528, -1.026843547821045, 0.05247956141829491, -0.23037726842412168, 0.7317547795442181, 1.6654336252286541, 9362.0, 30146.0, 35388.0, 9362.0, 8.390083312988281, 0.00207259482704103, -0.23329052329063416, 0.13643833994865417, -0.08289724588394165, -0.013828710652887821, 1.0247067213058472, -0.11759915947914124, -0.10231781005859375, 1.487548828125, 1.487548828125, 0.1712188720703125, 1.493408203125
49405, 0.004788690712302923, -0.038536686450242996, -0.007178423460572958, 0.0005636880523525178, -0.00019689169130288064, 0.05735376477241516, 0.002086571417748928, -0.0006258502835407853, 0.16448788344860077, -0.8205125331878662, -1.0268316268920898, 0.05248142033815384, -0.23099858003129903, 0.7343693161712963, 1.667278371156348, 9362.0, 30146.0, 35388.0, 9362.0, 8.390083312988281, 0.09289127588272095, -0.49081310629844666, -0.05501598119735718, -0.08289724588394165, -0.013828710652887821, 1.0247067213058472, -0.11759915947914124, -0.10231781005859375, 1.487548828125, 1.469970703125, 0.1386566162109375, 1.493408203125
49415, 0.0042126597836613655, -0.035124897956848145, -0.007963060401380062, 0.0005636880523525178, -0.00019689169130288064, 0.05735376477241516, 0.002086571417748928, -0.0006258502835407853, 0.16448788344860077, -0.820501983165741, -1.026834487915039, 0.05247930437326431, -0.2277867115535715, 0.7311084710157445, 1.6665660534588527, 9362.0, 30146.0, 35388.0, 9362.0, 8.390083312988281, 0.12960763275623322, 0.11837007850408554, -0.17713218927383423, -0.08289062976837158, -0.013213898986577988, 1.0251325368881226, -0.11759915947914124, -0.10231781005859375, 1.487548828125, 1.427490234375, 0.0716400146484375, 1.493408203125
49425, 0.0047375853173434734, -0.03670258820056915, -0.008204001002013683, 0.0005636880523525178, -0.00019689169130288064, 0.05735376477241516, 0.002086571417748928, -0.0006258502835407853, 0.16448788344860077, -0.8205255270004272, -1.026834487915039, 0.05249084532260895, -0.2254004545733184, 0.7300902389760608, 1.669250964697956, 9362.0, 30146.0, 35388.0, 9362.0, 8.390083312988281, -0.1852327138185501, -0.18246003985404968, 0.146551251411438, -0.08289062976837158, -0.013213898986577988, 1.0251325368881226, -0.11759915947914124, -0.10231781005859375, 1.487548828125, 1.440673828125, 0.090423583984375, 1.491943359375
49435, 0.004446478560566902, -0.03579872101545334, -0.00701667508110404, 0.0005636880523525178, -0.00019689169130288064, 0.05735376477241516, 0.002086571417748928, -0.0006258502835407853, 0.16448788344860077, -0.8205173015594482, -1.0268323421478271, 0.05248922482132912, -0.22838617755460433, 0.734934357245038, 1.6651066172209135, 9362.0, 30146.0, 35388.0, 9362.0, 8.390083312988281, -0.22423818707466125, -0.11826708912849426, 0.07622087001800537, -0.08485695719718933, -0.014158411882817745, 1.0249011516571045, -0.11759915947914124, -0.10231781005859375, 1.487548828125, 1.42236328125, 0.0649566650390625, 1.491943359375
49445, 0.0033066703472286463, -0.03593473881483078, -0.0063628097996115685, 0.0005636880523525178, -0.00019689169130288064, 0.05735376477241516, 0.002086571417748928, -0.0006258502835407853, 0.16448788344860077, -0.8205086588859558, -1.0268361568450928, 0.052491914480924606, -0.2308470079045874, 0.7329755153727149, 1.667181413621283, 9362.0, 30146.0, 35388.0, 9362.0, 8.390083312988281, 0.09463024884462357, 0.047230903059244156, 0.025251220911741257, -0.08485695719718933, -0.014158411882817745, 1.0249011516571045, -0.11759915947914124, -0.10231781005859375, 1.487548828125, 1.52490234375, 0.247039794921875, 1.491943359375
49455, 0.003093575593084097, -0.0368158295750618, -0.005914501845836639, 0.0005636880523525178, -0.00019689169130288064, 0.05735376477241516, 0.002086571417748928, -0.0006258502835407853, 0.16448788344860077, -0.8205080032348633, -1.0268312692642212, 0.05248384550213814, -0.22619088005357418, 0.7332615355282428, 1.6634407555988189, 9362.0, 30146.0, 35388.0, 9362.0, 8.390083312988281, 0.052558790892362595, 0.20505346357822418, 0.15551245212554932, -0.0844353586435318, -0.015969660133123398, 1.0236926078796387, -0.11759915947914124, -0.10231781005859375, 1.487548828125, 1.458251953125, 0.1184234619140625, 1.491943359375
49465, 0.002557047875598073, -0.03967892751097679, -0.004626146517693996, 0.0005636880523525178, -0.00019689169130288064, 0.05735376477241516, 0.002086571417748928, -0.0006258502835407853, 0.16448788344860077, -0.8205202221870422, -1.0268369913101196, 0.052471425384283066, -0.22219486480297218, 0.7304947480704413, 1.6689012786083934, 9362.0, 30146.0, 35388.0, 9362.0, 8.390083312988281, -0.054911501705646515, -0.10197675228118896, 0.0359857939183712, -0.08222781866788864, -0.012967947870492935, 1.0257434844970703, -0.11759915947914124, -0.10231781005859375, 1.487548828125, 1.482421875, 0.161529541015625, 1.491943359375
49475, 0.0018102088943123817, -0.03932097554206848, -0.004562455229461193, 0.0005636880523525178, -0.00019689169130288064, 0.05735376477241516, 0.002086571417748928, -0.0006258502835407853, 0.16448788344860077, -0.8205042481422424, -1.0268348455429077, 0.0524967759847641, -0.23348412851533223, 0.7349235466454331, 1.6669215246530409, 9362.0, 30146.0, 35388.0, 9362.0, 8.390083312988281, -0.08382526785135269, 0.4684777557849884, -0.018578873947262764, -0.08312568813562393, -0.017562154680490494, 1.023767113685608, -0.11759915947914124, -0.10231781005859375, 1.487548828125, 1.4443359375, 0.0959930419921875, 1.491943359375
49485, 0.0008910421747714281, -0.04110025241971016, -0.004914754070341587, 0.0005636880523525178, -0.00019689169130288064, 0.05735376477241516, 0.002086571417748928, -0.0006258502835407853, 0.16448788344860077, -0.8205053210258484, -1.026847004890442, 0.05249113589525223, -0.22460043782845834, 0.7230319882331173, 1.6702214894238452, 9362.0, 30146.0, 35388.0, 9362.0, 8.390083312988281, 0.06190213933587074, 0.1693067103624344, -0.09036437422037125, -0.08312568813562393, -0.017562154680490494, 1.023767113685608, -0.11759915947914124, -0.10231781005859375, 1.487548828125, 1.44580078125, 0.098236083984375, 1.4912109375
49505, 0.0010842708870768547, -0.045712705701589584, -0.003983813803642988, 0.0005636880523525178, -0.00019689169130288064, 0.05735376477241516, 0.002086571417748928, -0.0006258502835407853, 0.16448788344860077, -0.8205180764198303, -1.0268360376358032, 0.0524764358997345, -0.22563773788842426, 0.731321137762194, 1.6641456977963336, 9362.0, 30146.0, 35388.0, 9362.0, 8.390083312988281, 0.044664863497018814, -0.10099894553422928, -0.1853373646736145, -0.08312568813562393, -0.017562154680490494, 1.023767113685608, -0.09057820588350296, -0.05751800537109375, 1.4912109375, 1.423095703125, 0.06591796875, 1.4912109375
49525, 0.00227669021114707, -0.047035135328769684, -0.006009817123413086, 0.0010105110704898834, -0.00031416970887221396, 0.0888078361749649, 0.0032255540136247873, -0.0007278149132616818, 0.20534858107566833, -0.8205129504203796, -1.026833415031433, 0.05250484496355057, -0.2270495542784455, 0.735404141945736, 1.6623786058139003, 9362.0, 30146.0, 35388.0, 9362.0, 8.390083312988281, 0.0467144213616848, 0.04516501724720001, 0.09060348570346832, -0.08312568813562393, -0.017562154680490494, 1.023767113685608, -0.09057820588350296, -0.05751800537109375, 1.4912109375, 1.47216796875, 0.142547607421875, 1.4912109375
49535, 0.002413131296634674, -0.04770985618233681, -0.007056687958538532, 0.0010105110704898834, -0.00031416970887221396, 0.0888078361749649, 0.0032255540136247873, -0.0007278149132616818, 0.20534858107566833, -0.8205128908157349, -1.026828408241272, 0.052485235035419464, -0.22827180919200796, 0.7377488684599882, 1.672063450147964, 9362.0, 30146.0, 35388.0, 9362.0, 8.390083312988281, -0.22637107968330383, -0.018227210268378258, 0.0825900286436081, -0.08312568813562393, -0.017562154680490494, 1.023767113685608, -0.09057820588350296, -0.05751800537109375, 1.4912109375, 1.390869140625, 0.0319671630859375, 1.4912109375
49545, 0.001112544210627675, -0.048199642449617386, -0.00461933109909296, 0.0010105110704898834, -0.00031416970887221396, 0.0888078361749649, 0.0032255540136247873, -0.0007278149132616818, 0.20534858107566833, -0.8205035924911499, -1.026847004890442, 0.05246969684958458, -0.22308386705359412, 0.7249515675736973, 1.666717911054885, 9362.0, 30146.0, 35388.0, 9362.0, 8.390083312988281, 0.005151704419404268, 0.06278279423713684, -0.16622282564640045, -0.08470608294010162, -0.013139763846993446, 1.0254533290863037, -0.09057820588350296, -0.05751800537109375, 1.4912109375, 1.497802734375, 0.19122314453125, 1.4912109375
49555, 0.0012466521002352238, -0.05011767894029617, -0.004518965724855661, 0.0010105110704898834, -0.00031416970887221396, 0.0888078361749649, 0.0032255540136247873, -0.0007278149132616818, 0.20534858107566833, -0.8205150961875916, -1.0268430709838867, 0.052478447556495667, -0.22761928266234163, 0.7338435789087896, 1.6640894950804828, 9362.0, 30146.0, 35388.0, 9362.0, 8.390083312988281, -0.2403586059808731, -0.18758763372898102, -0.1034974679350853, -0.08470608294010162, -0.013139763846993446, 1.0254533290863037, -0.09057820588350296, -0.05751800537109375, 1.4912109375, 1.46484375, 0.1295928955078125, 1.4912109375
49565, -8.273778075817972e-05, -0.05181350186467171, -0.0038998713716864586, 0.0010105110704898834, -0.00031416970887221396, 0.0888078361749649, 0.0032255540136247873, -0.0007278149132616818, 0.20534858107566833, -0.8205189108848572, -1.0268292427062988, 0.05248447135090828, -0.2241108210600559, 0.7286956930607289, 1.6699432838265604, 9362.0, 30146.0, 35388.0, 9362.0, 8.390083312988281, -0.2553149461746216, -0.15349659323692322, -0.004598138853907585, -0.08470608294010162, -0.013139763846993446, 1.0254533290863037, -0.09057820588350296, -0.05751800537109375, 1.4912109375, 1.4443359375, 0.0959930419921875, 1.4912109375
49575, -0.001470729592256248, -0.052031368017196655, -0.004787074401974678, 0.0011823192471638322, -0.0003509683010634035, 0.0993732362985611, 0.0036551235243678093, -0.0007399164605885744, 0.21716736257076263, -0.82050621509552, -1.0268360376358032, 0.052502039819955826, -0.22816519968063254, 0.7280652757686426, 1.664149297636649, 9362.0, 30146.0, 35388.0, 9362.0, 8.390083312988281, 0.340498685836792, 0.08241892606019974, -0.021525666117668152, -0.08470608294010162, -0.013139763846993446, 1.0254533290863037, -0.09057820588350296, -0.05751800537109375, 1.4912109375, 1.43115234375, 0.0766143798828125, 1.4912109375
49585, -0.000641958846244961, -0.04945433884859085, -0.005914999172091484, 0.0012193273287266493, -0.0003583545912988484, 0.10155744105577469, 0.0037463740445673466, -0.0007373795961029828, 0.21967419981956482, -0.8205138444900513, -1.0268378257751465, 0.052484702318906784, -0.2363556095322499, 0.7351826919461075, 1.6691538576208924, 9362.0, 30146.0, 35388.0, 9362.0, 8.390083312988281, 0.29424336552619934, 0.28399571776390076, 0.09920230507850647, -0.0837928056716919, -0.014953250996768475, 1.0260019302368164, -0.09057820588350296, -0.05751800537109375, 1.4912109375, 1.46484375, 0.1295928955078125, 1.494873046875
49615, 0.001954692415893078, -0.05310356616973877, -0.007638974115252495, 0.0012572245905175805, -0.00036572280805557966, 0.10376591980457306, 0.003833180060610175, -0.0007363571785390377, 0.22202180325984955, -0.8205118179321289, -1.026837706565857, 0.05248662084341049, -0.23327907751479782, 0.7339801175425009, 1.6672021142516793, 9362.0, 30146.0, 35388.0, 9362.0, 8.390083312988281, -0.032009683549404144, 0.2906469404697418, 0.08968045562505722, -0.08325044810771942, -0.01454602275043726, 1.022726058959961, -0.09057820588350296, -0.05751800537109375, 1.4912109375, 1.483154296875, 0.162841796875, 1.49560546875
49625, 0.0022398964501917362, -0.054748985916376114, -0.007411836180835962, 0.0012572245905175805, -0.00036572280805557966, 0.10376591980457306, 0.003833180060610175, -0.0007363571785390377, 0.22202180325984955, -0.8205154538154602, -1.0268447399139404, 0.05247541889548302, -0.22650210788392544, 0.7265736227795117, 1.663878986679802, 9362.0, 30146.0, 35388.0, 9362.0, 8.390083312988281, 0.03613127022981644, -0.19841919839382172, -0.10105984658002853, -0.08325044810771942, -0.01454602275043726, 1.022726058959961, -0.09057820588350296, -0.05751800537109375, 1.4912109375, 1.474365234375, 0.14654541015625, 1.4912109375
49635, 0.002477119443938136, -0.0535811185836792, -0.007902794517576694, 0.0012572245905175805, -0.00036572280805557966, 0.10376591980457306, 0.003833180060610175, -0.0007363571785390377, 0.22202180325984955, -0.820499062538147, -1.0268337726593018, 0.05247903987765312, -0.2299091357042067, 0.7371496946165905, 1.6634286521559716, 9362.0, 30146.0, 35388.0, 9362.0, 8.390083312988281, -0.07885236293077469, -0.18714529275894165, -0.24108226597309113, -0.08325044810771942, -0.01454602275043726, 1.022726058959961, -0.09057820588350296, -0.05751800537109375, 1.4912109375, 1.47802734375, 0.1532745361328125, 1.4912109375
49645, 0.0002471253683324903, -0.05249447003006935, -0.009488171897828579, 0.0012572245905175805, -0.00036572280805557966, 0.10376591980457306, 0.003833180060610175, -0.0007363571785390377, 0.22202180325984955, -0.8205150365829468, -1.0268381834030151, 0.052484750747680664, -0.22909393340130316, 0.735069037493929, 1.667317350673859, 9362.0, 30146.0, 35388.0, 9362.0, 8.390083312988281, -0.17524279654026031, 0.1667591631412506, -0.19906477630138397, -0.08325044810771942, -0.01454602275043726, 1.022726058959961, -0.09057820588350296, -0.05751800537109375, 1.4912109375, 1.50146484375, 0.1985626220703125, 1.489013671875
49655, -0.0009999650064855814, -0.052138201892375946, -0.010684739798307419, 0.001503880019299686, -0.0004105003899894655, 0.11751856654882431, 0.004391239490360022, -0.0007546701235696673, 0.2366076111793518, -0.8205063939094543, -1.0268304347991943, 0.052485786378383636, -0.23148816883887563, 0.7282329321194538, 1.6640168645464988, 9362.0, 30146.0, 35388.0, 9362.0, 8.390083312988281, 0.0433243103325367, -0.1813150942325592, 0.21121956408023834, -0.08325044810771942, -0.01454602275043726, 1.022726058959961, -0.09057820588350296, -0.05751800537109375, 1.4912109375, 1.39599609375, 0.0362701416015625, 1.489013671875
49665, -9.683162716100924e-06, -0.05286455899477005, -0.010067150928080082, 0.001503880019299686, -0.0004105003899894655, 0.11751856654882431, 0.004391239490360022, -0.0007546701235696673, 0.2366076111793518, -0.8205064535140991, -1.026831865310669, 0.05248493701219559, -0.22743837206271264, 0.7276046233295403, 1.6663831767862762, 9362.0, 30146.0, 35388.0, 9362.0, 8.390083312988281, -0.0006870853248983622, 0.538490891456604, -0.0777834877371788, -0.08325044810771942, -0.01454602275043726, 1.022726058959961, -0.09057820588350296, -0.05751800537109375, 1.4912109375, 1.45166015625, 0.107452392578125, 1.49560546875
49675, -0.00033847455051727593, -0.05531320348381996, -0.010805082507431507, 0.001503880019299686, -0.0004105003899894655, 0.11751856654882431, 0.004391239490360022, -0.0007546701235696673, 0.2366076111793518, -0.8205041885375977, -1.026843786239624, 0.052472036331892014, -0.22415683603312836, 0.7274340698285187, 1.6675348619022532, 9362.0, 30146.0, 35388.0, 9362.0, 8.390083312988281, 0.07107070088386536, -0.26966962218284607, -0.19079329073429108, -0.08325044810771942, -0.01454602275043726, 1.022726058959961, -0.09057820588350296, -0.05751800537109375, 1.4912109375, 1.45458984375, 0.11224365234375, 1.49560546875
49685, 0.0004654217336792499, -0.0555896982550621, -0.01103616040199995, 0.001503880019299686, -0.0004105003899894655, 0.11751856654882431, 0.004391239490360022, -0.0007546701235696673, 0.2366076111793518, -0.8205187916755676, -1.0268337726593018, 0.052471332252025604, -0.23105662129632726, 0.7341128926809688, 1.6651065130700664, 9362.0, 30146.0, 35388.0, 9362.0, 8.390083312988281, -0.03107801266014576, -0.16313301026821136, -0.024294748902320862, -0.08325044810771942, -0.01454602275043726, 1.022726058959961, -0.09057820588350296, -0.05751800537109375, 1.4912109375, 1.42822265625, 0.0726470947265625, 1.49560546875
49695, 0.0006895472761243582, -0.055649712681770325, -0.011114712804555893, 0.001503880019299686, -0.0004105003899894655, 0.11751856654882431, 0.004391239490360022, -0.0007546701235696673, 0.2366076111793518, -0.8205128908157349, -1.0268393754959106, 0.05249098688364029, -0.2278390602044786, 0.7330057052864447, 1.665229965279225, 9362.0, 30146.0, 35388.0, 9362.0, 8.390083312988281, -0.03107801266014576, -0.16313301026821136, -0.024294748902320862, -0.08491627126932144, -0.012864475138485432, 1.024592638015747, -0.09057820588350296, -0.05751800537109375, 1.4912109375, 1.4736328125, 0.1452178955078125, 1.49560546875
49705, 0.0006086261128075421, -0.05575753375887871, -0.013178040273487568, 0.001503880019299686, -0.0004105003899894655, 0.11751856654882431, 0.004391239490360022, -0.0007546701235696673, 0.2366076111793518, -0.8205059766769409, -1.0268388986587524, 0.05249158293008804, -0.22619671172890993, 0.7272712223530107, 1.6654486136174622, 9362.0, 30146.0, 35388.0, 9362.0, 8.390083312988281, 0.06919495016336441, 0.00013110505824442953, 0.05329053848981857, -0.08491627126932144, -0.012864475138485432, 1.024592638015747, -0.09057820588350296, -0.05751800537109375, 1.4912109375, 1.453857421875, 0.1110687255859375, 1.49560546875
49715, 0.0013978624483570457, -0.05599682405591011, -0.013723588548600674, 0.001503880019299686, -0.0004105003899894655, 0.11751856654882431, 0.004391239490360022, -0.0007546701235696673, 0.2366076111793518, -0.8205257654190063, -1.0268356800079346, 0.05246112495660782, -0.22476650950835977, 0.7284777482467177, 1.6677802311865337, 9362.0, 30146.0, 35388.0, 9362.0, 8.390083312988281, -0.05283350870013237, -0.009485727176070213, -0.05410581827163696, -0.08532078564167023, -0.016539495438337326, 1.023505449295044, -0.09057820588350296, -0.05751800537109375, 1.4912109375, 1.464111328125, 0.1283111572265625, 1.49560546875
