timeTick, roll, pitch, yaw, stateX, stateY, stateZ, stateVX, stateVY, stateVZ, otX0, otY0, otZ0, otRoll0, otPitch0, otYaw0, left wing, pitch motor, yaw motor, right wing, voltage, roll rate, pitch rate, yaw rate, A_x, A_y, A_z, current, i_raw, v_raw, airflow_voltage, airflow_speed, pot_Pitch
40187, -0.0010225935839116573, -0.002121159341186285, 0.0015186576638370752, 0, 0, 0, 0, 0, 0, -0.8171066045761108, -1.0220447778701782, 0.051792025566101074, -0.5669765228961017, -0.9570664559804527, 2.3646431072650884, 0, 0, 0, 0, 0, 0, 0, 0, 0, 0, 0, 0, 0, 0, 0, 0, 0
40197, 0.00048750106361694634, -0.0021465697791427374, -0.00047623374848626554, 0.0, 0.0, 9.705370757728815e-06, 7.186022799032799e-08, 3.4645506019614913e-08, 0.001941076130606234, -0.817099928855896, -1.022037386894226, 0.05177679285407066, -0.5674121470552338, -0.9643709396362397, 2.362958500775023, 9362.0, 30146.0, 35388.0, 9362.0, 0, 0.04595557972788811, 0.05750133842229843, -0.35522526502609253, -0.12006440758705139, -0.02038015052676201, 1.0201672315597534, 0, 0, 0, 0, 0, 0
40207, 0.00039739871863275766, -0.005186025518923998, -0.0013934661401435733, 1.921322123621394e-08, 9.263146694138413e-09, 3.818963887169957e-05, 3.7716520182584645e-06, 1.7700172065815423e-06, 0.0037561801727861166, -0.8171105980873108, -1.0220497846603394, 0.05178377777338028, -0.5682796764139136, -0.9558110240470228, 2.3632513724923916, 9362.0, 30146.0, 35388.0, 9362.0, 0, 0.1474957913160324, 0.4243205785751343, -0.07095923274755478, -0.12137220054864883, -0.02227073535323143, 1.0189564228057861, 0, 0, 0, 1.5263671875, 0.2502899169921875, 0
40217, 0.0010980252409353852, -0.005940454080700874, -0.00025749034830369055, 7.567243898165543e-08, 2.2706561964014327e-08, 8.552754297852516e-05, 7.6239170994085725e-06, 9.216806233780517e-07, 0.005711797624826431, -0.8171355128288269, -1.0220186710357666, 0.05166492983698845, -0.6029777794699663, -0.9460848192577771, 2.3708660221412767, 9362.0, 30146.0, 35388.0, 9362.0, 0, 0.1270458847284317, -0.22985202074050903, 0.13987238705158234, -0.12050122767686844, -0.0238485187292099, 1.018872618675232, 0, 0, 0, 1.576171875, 0.361328125, 1.490478515625
40227, 0.0007111885352060199, -0.00435608671978116, -0.0009425735333934426, 1.971250469523511e-07, 2.8457616707555644e-08, 0.0001516686170361936, 1.6690386473783292e-05, 2.0663858890657139e-07, 0.007516810670495033, -0.8170971274375916, -1.022043228149414, 0.05177216976881027, -0.571415818541231, -0.9641847714648577, 2.3658360541168455, 9362.0, 30146.0, 35388.0, 9362.0, 0, 0.03492729738354683, 0.0067748213186860085, -0.1617305427789688, -0.12043055891990662, -0.022236423566937447, 1.020841121673584, 0, 0, 0, 1.5439453125, 0.2884979248046875, 1.490478515625
40237, 0.0001408591924700886, -0.006360378582030535, -0.00011752327554859221, 4.1594898902985733e-07, 2.0926947286170616e-08, 0.00023710605455562472, 2.701757512113545e-05, -1.699028757684573e-06, 0.009571067057549953, -0.8170971274375916, -1.022038221359253, 0.05175153166055679, -0.5696964704178955, -0.9581875231466199, 2.360724855280636, 9362.0, 30146.0, 35388.0, 9362.0, 0, -0.166628897190094, 0.377860963344574, 0.3100985884666443, -0.12198168784379959, -0.023475386202335358, 1.0194194316864014, 0, 0, 0, 1.458984375, 0.1195831298828125, 1.49267578125
40247, -3.118471067864448e-05, -0.00661805272102356, 0.0028444919735193253, 7.241775392685668e-07, -2.2765895835163974e-09, 0.00034282682463526726, 3.4698194212978706e-05, -2.9216412258392666e-06, 0.011573489755392075, -0.8170948624610901, -1.02204167842865, 0.05178295448422432, -0.5668960225516098, -0.958798050885207, 2.367220563071127, 9362.0, 30146.0, 35388.0, 9362.0, 0, 0.06939578056335449, -0.03390258550643921, 0.2934005856513977, -0.12093199044466019, -0.02292773313820362, 1.0202590227127075, 0, 0, 0, 1.5673828125, 0.3411102294921875, 1.49267578125
40257, -0.00017111198394559324, -0.00660190312191844, 0.004464772529900074, 1.1266918136243476e-06, -3.272295501233202e-08, 0.00046830897917971015, 4.581344546750188e-05, -3.161204176649335e-06, 0.013523336499929428, -0.8170896172523499, -1.0220377445220947, 0.05176422372460365, -0.5730867297753124, -0.9583909356592244, 2.3613871808840132, 9362.0, 30146.0, 35388.0, 9362.0, 0, -0.012524145655333996, -0.2446558028459549, 0.11273260414600372, -0.12327539920806885, -0.02488270029425621, 1.0205804109573364, 0, 0, 0, 1.57470703125, 0.3579864501953125, 1.4912109375
40267, -3.7796638935105875e-05, -0.007209399249404669, 0.005820601247251034, 1.6426527054136386e-06, -6.405964114719609e-08, 0.0006136734737083316, 5.7378154451726004e-05, -3.1008582936919993e-06, 0.015549963340163231, -0.8170900940895081, -1.0220414400100708, 0.05179721117019653, -0.5693798509736171, -0.9625869208819609, 2.3668681343566265, 9362.0, 30146.0, 35388.0, 9362.0, 0, 0.04762060195207596, -0.07564298063516617, 0.17416903376579285, -0.12548977136611938, -0.023966429755091667, 1.021252989768982, 0, 0, 0, 1.562255859375, 0.329437255859375, 1.4912109375
40277, -0.001883678836748004, -0.007622091099619865, 0.00900510884821415, 2.2740932763554156e-06, -9.356928387660446e-08, 0.0007790772942826152, 6.893095996929333e-05, -2.8054073482053354e-06, 0.017531193792819977, -0.8170919418334961, -1.0220407247543335, 0.05177968740463257, -0.5655783323220586, -0.9575202269829219, 2.364955274985356, 9362.0, 30146.0, 35388.0, 9362.0, 0, -0.06419437378644943, 0.045996930450201035, 0.47976815700531006, -0.12388037145137787, -0.025165831670165062, 1.0212730169296265, 0, 0, 0, 1.5087890625, 0.21337890625, 1.4853515625
40287, -0.0012335260398685932, -0.0069839381612837315, 0.009846248663961887, 3.026477088496904e-06, -1.212862770216816e-07, 0.0009651633445173502, 8.156133844750002e-05, -2.6678696940507507e-06, 0.019686413928866386, -0.8171045780181885, -1.0220491886138916, 0.05177421122789383, -0.5672092218434628, -0.9611178277254737, 2.3677434960785875, 9362.0, 30146.0, 35388.0, 9362.0, 8.350414276123047, 0.04879726842045784, 0.0042220051400363445, -0.16571788489818573, -0.12044680118560791, -0.022314762696623802, 1.0198423862457275, -0.10644718259572983, -0.13815879821777344, 1.484619140625, 1.553466796875, 0.309661865234375, 1.4853515625
40297, -0.0022681783884763718, -0.007005708292126656, 0.010469596832990646, 3.908648977812845e-06, -1.3150501843028906e-07, 0.001171870855614543, 9.485107148066163e-05, 6.019752731845074e-07, 0.021655477583408356, -0.8171005249023438, -1.0220332145690918, 0.05177699401974678, -0.569384955891912, -0.955307012398805, 2.363533097945827, 9362.0, 30146.0, 35388.0, 9362.0, 8.350414276123047, -0.0341867096722126, 0.3966904282569885, 0.3002532720565796, -0.12239691615104675, -0.02280125580728054, 1.02336847782135, -0.10644718259572983, -0.13815879821777344, 1.484619140625, 1.417236328125, 0.058624267578125, 1.48974609375
40307, -0.0023038899526000023, -0.004125200677663088, 0.00920835230499506, 4.918232207273832e-06, -1.1468762295407942e-07, 0.001398975495249033, 0.00010706637112889439, 2.799737558234483e-06, 0.023765865713357925, -0.8170955181121826, -1.0220345258712769, 0.051788173615932465, -0.5646021612347499, -0.9564761087642921, 2.3670870013951415, 9362.0, 30146.0, 35388.0, 9362.0, 8.350414276123047, 0.05419347807765007, -0.5188308954238892, -0.31219354271888733, -0.1200098767876625, -0.021992387250065804, 1.0204763412475586, -0.10644718259572983, -0.13815879821777344, 1.484619140625, 1.48974609375, 0.1755218505859375, 1.48974609375
40317, -0.001978674903512001, -0.0015114233829081059, 0.010873688384890556, 6.050202500773594e-06, -6.682926567691538e-08, 0.0016475534066557884, 0.00011921795521629974, 6.772994311177172e-06, 0.025950120761990547, -0.8171018362045288, -1.022035002708435, 0.051786500960588455, -0.5693413813684264, -0.9533900062704106, 2.36528574267155, 9362.0, 30146.0, 35388.0, 9362.0, 8.350414276123047, 0.07215598970651627, 0.007117900066077709, 0.19816716015338898, -0.11952615529298782, -0.021051939576864243, 1.0208156108856201, -0.10644718259572983, -0.13815879821777344, 1.484619140625, 1.40625, 0.04620361328125, 1.49267578125
40327, -0.002277970314025879, 0.0004882888752035797, 0.009945753030478954, 7.278390057763318e-06, 2.1018387030835584e-08, 0.0019167209975421429, 0.0001263312587980181, 1.0785774065880105e-05, 0.027883799746632576, -0.817105233669281, -1.0220435857772827, 0.05176083371043205, -0.5788684466038329, -0.957385900687882, 2.360997596170575, 9362.0, 30146.0, 35388.0, 9362.0, 8.350414276123047, -0.03344029188156128, -0.3720755875110626, -0.0020179911516606808, -0.11930562555789948, -0.02071417309343815, 1.0225380659103394, -0.10644718259572983, -0.13815879821777344, 1.484619140625, 1.58349609375, 0.3784332275390625, 1.49267578125
40337, -0.003115689614787698, 0.0021201185882091522, 0.012711565010249615, 8.554922715120483e-06, 1.4619055832554295e-07, 0.002206353936344385, 0.000128900064737536, 1.425987375114346e-05, 0.030043212696909904, -0.8170999884605408, -1.022033929824829, 0.05178919434547424, -0.5769522863819619, -0.9581558690291843, 2.3619658562380135, 9362.0, 30146.0, 35388.0, 9362.0, 8.350414276123047, -0.03373024985194206, -0.04495713487267494, 0.42029064893722534, -0.12050678580999374, -0.01998411864042282, 1.0189119577407837, -0.10644718259572983, -0.13815879821777344, 1.484619140625, 1.5556640625, 0.3145904541015625, 1.4912109375
40347, -0.004149757791310549, 0.003412331687286496, 0.011139380745589733, 9.839653102972079e-06, 3.086930178142211e-07, 0.0025169258005917072, 0.00012798812531400472, 1.8270233340444975e-05, 0.032071541994810104, -0.8171083927154541, -1.022040605545044, 0.05177300423383713, -0.5701650556614332, -0.9501352691310103, 2.366670949434467, 9362.0, 30146.0, 35388.0, 9362.0, 8.350414276123047, 0.06361931562423706, 0.01762009598314762, -0.1898142248392105, -0.1207728236913681, -0.023351632058620453, 1.0185054540634155, -0.10644718259572983, -0.13815879821777344, 1.484619140625, 1.58203125, 0.37493896484375, 1.4912109375
40357, -0.003816235112026334, 0.00238718930631876, 0.010219221003353596, 1.1101042218797375e-05, 5.185580107536225e-07, 0.0028467231895774603, 0.0001242488797288388, 2.373562710999977e-05, 0.0338883250951767, -0.8170890808105469, -1.022038221359253, 0.05178038030862808, -0.574791663537303, -0.9560556330875158, 2.358464699561637, 9362.0, 30146.0, 35388.0, 9362.0, 8.350414276123047, 0.04756125807762146, 0.05619446933269501, 0.1192571222782135, -0.12060218304395676, -0.026164403185248375, 1.020287275314331, -0.10644718259572983, -0.13815879821777344, 1.484619140625, 1.55419921875, 0.311279296875, 1.494140625
40367, -0.004067151341587305, 0.0013914332957938313, 0.009629071690142155, 1.2313741535763256e-05, 7.921266842458863e-07, 0.0031951717101037502, 0.00011832537711597979, 3.096707951044664e-05, 0.03580173850059509, -0.8170965313911438, -1.0220433473587036, 0.05179037153720856, -0.5702160159134864, -0.9603272565616976, 2.3629173780580417, 9362.0, 30146.0, 35388.0, 9362.0, 8.350414276123047, -0.18996988236904144, 0.16082215309143066, -0.12923063337802887, -0.11802449822425842, -0.022643757984042168, 1.018196940422058, -0.10644718259572983, -0.13815879821777344, 1.484619140625, 1.387939453125, 0.0297393798828125, 1.494140625
40377, -0.005168437492102385, -0.000591905671171844, 0.008809187449514866, 1.3476152162184007e-05, 1.1351041848683963e-06, 0.003562802216038108, 0.00011419027578085661, 3.763690256164409e-05, 0.037724751979112625, -0.8170954585075378, -1.0220414400100708, 0.05177351087331772, -0.5697805257542518, -0.9642046559762036, 2.3605718639722713, 9362.0, 30146.0, 35388.0, 9362.0, 8.350414276123047, -0.09913339465856552, 0.1842862218618393, -0.2776710093021393, -0.11955805122852325, -0.024907026439905167, 1.0186141729354858, -0.10644718259572983, -0.13815879821777344, 1.484619140625, 1.5732421875, 0.354736328125, 1.48974609375
40387, -0.005231192801147699, -0.0016916189342737198, 0.009207293391227722, 1.4605919204768725e-05, 1.5469267964363098e-06, 0.003949029836803675, 0.00011182534217368811, 4.4762193283531815e-05, 0.03952118381857872, -0.8170890808105469, -1.0220363140106201, 0.05178505554795265, -0.5712826291874495, -0.9690408406557651, 2.3649612582772854, 9362.0, 30146.0, 35388.0, 9362.0, 8.350414276123047, 0.1459970921278, 0.1563112884759903, -0.1816961020231247, -0.1193755492568016, -0.023402895778417587, 1.0194112062454224, -0.10190019011497498, -0.0037593841552734375, 1.49560546875, 1.42529296875, 0.0688018798828125, 1.48974609375
40397, -0.004763338249176741, -0.0009505522320978343, 0.008185247890651226, 1.5729327060398646e-05, 2.039620994764846e-06, 0.0043533905409276485, 0.00011289134272374213, 5.37786545464769e-05, 0.0413513146340847, -0.8171252012252808, -1.0220136642456055, 0.05167263746261597, -0.602733815961907, -0.9468856758703907, 2.366611383471142, 9362.0, 30146.0, 35388.0, 9362.0, 8.350414276123047, -0.1423223614692688, -0.23307128250598907, -0.1775779128074646, -0.11928512156009674, -0.023271160200238228, 1.0186128616333008, -0.10190019011497498, -0.0037593841552734375, 1.49560546875, 1.55419921875, 0.311279296875, 1.4912109375
40407, -0.004440401215106249, -0.0008222840842790902, 0.00615331856533885, 1.6872993001015857e-05, 2.6230541152472142e-06, 0.004776332061737776, 0.00011581767466850579, 6.289251905400306e-05, 0.04323737695813179, -0.8170926570892334, -1.0220365524291992, 0.051783107221126556, -0.569987782989429, -0.9643732267917073, 2.362577627934096, 9362.0, 30146.0, 35388.0, 9362.0, 8.350414276123047, 0.09469205886125565, 0.0005060115945525467, -0.2046830654144287, -0.12047358602285385, -0.02299800142645836, 1.0205053091049194, -0.10190019011497498, -0.0037593841552734375, 1.49560546875, 1.604736328125, 0.428436279296875, 1.4912109375
40417, -0.005235604476183653, -0.0013260821579024196, 0.005420999601483345, 1.8039458154817112e-05, 3.2935399758571293e-06, 0.0052181025967001915, 0.00011747126700356603, 7.119397923815995e-05, 0.045117102563381195, -0.8171011805534363, -1.0220351219177246, 0.05178304389119148, -0.5648441349427958, -0.961774965660112, 2.3651774643805283, 9362.0, 30146.0, 35388.0, 9362.0, 8.350414276123047, -0.053500328212976456, -0.035985950380563736, -0.3026546537876129, -0.1215200126171112, -0.024623818695545197, 1.0194599628448486, -0.10190019011497498, -0.0037593841552734375, 1.49560546875, 1.613525390625, 0.44940185546875, 1.494873046875
40427, -0.0035946224816143513, 0.0007821127655915916, 0.0013817708240821958, 1.9221348338760436e-05, 4.044263732794207e-06, 0.005679204128682613, 0.00011892438487848267, 7.897830801084638e-05, 0.047103624790906906, -0.8170923590660095, -1.0220407247543335, 0.05177626386284828, -0.5710543008058548, -0.9623126956549868, 2.364141966245578, 9362.0, 30146.0, 35388.0, 9362.0, 8.350414276123047, 0.24369779229164124, -0.0026275806594640017, -0.39443719387054443, -0.12157519161701202, -0.02249234728515148, 1.017623782157898, -0.10190019011497498, -0.0037593841552734375, 1.49560546875, 1.42529296875, 0.0688018798828125, 1.494873046875
40437, -0.002365376567468047, 0.0023065798450261354, -0.0003281374811194837, 2.0422148736543022e-05, 4.879694188275607e-06, 0.006159269716590643, 0.00012117007281631231, 8.805586548987776e-05, 0.04890992119908333, -0.8170906901359558, -1.0220288038253784, 0.05177249759435654, -0.5716968235172641, -0.9686525075485406, 2.364979469382299, 9362.0, 30146.0, 35388.0, 9362.0, 8.350414276123047, 0.169645756483078, 0.0783325806260109, -0.0370648019015789, -0.12196668982505798, -0.023020833730697632, 1.0179799795150757, -0.10190019011497498, -0.0037593841552734375, 1.49560546875, 1.598876953125, 0.414520263671875, 1.491943359375
40447, -0.0019091384019702673, 0.00020988982578273863, 0.00016818185395095497, 2.1627030946547166e-05, 5.7915844990930054e-06, 0.006657278630882502, 0.00011975930101471022, 9.428403427591547e-05, 0.050692301243543625, -0.8170953392982483, -1.0220403671264648, 0.051793135702610016, -0.5706483424586465, -0.964127136549422, 2.3703270110503283, 9362.0, 30146.0, 35388.0, 9362.0, 8.350414276123047, 0.023911284282803535, 0.04843828082084656, 0.07675234228372574, -0.11897490173578262, -0.026274219155311584, 1.0176153182983398, -0.10190019011497498, -0.0037593841552734375, 1.49560546875, 1.5556640625, 0.3145904541015625, 1.491943359375
40457, -0.002220041584223509, -0.0005766843096353114, 0.0013734985841438174, 2.2804544641985558e-05, 6.755016329407226e-06, 0.007172483019530773, 0.0001158039303845726, 9.838913683779538e-05, 0.052348967641592026, -0.8170915842056274, -1.0220366716384888, 0.05178067833185196, -0.5767187005274059, -0.9593810182958578, 2.361230255330535, 9362.0, 30146.0, 35388.0, 9362.0, 8.350414276123047, 0.1442001312971115, -0.03459223359823227, 0.0714809000492096, -0.12160996347665787, -0.024110332131385803, 1.0190529823303223, -0.10190019011497498, -0.0037593841552734375, 1.49560546875, 1.58056640625, 0.3715972900390625, 1.4853515625
40467, -0.0019378683064132929, 0.0008178094867616892, 0.0013664178550243378, 2.396075433352962e-05, 7.755551450827625e-06, 0.007704983931034803, 0.00011546261521289125, 0.00010172770998906344, 0.05415163189172745, -0.8170884251594543, -1.0220410823822021, 0.05177522823214531, -0.5744504891930221, -0.9623458894572252, 2.3653394821160885, 9362.0, 30146.0, 35388.0, 9362.0, 8.350414276123047, 0.1395719051361084, 0.05762993544340134, 0.10435989499092102, -0.12186553329229355, -0.023228345438838005, 1.0176362991333008, -0.10190019011497498, -0.0037593841552734375, 1.49560546875, 1.489013671875, 0.174041748046875, 1.4853515625
40477, -0.002931366441771388, -0.0025657042860984802, 0.0020771161653101444, 2.5120409191004e-05, 8.792191692919005e-06, 0.008255740627646446, 0.00011642354365903884, 0.0001055913235177286, 0.05600004270672798, -0.8170900344848633, -1.0220422744750977, 0.051774054765701294, -0.5733724890191916, -0.9634401517742219, 2.3602402315186937, 9362.0, 30146.0, 35388.0, 9362.0, 8.350414276123047, -0.16997931897640228, 0.2635859251022339, -0.0450875423848629, -0.12165161222219467, -0.02263190597295761, 1.0174932479858398, -0.10190019011497498, -0.0037593841552734375, 1.49560546875, 1.550537109375, 0.303131103515625, 1.486083984375
40487, -0.0012207617983222008, -0.0048966603353619576, 0.003274537855759263, 2.627752473927103e-05, 9.864977073448244e-06, 0.008824096992611885, 0.00011509797332109883, 0.00010899469634750858, 0.057671621441841125, -0.8171325325965881, -1.0220158100128174, 0.051680807024240494, -0.601436543881482, -0.9537422185475464, 2.359088133912243, 9362.0, 30146.0, 35388.0, 9362.0, 8.350414276123047, 0.2404436469078064, 0.3730110228061676, -0.12558315694332123, -0.12105810642242432, -0.022993220016360283, 1.0186630487442017, -0.1185077428817749, -0.1650371551513672, 1.482421875, 1.614990234375, 0.4530181884765625, 1.486083984375
40497, -0.00026449174038134515, -0.00583020830526948, 0.002670521382242441, 2.7450865673017688e-05, 1.0980474144162145e-05, 0.00940969493240118, 0.00011964236182393506, 0.00011405180703150108, 0.059448421001434326, -0.8170928955078125, -1.0220589637756348, 0.051769763231277466, -0.5738514092179979, -0.9653404207349183, 2.35752905910251, 9362.0, 30146.0, 35388.0, 9362.0, 8.350414276123047, 0.1727406084537506, -0.05235590413212776, 0.1573215126991272, -0.11784995347261429, -0.024688731878995895, 1.0187381505966187, -0.1185077428817749, -0.1650371551513672, 1.482421875, 1.503662109375, 0.2029876708984375, 1.490478515625
40507, -0.000568632734939456, -0.007026238366961479, 0.0038097123615443707, 2.868998853955418e-05, 1.2131639778090175e-05, 0.01001331303268671, 0.00012821207928936929, 0.00011615080438787118, 0.0612756572663784, -0.8170825839042664, -1.0220357179641724, 0.05178475007414818, -0.5701609272685187, -0.9636392158487581, 2.366313333130372, 9362.0, 30146.0, 35388.0, 9362.0, 8.350414276123047, -0.1729128360748291, -0.1279546320438385, -0.054722920060157776, -0.11933069676160812, -0.02344399504363537, 1.0199521780014038, -0.1185077428817749, -0.1650371551513672, 1.482421875, 1.6142578125, 0.4512786865234375, 1.490478515625
40517, 2.566270086390432e-05, -0.006666248198598623, 0.003936671651899815, 3.002297853527125e-05, 1.3295458302309271e-05, 0.01063548680394888, 0.0001384253118885681, 0.00011662301403703168, 0.06315944343805313, -0.8170989751815796, -1.0220369100570679, 0.05175431817770004, -0.5751093996822889, -0.9539752635899674, 2.362106389239253, 9362.0, 30146.0, 35388.0, 9362.0, 8.350414276123047, 0.003754389239475131, 0.03843754902482033, 0.2466951608657837, -0.12161335349082947, -0.024180158972740173, 1.0222283601760864, -0.1185077428817749, -0.1650371551513672, 1.482421875, 1.431884765625, 0.07769775390625, 1.4853515625
40527, 0.0003732815966941416, -0.005806365981698036, 0.00333120534196496, 3.1468644010601565e-05, 1.4466662833001465e-05, 0.011277385987341404, 0.00015069515211507678, 0.00011759653716580942, 0.06522072851657867, -0.8170872330665588, -1.0220454931259155, 0.05177781730890274, -0.5714649784452884, -0.9621707596149633, 2.3567517099248336, 9362.0, 30146.0, 35388.0, 9362.0, 8.350414276123047, 0.059599049389362335, -0.15683555603027344, -0.27690428495407104, -0.12240917980670929, -0.023931488394737244, 1.021851658821106, -0.1185077428817749, -0.1650371551513672, 1.482421875, 1.591552734375, 0.3972320556640625, 1.4853515625
40537, 0.0010068714618682861, -0.006214638240635395, 0.0035252419766038656, 3.303396442788653e-05, 1.5642406651750207e-05, 0.011940762400627136, 0.00016233533096965402, 0.00011753872240660712, 0.0674550011754036, -0.8171197175979614, -1.0220165252685547, 0.0516686737537384, -0.6082198582358406, -0.9517649391459031, 2.355597506715382, 9362.0, 30146.0, 35388.0, 9362.0, 8.350414276123047, 0.15498830378055573, 0.0043464708141982555, 0.12686383724212646, -0.12144562602043152, -0.023995697498321533, 1.021025538444519, -0.1185077428817749, -0.1650371551513672, 1.482421875, 1.52197265625, 0.2408599853515625, 1.494140625
40547, 0.0024353167973458767, -0.006830966100096703, 0.003125283168628812, 3.4708100429270416e-05, 1.6814532500575297e-05, 0.012625928036868572, 0.0001725071488181129, 0.00011686292418744415, 0.06957859545946121, -0.8170996308326721, -1.022047758102417, 0.05176149308681488, -0.5720168149111426, -0.9682779626959359, 2.3673314154140783, 9362.0, 30146.0, 35388.0, 9362.0, 8.350414276123047, 0.28873905539512634, 0.22632570564746857, -0.2747430205345154, -0.11825694143772125, -0.024028392508625984, 1.020459532737732, -0.1185077428817749, -0.1650371551513672, 1.482421875, 1.600341796875, 0.4178924560546875, 1.494140625
40557, 0.0028527674730867147, -0.007986357435584068, 0.003779304213821888, 3.648746496764943e-05, 1.797436925699003e-05, 0.013331753201782703, 0.0001833871501730755, 0.00011505428119562566, 0.07158686220645905, -0.8170810341835022, -1.022045612335205, 0.05177979916334152, -0.5717885382440262, -0.9650861360312604, 2.3683256131652093, 9362.0, 30146.0, 35388.0, 9362.0, 8.350414276123047, -0.07506804168224335, -0.0037890172097831964, 0.09120051562786102, -0.12009662389755249, -0.024952072650194168, 1.0212202072143555, -0.1185077428817749, -0.1650371551513672, 1.482421875, 1.55712890625, 0.31793212890625, 1.4912109375
40567, 0.0021869658958166838, -0.008818577043712139, 0.002252561040222645, 3.838101474684663e-05, 1.910363971546758e-05, 0.014057684689760208, 0.00019536371110007167, 0.00011078520037699491, 0.07359974831342697, -0.8170859217643738, -1.0220271348953247, 0.05175161734223366, -0.5791449428107766, -0.968828529626478, 2.367876794979116, 9362.0, 30146.0, 35388.0, 9362.0, 8.350414276123047, -0.012427350506186485, 0.10004977136850357, -0.14182449877262115, -0.1233985424041748, -0.024213384836912155, 1.0215604305267334, -0.1185077428817749, -0.1650371551513672, 1.482421875, 1.55419921875, 0.311279296875, 1.4912109375
40577, 0.002392591442912817, -0.009801551699638367, 0.004665710031986237, 4.040447311126627e-05, 2.018655686697457e-05, 0.01480407826602459, 0.00020935790962539613, 0.0001058219640981406, 0.07567939907312393, -0.8171223402023315, -1.0220229625701904, 0.05167972296476364, -0.6038055653447955, -0.9472863577778128, 2.3643519772207666, 9362.0, 30146.0, 35388.0, 9362.0, 8.350414276123047, -0.12945158779621124, -0.013636204414069653, 0.30475175380706787, -0.1210901290178299, -0.022238174453377724, 1.0181344747543335, -0.1185077428817749, -0.1650371551513672, 1.482421875, 1.588623046875, 0.390350341796875, 1.48828125
40587, 0.0018102199537679553, -0.010026797652244568, 0.004684240557253361, 4.2575069528538734e-05, 2.122568002960179e-05, 0.015570754185318947, 0.00022479523613583297, 0.00010199620737694204, 0.07765626907348633, -0.8170846104621887, -1.0220378637313843, 0.051771700382232666, -0.5724590459864668, -0.9659411632632384, 2.3596677032352322, 9362.0, 30146.0, 35388.0, 9362.0, 8.350414276123047, 0.11888564378023148, 0.17784108221530914, -0.11573716998100281, -0.1198657900094986, -0.01979132555425167, 1.0169360637664795, -0.09120385348796844, -0.04855918884277344, 1.491943359375, 1.56005859375, 0.324493408203125, 1.48828125
40597, 0.002808488206937909, -0.009073272347450256, 0.005716415587812662, 4.490838182391599e-05, 2.2224812710192055e-05, 0.016355780884623528, 0.00024187378585338593, 9.784758003661409e-05, 0.07934963703155518, -0.8170828819274902, -1.022044062614441, 0.05177753418684006, -0.5735934740067693, -0.9666556524483951, 2.3636820177149183, 9362.0, 30146.0, 35388.0, 9362.0, 8.350414276123047, 0.12980082631111145, -0.36511486768722534, 0.007313610520213842, -0.12096425145864487, -0.019941531121730804, 1.0196398496627808, -0.09120385348796844, -0.04855918884277344, 1.491943359375, 1.3330078125, 0.0191650390625, 1.4912109375
40607, 0.0018747422145679593, -0.007261726539582014, 0.006642852444201708, 4.741445809486322e-05, 2.3187527403933927e-05, 0.017157835885882378, 0.00025931280106306076, 9.466605115449056e-05, 0.08106189966201782, -0.8170763850212097, -1.0220354795455933, 0.05177494138479233, -0.5743529717628354, -0.9713028596324591, 2.358643635804256, 9362.0, 30146.0, 35388.0, 9362.0, 8.350414276123047, -0.03977952525019646, -0.33292773365974426, 0.02520618960261345, -0.12011376023292542, -0.024157728999853134, 1.0203373432159424, -0.09120385348796844, -0.04855918884277344, 1.491943359375, 1.58642578125, 0.3851776123046875, 1.4912109375
40617, 0.0015024644089862704, -0.007102137431502342, 0.00729576637968421, 5.008688822272234e-05, 2.410964953014627e-05, 0.017978712916374207, 0.00027510846848599613, 8.979213453130797e-05, 0.08311404287815094, -0.8170838952064514, -1.0220390558242798, 0.05175890401005745, -0.5734775380703976, -0.966256521275028, 2.3635582528657073, 9362.0, 30146.0, 35388.0, 9362.0, 8.350414276123047, -0.060164812952280045, -0.31458780169487, -0.10296933352947235, -0.12250027805566788, -0.025151260197162628, 1.018227219581604, -0.09120385348796844, -0.04855918884277344, 1.491943359375, 1.368896484375, 0.01885986328125, 1.48974609375
40627, 0.003156049642711878, -0.007189860101789236, 0.0061452812515199184, 5.29013377672527e-05, 2.4991220925585367e-05, 0.018819279968738556, 0.00028777593979611993, 8.653441909700632e-05, 0.08499988168478012, -0.8171193599700928, -1.0220156908035278, 0.05167292803525925, -0.6078305397375494, -0.9517401702507584, 2.3632990761664328, 9362.0, 30146.0, 35388.0, 9362.0, 8.350414276123047, 0.05779196321964264, 0.37007999420166016, -0.09150729328393936, -0.12045157700777054, -0.0225455854088068, 1.0192887783050537, -0.09120385348796844, -0.04855918884277344, 1.491943359375, 1.597412109375, 0.4110870361328125, 1.48974609375
40637, 0.0034039781894534826, -0.007432887796312571, 0.004338912665843964, 5.584105383604765e-05, 2.5843466573860496e-05, 0.019678592681884766, 0.00030017009703442454, 8.386070840060711e-05, 0.0868631973862648, -0.8171125054359436, -1.0220078229904175, 0.05168167129158974, -0.6058777683171709, -0.9550809017509039, 2.362250837362892, 9362.0, 30146.0, 35388.0, 9362.0, 8.350414276123047, -0.05725583806633949, -0.05896617844700813, -0.045411404222249985, -0.12051373720169067, -0.022124649956822395, 1.019378900527954, -0.09120385348796844, -0.04855918884277344, 1.491943359375, 1.556396484375, 0.316192626953125, 1.491943359375
40657, 0.0033093418460339308, -0.0068619707599282265, 0.005551986861974001, 6.209751154528931e-05, 2.7408346795709804e-05, 0.02145286463201046, 0.0003257164207752794, 7.241526327561587e-05, 0.09056121855974197, -0.817079484462738, -1.0220423936843872, 0.051782697439193726, -0.5709444156912851, -0.9584285207455991, 2.362205937915781, 9362.0, 30146.0, 35388.0, 9362.0, 8.350414276123047, 0.016026696190238, 0.029123004525899887, -0.13646237552165985, -0.11999604851007462, -0.021565044298768044, 1.0216076374053955, -0.09120385348796844, -0.04855918884277344, 1.491943359375, 1.462646484375, 0.125823974609375, 1.491943359375
40667, 0.003639525966718793, -0.006076210178434849, 0.005527880042791367, 6.542749906657264e-05, 2.810384103213437e-05, 0.022368445992469788, 0.00034022919135168195, 6.66825653752312e-05, 0.09255558252334595, -0.8170761466026306, -1.0220282077789307, 0.05178000405430794, -0.5789134750082108, -0.9700298304423143, 2.3622394776479796, 9362.0, 30146.0, 35388.0, 9362.0, 8.350414276123047, 0.21424135565757751, -0.2646034359931946, -0.08265209197998047, -0.12278798222541809, -0.024724537506699562, 1.0185898542404175, -0.09120385348796844, -0.04855918884277344, 1.491943359375, 1.462646484375, 0.125823974609375, 1.491943359375
40677, 0.002151136752218008, -0.007953878492116928, 0.006173931527882814, 6.88897562213242e-05, 2.874175515898969e-05, 0.023304156959056854, 0.00035219406709074974, 6.088856025598943e-05, 0.09458691626787186, -0.8170891404151917, -1.0220352411270142, 0.05176515877246857, -0.5719295853900433, -0.9654262832459608, 2.366784494488936, 9362.0, 30146.0, 35388.0, 9362.0, 8.350414276123047, -0.10765202343463898, 0.1574471890926361, 0.21384824812412262, -0.12131907045841217, -0.023572666570544243, 1.016550064086914, -0.09120385348796844, -0.04855918884277344, 1.491943359375, 1.462646484375, 0.125823974609375, 1.491943359375
40697, 0.0024032939691096544, -0.009563634172081947, 0.0084117716178298, 7.616213406436145e-05, 2.984620186907705e-05, 0.025229115039110184, 0.0003767383750528097, 5.082114148535766e-05, 0.09794936329126358, -0.8171201944351196, -1.0220094919204712, 0.05166659131646156, -0.613029089496491, -0.9553694154156176, 2.3652160268863254, 9362.0, 30146.0, 35388.0, 9362.0, 8.350414276123047, -0.11425082385540009, -0.2812856435775757, -0.030573975294828415, -0.1215868815779686, -0.024106500670313835, 1.0187724828720093, -0.09908062219619751, -0.1291980743408203, 1.4853515625, 1.29345703125, 0.05889892578125, 1.491943359375
40707, 0.0016001478070393205, -0.0038680401630699635, 0.00519975833594799, 7.616213406436145e-05, 2.984620186907705e-05, 0.025229115039110184, 0.0003767383750528097, 5.082114148535766e-05, 0.09794936329126358, -0.8170746564865112, -1.0220273733139038, 0.05178041756153107, -0.5766099407048534, -0.9693741178186599, 2.352647282094339, 9362.0, 30146.0, 35388.0, 9362.0, 8.350414276123047, -0.11209520697593689, -0.7039047479629517, -0.22832997143268585, -0.12142772227525711, -0.02231857180595398, 1.0198309421539307, -0.09908062219619751, -0.1291980743408203, 1.4853515625, 1.29345703125, 0.05889892578125, 1.491943359375
40717, 0.0014821981312707067, -0.002758765360340476, 0.005772834178060293, 8.40357897686772e-05, 3.0759907531319186e-05, 0.027223680168390274, 0.00041026886901818216, 4.1210347262676805e-05, 0.10163019597530365, -0.8170920610427856, -1.0220357179641724, 0.05178229138255119, -0.572917831880855, -0.9719911024395174, 2.360900587392172, 9362.0, 30146.0, 35388.0, 9362.0, 8.350414276123047, 0.0917445495724678, -0.14735721051692963, -0.08552583307027817, -0.12056219577789307, -0.02307904325425625, 1.0194028615951538, -0.09908062219619751, -0.1291980743408203, 1.4853515625, 1.609130859375, 0.4388580322265625, 1.491943359375
40727, 0.0010210912441834807, -0.0037700566463172436, 0.006940809078514576, 8.40357897686772e-05, 3.0759907531319186e-05, 0.027223680168390274, 0.00041026886901818216, 4.1210347262676805e-05, 0.10163019597530365, -0.8171042203903198, -1.02205228805542, 0.051772672683000565, -0.5750932595248384, -0.9667928205194585, 2.3623803406114083, 9362.0, 30146.0, 35388.0, 9362.0, 8.350414276123047, -0.09645073115825653, 0.0738358274102211, -0.11340749263763428, -0.12059472501277924, -0.023089999333024025, 1.0209742784500122, -0.09908062219619751, -0.1291980743408203, 1.4853515625, 1.506591796875, 0.2088775634765625, 1.491943359375
40737, 0.0007583739352412522, -0.005583999678492546, 0.007473044563084841, 8.40357897686772e-05, 3.0759907531319186e-05, 0.027223680168390274, 0.00041026886901818216, 4.1210347262676805e-05, 0.10163019597530365, -0.8170839548110962, -1.022036075592041, 0.051786232739686966, -0.5749654270882208, -0.9659878676749258, 2.365608132342076, 9362.0, 30146.0, 35388.0, 9362.0, 8.350414276123047, -0.039880238473415375, 0.01745704747736454, -0.08188420534133911, -0.12192175537347794, -0.024862738326191902, 1.0229511260986328, -0.09908062219619751, -0.1291980743408203, 1.4853515625, 1.56591796875, 0.337738037109375, 1.49267578125
40747, -0.0006847960175946355, -0.004671885631978512, 0.005475227255374193, 8.40357897686772e-05, 3.0759907531319186e-05, 0.027223680168390274, 0.00041026886901818216, 4.1210347262676805e-05, 0.10163019597530365, -0.8171510696411133, -1.0220139026641846, 0.051662687212228775, -0.6079695641291191, -0.9347787808345913, 2.3500540687882707, 9362.0, 30146.0, 35388.0, 9362.0, 8.350414276123047, -0.05724877491593361, 0.044919759035110474, -0.11768937855958939, -0.12339384853839874, -0.024553393945097923, 1.0182808637619019, -0.09908062219619751, -0.1291980743408203, 1.4853515625, 1.56591796875, 0.337738037109375, 1.49267578125
40757, -0.00028668995946645737, -0.002762337913736701, 0.004299531225115061, 8.40357897686772e-05, 3.0759907531319186e-05, 0.027223680168390274, 0.00041026886901818216, 4.1210347262676805e-05, 0.10163019597530365, -0.81709885597229, -1.0220407247543335, 0.05176594480872154, -0.5734489612843383, -0.9682237171354586, 2.365130850585871, 9362.0, 30146.0, 35388.0, 9362.0, 8.350414276123047, -0.03397257253527641, -0.17793932557106018, -0.09183789789676666, -0.12201286107301712, -0.022048434242606163, 1.0181406736373901, -0.09908062219619751, -0.1291980743408203, 1.4853515625, 1.56591796875, 0.337738037109375, 1.4970703125
40767, -0.0001627847959753126, -0.0021191718988120556, 0.006732650566846132, 8.40357897686772e-05, 3.0759907531319186e-05, 0.027223680168390274, 0.00041026886901818216, 4.1210347262676805e-05, 0.10163019597530365, -0.8170896768569946, -1.0220462083816528, 0.051765646785497665, -0.5731703965171915, -0.9606651909476511, 2.365249050404744, 9362.0, 30146.0, 35388.0, 9362.0, 8.350414276123047, -0.1125861331820488, -0.12790995836257935, 0.4001864790916443, -0.12006084620952606, -0.024877380579710007, 1.0203944444656372, -0.09908062219619751, -0.1291980743408203, 1.4853515625, 1.363037109375, 0.0169219970703125, 1.4970703125
40777, -0.0005287210806272924, -0.002279092790558934, 0.007420408073812723, 8.40357897686772e-05, 3.0759907531319186e-05, 0.027223680168390274, 0.00041026886901818216, 4.1210347262676805e-05, 0.10163019597530365, -0.8170884251594543, -1.0220485925674438, 0.05178659409284592, -0.5731659754426777, -0.9618953224101006, 2.3571715060854537, 9362.0, 30146.0, 35388.0, 9362.0, 8.350414276123047, 0.032398052513599396, 0.14917799830436707, 0.09348428249359131, -0.12060973048210144, -0.024661941453814507, 1.0194429159164429, -0.09908062219619751, -0.1291980743408203, 1.4853515625, 1.415771484375, 0.0568695068359375, 1.487548828125
40797, -0.0007577526266686618, -0.002104200189933181, 0.009292584843933582, 0.00011895934585481882, 3.358794128871523e-05, 0.035982027649879456, 0.00045879490789957345, 3.569052933016792e-05, 0.11713896691799164, -0.8171172142028809, -1.0220270156860352, 0.05171980708837509, -0.5900402779032411, -0.9553043004020481, 2.3735623340978043, 9362.0, 30146.0, 35388.0, 9362.0, 8.350414276123047, 0.012513651512563229, 0.1901615560054779, 0.3806661367416382, -0.12224823981523514, -0.02385682240128517, 1.0157467126846313, -0.11419675499200821, -0.18295860290527344, 1.48095703125, 1.415771484375, 0.0568695068359375, 1.487548828125
40807, -0.00030338464421220124, -0.0008117362158372998, 0.008648937568068504, 0.0001235668605659157, 3.3947006158996373e-05, 0.03716166689991951, 0.0004627036105375737, 3.6137007555225864e-05, 0.11878915876150131, -0.817150354385376, -1.0220078229904175, 0.05165398493409157, -0.6236882663395614, -0.9432402778063533, 2.3805317392657255, 9362.0, 30146.0, 35388.0, 9362.0, 8.350414276123047, 0.13552506268024445, -0.14808517694473267, -0.17727747559547424, -0.12224823981523514, -0.02385682240128517, 1.0157467126846313, -0.11419675499200821, -0.18295860290527344, 1.48095703125, 1.415771484375, 0.0568695068359375, 1.487548828125
40817, 0.00031263846904039383, 0.0002986691251862794, 0.008870026096701622, 0.00012821222480852157, 3.4314980439376086e-05, 0.038358185440301895, 0.0004663306463044137, 3.7444096960825846e-05, 0.12051501870155334, -0.8171159625053406, -1.022034764289856, 0.05173231661319733, -0.5861981044980913, -0.9552699718407212, 2.375887070026055, 9362.0, 30146.0, 35388.0, 9362.0, 8.350414276123047, 0.07708166539669037, -0.2796488404273987, -0.11177155375480652, -0.121709905564785, -0.023226464167237282, 1.0194525718688965, -0.11419675499200821, -0.18295860290527344, 1.48095703125, 1.415771484375, 0.0568695068359375, 1.487548828125
40827, 5.1053288188995793e-05, -0.0010088002309203148, 0.008635684847831726, 0.00012821222480852157, 3.4314980439376086e-05, 0.038358185440301895, 0.0004663306463044137, 3.7444096960825846e-05, 0.12051501870155334, -0.8171212673187256, -1.0220377445220947, 0.05174174904823303, -0.5808449987231034, -0.9618199055472303, 2.3831021848072553, 9362.0, 30146.0, 35388.0, 9362.0, 8.350414276123047, 0.11975865811109543, -0.012831302359700203, -0.08785749226808548, -0.11931339651346207, -0.02223713882267475, 1.0217366218566895, -0.11419675499200821, -0.18295860290527344, 1.48095703125, 1.563720703125, 0.3327789306640625, 1.487548828125
40837, 5.364708340493962e-05, -0.0010564414551481605, 0.00868668220937252, 0.00012821222480852157, 3.4314980439376086e-05, 0.038358185440301895, 0.0004663306463044137, 3.7444096960825846e-05, 0.12051501870155334, -0.8171573877334595, -1.0220143795013428, 0.0516398623585701, -0.6180781545794484, -0.9468579435921072, 2.384156404148522, 9362.0, 30146.0, 35388.0, 9362.0, 8.350414276123047, 0.019056694582104683, 0.03870609402656555, 0.20822235941886902, -0.12040388584136963, -0.022103769704699516, 1.0195461511611938, -0.11419675499200821, -0.18295860290527344, 1.48095703125, 1.563720703125, 0.3327789306640625, 1.487548828125
40847, -0.00030288443667814136, -0.0016982877859845757, 0.010322692804038525, 0.00012821222480852157, 3.4314980439376086e-05, 0.038358185440301895, 0.0004663306463044137, 3.7444096960825846e-05, 0.12051501870155334, -0.8171194791793823, -1.0220285654067993, 0.05173490568995476, -0.5830118470229454, -0.9586373179776615, 2.3881422296598753, 9362.0, 30146.0, 35388.0, 9362.0, 8.350414276123047, 0.022507283836603165, -0.02660670131444931, 0.32881778478622437, -0.1190846636891365, -0.02324211224913597, 1.019882082939148, -0.11419675499200821, -0.18295860290527344, 1.48095703125, 1.623046875, 0.4723663330078125, 1.487548828125
40857, -6.787759048165753e-05, -0.002406942890956998, 0.009845440275967121, 0.00012821222480852157, 3.4314980439376086e-05, 0.038358185440301895, 0.0004663306463044137, 3.7444096960825846e-05, 0.12051501870155334, -0.8171226978302002, -1.0220248699188232, 0.0517289824783802, -0.5852242022991317, -0.963099608489415, 2.3805621082817696, 9362.0, 30146.0, 35388.0, 9362.0, 8.350414276123047, -0.056503742933273315, 0.04038562625646591, -0.2361828088760376, -0.1207544207572937, -0.02422221191227436, 1.0193581581115723, -0.11419675499200821, -0.18295860290527344, 1.48095703125, 1.623046875, 0.4723663330078125, 1.487548828125
40867, -0.001305850106291473, -0.0015506634954363108, 0.00876463484019041, 0.00012821222480852157, 3.4314980439376086e-05, 0.038358185440301895, 0.0004663306463044137, 3.7444096960825846e-05, 0.12051501870155334, -0.8171288967132568, -1.0220320224761963, 0.051730092614889145, -0.5828721878837813, -0.9623183418516419, 2.3798553924585506, 9362.0, 30146.0, 35388.0, 9362.0, 8.350414276123047, -0.31316056847572327, -0.2937523126602173, -0.12590375542640686, -0.12296751886606216, -0.023205576464533806, 1.0200303792953491, -0.11419675499200821, -0.18295860290527344, 1.48095703125, 1.579833984375, 0.369873046875, 1.487548828125
40877, -0.0004536435008049011, -0.0020636117551475763, 0.007292815018445253, 0.00015642047219444066, 3.6568766518030316e-05, 0.045941609889268875, 0.00047802363405935466, 3.792770075961016e-05, 0.1321837455034256, -0.8171206116676331, -1.0220335721969604, 0.051722027361392975, -0.5880184679453412, -0.9603937117028636, 2.381243870907804, 9362.0, 30146.0, 35388.0, 9362.0, 8.350414276123047, 0.18428552150726318, -0.029605833813548088, 0.10702279210090637, -0.12055525183677673, -0.022424064576625824, 1.0197657346725464, -0.11419675499200821, -0.18295860290527344, 1.48095703125, 1.579833984375, 0.369873046875, 1.487548828125
40887, -0.0003810963244177401, 0.0010824739001691341, 0.006006001960486174, 0.00016121425142046064, 3.6959449062123895e-05, 0.047273315489292145, 0.00048074941150844097, 4.017956234747544e-05, 0.13415764272212982, -0.8171237707138062, -1.0220282077789307, 0.05174337700009346, -0.5906416147211165, -0.9621010367884253, 2.381604013741583, 9362.0, 30146.0, 35388.0, 9362.0, 8.350414276123047, 0.0018119339365512133, -0.23899522423744202, -0.14920060336589813, -0.12055525183677673, -0.022424064576625824, 1.0197657346725464, -0.11419675499200821, -0.18295860290527344, 1.48095703125, 1.579833984375, 0.369873046875, 1.487548828125
40897, -0.0013418981106951833, 0.003756387857720256, 0.005259505473077297, 0.00016121425142046064, 3.6959449062123895e-05, 0.047273315489292145, 0.00048074941150844097, 4.017956234747544e-05, 0.13415764272212982, -0.8171528577804565, -1.0220004320144653, 0.05165300890803337, -0.6186525023082943, -0.9497631902408443, 2.3813681068647186, 9362.0, 30146.0, 35388.0, 9362.0, 8.350414276123047, -0.08169985562562943, 0.041678957641124725, 0.34252533316612244, -0.12095540016889572, -0.023393377661705017, 1.0227545499801636, -0.11419675499200821, -0.18295860290527344, 1.48095703125, 1.579833984375, 0.369873046875, 1.487548828125
40907, -0.002228850731626153, 0.004608534276485443, 0.005690369289368391, 0.00016121425142046064, 3.6959449062123895e-05, 0.047273315489292145, 0.00048074941150844097, 4.017956234747544e-05, 0.13415764272212982, -0.8171353340148926, -1.0220310688018799, 0.051721569150686264, -0.5810781002877585, -0.9556064929396371, 2.3823962759127473, 9362.0, 30146.0, 35388.0, 9362.0, 8.350414276123047, -0.0446195974946022, 0.11937972158193588, 0.06888581812381744, -0.12030229717493057, -0.022908007726073265, 1.0199474096298218, -0.11419675499200821, -0.18295860290527344, 1.48095703125, 1.582763671875, 0.3765869140625, 1.487548828125
40917, -0.00340272462926805, 0.005345562007278204, 0.0062611280009150505, 0.00016121425142046064, 3.6959449062123895e-05, 0.047273315489292145, 0.00048074941150844097, 4.017956234747544e-05, 0.13415764272212982, -0.817149817943573, -1.0219990015029907, 0.05162733420729637, -0.6273118543407282, -0.948577202120191, 2.373825759169919, 9362.0, 30146.0, 35388.0, 9362.0, 8.350414276123047, -0.03656649589538574, -0.20237678289413452, -0.046121541410684586, -0.1209605485200882, -0.02429072931408882, 1.0182414054870605, -0.11419675499200821, -0.18295860290527344, 1.48095703125, 1.582763671875, 0.3765869140625, 1.487548828125
40927, -0.0035671857185661793, 0.006006801966577768, 0.007119748275727034, 0.00016121425142046064, 3.6959449062123895e-05, 0.047273315489292145, 0.00048074941150844097, 4.017956234747544e-05, 0.13415764272212982, -0.8171568512916565, -1.0220037698745728, 0.05162622034549713, -0.6154960744009292, -0.9491682968640021, 2.3813489942004917, 9362.0, 30146.0, 35388.0, 9362.0, 8.350414276123047, 0.054662276059389114, -0.23571757972240448, -0.06312348693609238, -0.12147865444421768, -0.025080054998397827, 1.018999695777893, -0.11419675499200821, -0.18295860290527344, 1.48095703125, 1.582763671875, 0.3765869140625, 1.487548828125
40937, -0.003672192804515362, 0.009636888280510902, 0.006688935682177544, 0.00016121425142046064, 3.6959449062123895e-05, 0.047273315489292145, 0.00048074941150844097, 4.017956234747544e-05, 0.13415764272212982, -0.8171173334121704, -1.0220327377319336, 0.05173670873045921, -0.5844314818847703, -0.9498790845247242, 2.3742732529501276, 9362.0, 30146.0, 35388.0, 9362.0, 8.350414276123047, -0.03002599999308586, -0.25316107273101807, 0.1806422770023346, -0.1203138455748558, -0.025347255170345306, 1.0199155807495117, -0.11419675499200821, -0.18295860290527344, 1.48095703125, 1.279541015625, 0.0847015380859375, 1.493408203125
40947, -0.004320046398788691, 0.010787193663418293, 0.006754990667104721, 0.00016121425142046064, 3.6959449062123895e-05, 0.047273315489292145, 0.00048074941150844097, 4.017956234747544e-05, 0.13415764272212982, -0.8171539902687073, -1.0219954252243042, 0.05162445083260536, -0.6249644903135831, -0.9478067294046184, 2.380842585272152, 9362.0, 30146.0, 35388.0, 9362.0, 8.350414276123047, -0.1681390106678009, 0.08034512400627136, 0.043205626308918, -0.12432049959897995, -0.02251422591507435, 1.0207306146621704, -0.11419675499200821, -0.18295860290527344, 1.48095703125, 1.279541015625, 0.0847015380859375, 1.493408203125
40957, -0.005533361807465553, 0.010559340938925743, 0.007954686880111694, 0.00016121425142046064, 3.6959449062123895e-05, 0.047273315489292145, 0.00048074941150844097, 4.017956234747544e-05, 0.13415764272212982, -0.8171260356903076, -1.0220320224761963, 0.05173313245177269, -0.588492336422423, -0.9636185992786181, 2.3818337739337285, 9362.0, 30146.0, 35388.0, 9362.0, 8.350414276123047, -0.13274985551834106, 0.05813758075237274, 0.37237295508384705, -0.12097601592540741, -0.02213290147483349, 1.019956350326538, -0.11419675499200821, -0.18295860290527344, 1.48095703125, 1.279541015625, 0.0847015380859375, 1.493408203125
40967, -0.005819202400743961, 0.011370720341801643, 0.008382603526115417, 0.00016121425142046064, 3.6959449062123895e-05, 0.047273315489292145, 0.00048074941150844097, 4.017956234747544e-05, 0.13415764272212982, -0.8171276450157166, -1.0220295190811157, 0.051751188933849335, -0.5799545730915876, -0.9547052343427254, 2.3822619125069724, 9362.0, 30146.0, 35388.0, 9362.0, 8.350414276123047, -0.034014567732810974, -0.1930469423532486, -0.1362064778804779, -0.12029808014631271, -0.021923378109931946, 1.0199120044708252, -0.11419675499200821, -0.18295860290527344, 1.48095703125, 1.279541015625, 0.0847015380859375, 1.493408203125
40977, -0.006528668105602264, 0.013004625216126442, 0.009388748556375504, 0.00016121425142046064, 3.6959449062123895e-05, 0.047273315489292145, 0.00048074941150844097, 4.017956234747544e-05, 0.13415764272212982, -0.8171275854110718, -1.022025465965271, 0.051735371351242065, -0.5844395389624724, -0.9611472364808265, 2.381404094569525, 9362.0, 30146.0, 35388.0, 9362.0, 8.350414276123047, -0.12717844545841217, 0.08797818422317505, 0.3787899613380432, -0.11827932298183441, -0.023268016055226326, 1.0207040309906006, -0.11419675499200821, -0.18295860290527344, 1.48095703125, 1.279541015625, 0.0847015380859375, 1.490478515625
40997, -0.005823398474603891, 0.015172102488577366, 0.011945216916501522, 0.00020962760027032346, 4.375958087621257e-05, 0.06322704255580902, 0.00035074763582088053, 0.00010541497613303363, 0.15587688982486725, -0.8171653151512146, -1.0220086574554443, 0.05162927508354187, -0.6208109169346447, -0.9536927663210122, 2.378174158099937, 9362.0, 30146.0, 35388.0, 9362.0, 8.350414276123047, -0.03892549127340317, -0.2107783704996109, 0.32967326045036316, -0.12008678913116455, -0.02222091518342495, 1.0186519622802734, -0.11419675499200821, -0.18295860290527344, 1.48095703125, 1.57177734375, 0.3512115478515625, 1.490478515625
41007, -0.006283663213253021, 0.016115497797727585, 0.011630134657025337, 0.0002130069915438071, 4.486820034799166e-05, 0.06479568034410477, 0.0003251141752116382, 0.00011629344953689724, 0.15785109996795654, -0.8171637654304504, -1.0220497846603394, 0.05171205475926399, -0.573213884280484, -0.9332678278574633, 2.3682068766707847, 9362.0, 30146.0, 35388.0, 9362.0, 8.350414276123047, 0.046174097806215286, -0.015465456061065197, 0.07865981012582779, -0.1211174950003624, -0.025092242285609245, 1.021647334098816, -0.11419675499200821, -0.18295860290527344, 1.48095703125, 1.57177734375, 0.3512115478515625, 1.490478515625
41017, -0.006923754699528217, 0.013385027647018433, 0.012299798429012299, 0.00021612562704831362, 4.608196104527451e-05, 0.06638402491807938, 0.0002985819010064006, 0.00012647428957279772, 0.15981759130954742, -0.817125141620636, -1.0220316648483276, 0.051760438829660416, -0.5854531385626135, -0.9559648191584813, 2.379905998784078, 9362.0, 30146.0, 35388.0, 9362.0, 8.350414276123047, -0.3011332154273987, 0.1663661152124405, 0.013787983916699886, -0.12040051817893982, -0.025154246017336845, 1.0202816724777222, -0.11419675499200821, -0.18295860290527344, 1.48095703125, 1.57177734375, 0.3512115478515625, 1.487548828125
41027, -0.006578847300261259, 0.013081739656627178, 0.011624142527580261, 0.00021612562704831362, 4.608196104527451e-05, 0.06638402491807938, 0.0002985819010064006, 0.00012647428957279772, 0.15981759130954742, -0.8171284794807434, -1.022031307220459, 0.05174526199698448, -0.5837069084153419, -0.960710108493771, 2.387091993132118, 9362.0, 30146.0, 35388.0, 9362.0, 8.350414276123047, -0.05790412053465843, -0.2746165096759796, -0.4086191952228546, -0.1192622259259224, -0.020054558292031288, 1.0203436613082886, -0.11419675499200821, -0.18295860290527344, 1.48095703125, 1.57177734375, 0.3512115478515625, 1.487548828125
41037, -0.0057526868768036366, 0.01249528955668211, 0.012557771988213062, 0.00021612562704831362, 4.608196104527451e-05, 0.06638402491807938, 0.0002985819010064006, 0.00012647428957279772, 0.15981759130954742, -0.8171188235282898, -1.0220284461975098, 0.051739804446697235, -0.5849526315874561, -0.957393762257766, 2.378115499457836, 9362.0, 30146.0, 35388.0, 9362.0, 8.350414276123047, 0.1593339592218399, 0.16400498151779175, 0.23628735542297363, -0.1201186403632164, -0.02481226436793804, 1.019542932510376, -0.11419675499200821, -0.18295860290527344, 1.48095703125, 1.543212890625, 0.286834716796875, 1.48974609375
41047, -0.005452459212392569, 0.011604863218963146, 0.013533638790249825, 0.00022391564561985433, 5.038982999394648e-05, 0.07127020508050919, 0.00022429168166127056, 0.00016101545770652592, 0.16588090360164642, -0.8171228170394897, -1.0220277309417725, 0.051719240844249725, -0.582595470324991, -0.9591576881772141, 2.3875511783247068, 9362.0, 30146.0, 35388.0, 9362.0, 8.350414276123047, -0.09562860429286957, 0.17826774716377258, 0.11578033864498138, -0.12287294864654541, -0.023075813427567482, 1.0205048322677612, -0.11419675499200821, -0.18295860290527344, 1.48095703125, 1.543212890625, 0.286834716796875, 1.48974609375
41057, -0.004877125844359398, 0.011431993916630745, 0.012383279390633106, 0.00022391564561985433, 5.038982999394648e-05, 0.07127020508050919, 0.00022429168166127056, 0.00016101545770652592, 0.16588090360164642, -0.8171555995941162, -1.0220032930374146, 0.05164901912212372, -0.6177347768867032, -0.9463458003833125, 2.378286154802438, 9362.0, 30146.0, 35388.0, 9362.0, 8.350414276123047, 0.0019668382592499256, 0.28476548194885254, -0.11795134842395782, -0.1210063174366951, -0.023527203127741814, 1.0190626382827759, -0.11419675499200821, -0.18295860290527344, 1.48095703125, 1.543212890625, 0.286834716796875, 1.48974609375
41067, -0.0044247242622077465, 0.0107550248503685, 0.012410352006554604, 0.00022797301062382758, 5.380827496992424e-05, 0.0746273621916771, 0.00018222990911453962, 0.00018054699467029423, 0.16982969641685486, -0.817118227481842, -1.022024154663086, 0.05175787955522537, -0.5901973466312843, -0.9577009421106766, 2.376529471018233, 9362.0, 30146.0, 35388.0, 9362.0, 8.350414276123047, 0.17101708054542542, -0.2965982258319855, -0.3076957166194916, -0.11984030902385712, -0.022282205522060394, 1.0190593004226685, -0.11419675499200821, -0.18295860290527344, 1.48095703125, 1.543212890625, 0.286834716796875, 1.48974609375
41087, -0.0039727105759084225, 0.01049578096717596, 0.012206216342747211, 0.00022797301062382758, 5.380827496992424e-05, 0.0746273621916771, 0.00018222990911453962, 0.00018054699467029423, 0.16982969641685486, -0.8171533942222595, -1.02200448513031, 0.051635436713695526, -0.6136715924867198, -0.9538365821307764, 2.3783080765014066, 9362.0, 30146.0, 35388.0, 9362.0, 8.350414276123047, -0.0015406253514811397, 0.25997430086135864, 0.05262264236807823, -0.1200423538684845, -0.022498060017824173, 1.0190056562423706, -0.11419675499200821, -0.18295860290527344, 1.48095703125, 1.5849609375, 0.381805419921875, 1.490478515625
41097, -0.00358844012953341, 0.007890189066529274, 0.011107133701443672, 0.00022797301062382758, 5.380827496992424e-05, 0.0746273621916771, 0.00018222990911453962, 0.00018054699467029423, 0.16982969641685486, -0.817133903503418, -1.0220274925231934, 0.05172620341181755, -0.5844917397112873, -0.9667509917214545, 2.3755710242820873, 9362.0, 30146.0, 35388.0, 9362.0, 8.350414276123047, -0.11958014965057373, 0.22688515484333038, 0.07043923437595367, -0.11843574047088623, -0.02546686865389347, 1.0201276540756226, -0.11419675499200821, -0.18295860290527344, 1.48095703125, 1.5849609375, 0.381805419921875, 1.490478515625
41107, -0.0028456533327698708, 0.0062259407714009285, 0.012898583896458149, 0.00022797301062382758, 5.380827496992424e-05, 0.0746273621916771, 0.00018222990911453962, 0.00018054699467029423, 0.16982969641685486, -0.8171237111091614, -1.0220332145690918, 0.0517403744161129, -0.5862455954346776, -0.9617930033952007, 2.376804410035467, 9362.0, 30146.0, 35388.0, 9362.0, 8.350414276123047, 0.019719641655683517, 0.5744677782058716, 0.11675051599740982, -0.12087886780500412, -0.02489503100514412, 1.0208957195281982, -0.11419675499200821, -0.18295860290527344, 1.48095703125, 1.55419921875, 0.311279296875, 1.490478515625
41117, -0.003153359517455101, 0.006530226673930883, 0.013957882300019264, 0.00022797301062382758, 5.380827496992424e-05, 0.0746273621916771, 0.00018222990911453962, 0.00018054699467029423, 0.16982969641685486, -0.8171269297599792, -1.0220386981964111, 0.05173540115356445, -0.5781426464606539, -0.9654541555124467, 2.387342296921399, 9362.0, 30146.0, 35388.0, 9362.0, 8.350414276123047, 0.08913135528564453, -0.10423543304204941, 0.15465566515922546, -0.12068746238946915, -0.022619767114520073, 1.020787000656128, -0.11419675499200821, -0.18295860290527344, 1.48095703125, 1.55419921875, 0.311279296875, 1.490478515625
41127, -0.0032479711808264256, 0.006405472755432129, 0.014032388105988503, 0.00022797301062382758, 5.380827496992424e-05, 0.0746273621916771, 0.00018222990911453962, 0.00018054699467029423, 0.16982969641685486, -0.8171198964118958, -1.0220236778259277, 0.051738955080509186, -0.5774984956150648, -0.9582677848776484, 2.378871064492576, 9362.0, 30146.0, 35388.0, 9362.0, 8.350414276123047, 0.08105737715959549, -0.0060844277031719685, 0.19451729953289032, -0.12262643128633499, -0.023082105442881584, 1.0199637413024902, -0.11419675499200821, -0.18295860290527344, 1.48095703125, 1.55419921875, 0.311279296875, 1.490478515625
41137, -0.0039626252837479115, 0.0075901588425040245, 0.015325210988521576, 0.00022797301062382758, 5.380827496992424e-05, 0.0746273621916771, 0.00018222990911453962, 0.00018054699467029423, 0.16982969641685486, -0.8171182870864868, -1.0220333337783813, 0.05173637717962265, -0.5883667435651411, -0.960361041813286, 2.379888426939183, 9362.0, 30146.0, 35388.0, 9362.0, 8.350414276123047, -0.14945632219314575, -0.13619212806224823, -0.002676343312487006, -0.1216513141989708, -0.02447889745235443, 1.0202878713607788, -0.11419675499200821, -0.18295860290527344, 1.48095703125, 1.55419921875, 0.311279296875, 1.490478515625
41147, -0.0034373600501567125, 0.0060919965617358685, 0.014715526252985, 0.00023695648997090757, 7.059858035063371e-05, 0.08882858604192734, 5.841843449161388e-05, 0.00023414759198203683, 0.18546220660209656, -0.8171234130859375, -1.0220307111740112, 0.051720261573791504, -0.5859233641165927, -0.9621052310088487, 2.37708990885884, 9362.0, 30146.0, 35388.0, 9362.0, 8.350414276123047, 0.18850576877593994, 0.3045731782913208, -0.34533023834228516, -0.11952393501996994, -0.023362968116998672, 1.019145131111145, -0.11419675499200821, -0.18295860290527344, 1.48095703125, 1.6142578125, 0.4512786865234375, 1.490478515625
41157, -0.0037900861352682114, 0.006280155386775732, 0.014885353855788708, 0.00023747440718580037, 7.297463162103668e-05, 0.09069284796714783, 4.521594019024633e-05, 0.00024104458861984313, 0.1873903125524521, -0.8171631097793579, -1.0220495462417603, 0.05171210691332817, -0.571955785320332, -0.9405118000273376, 2.3698745913621484, 9362.0, 30146.0, 35388.0, 9362.0, 8.350414276123047, 0.21434874832630157, 0.21180526912212372, 0.1323503702878952, -0.12290234118700027, -0.023133879527449608, 1.0174752473831177, -0.11419675499200821, -0.18295860290527344, 1.48095703125, 1.6142578125, 0.4512786865234375, 1.490478515625
41167, -0.0042505343444645405, 0.0056388466618955135, 0.01444316003471613, 0.00023787346435710788, 7.541502418462187e-05, 0.09257561713457108, 3.458945866441354e-05, 0.0002470444596838206, 0.18916422128677368, -0.8171189427375793, -1.0220414400100708, 0.051729071885347366, -0.5947518435950558, -0.973412610652133, 2.3854446673984695, 9362.0, 30146.0, 35388.0, 9362.0, 8.350414276123047, 0.11539854854345322, 0.08580325543880463, -0.2583656907081604, -0.1235492005944252, -0.023600546643137932, 1.018484115600586, -0.11419675499200821, -0.18295860290527344, 1.48095703125, 1.6142578125, 0.4512786865234375, 1.490478515625
41177, -0.0055288393050432205, 0.007178150117397308, 0.013380222953855991, 0.0002381646045250818, 7.791849202476442e-05, 0.09447615593671799, 2.365986438235268e-05, 0.0002536629908718169, 0.19094444811344147, -0.817116379737854, -1.0220260620117188, 0.05174902454018593, -0.5839044208548313, -0.9586308079825585, 2.3786984925808383, 9362.0, 30146.0, 35388.0, 9362.0, 8.350414276123047, -0.16711485385894775, -0.3630041182041168, -0.012398858554661274, -0.11992017179727554, -0.023175789043307304, 1.020033836364746, -0.11419675499200821, -0.18295860290527344, 1.48095703125, 1.53076171875, 0.2596435546875, 1.490478515625
41197, -0.0048669916577637196, 0.009087569080293179, 0.01095547154545784, 0.00023842706286814064, 8.315159357152879e-05, 0.09833241254091263, 1.2220355074532563e-06, 0.00027073989622294903, 0.19469065964221954, -0.8171314001083374, -1.0220277309417725, 0.05172756686806679, -0.5815290343837326, -0.9639319878231447, 2.37551337393795, 9362.0, 30146.0, 35388.0, 9362.0, 8.350414276123047, -0.127116397023201, -0.3499315679073334, -0.04423896595835686, -0.12149628251791, -0.02624194324016571, 1.0203830003738403, -0.11419675499200821, -0.18295860290527344, 1.48095703125, 1.53076171875, 0.2596435546875, 1.490478515625
41207, -0.0045911590568721294, 0.008380670100450516, 0.009194458834826946, 0.00023842706286814064, 8.315159357152879e-05, 0.09833241254091263, 1.2220355074532563e-06, 0.00027073989622294903, 0.19469065964221954, -0.8171180486679077, -1.0220308303833008, 0.051733195781707764, -0.5831542569386063, -0.9563197613307466, 2.3800661116991724, 9362.0, 30146.0, 35388.0, 9362.0, 8.350414276123047, -0.01770940236747265, 0.2565005421638489, -0.18178623914718628, -0.12299612909555435, -0.025129789486527443, 1.0193917751312256, -0.11419675499200821, -0.18295860290527344, 1.48095703125, 1.3798828125, 0.0243377685546875, 1.490478515625
