timeTick, roll, pitch, yaw, stateX, stateY, stateZ, stateVX, stateVY, stateVZ, otX0, otY0, otZ0, otRoll0, otPitch0, otYaw0, left wing, pitch motor, yaw motor, right wing, voltage, roll rate, pitch rate, yaw rate, A_x, A_y, A_z, current, i_raw, v_raw, airflow_voltage, airflow_speed, pot_Pitch, voltage_nKF, kFFx, state, State, volt_KF
16378, -0.23637209832668304, 0.7373242974281311, -0.5400232672691345, 0, 0, 0, 0, 0, 0, -0.8312686681747437, -0.9794220328330994, 0.057758476585149765, -0.1305718034464543, -0.78057870260713, 9.62690969318178, 0, 0, 0, 0, 0, 0, 0, 0, 0, 0, 0, 0, 0, 0, 0, 0, 0, 0, 0, 0, 0, 0
16388, -0.2374563217163086, 0.7380015254020691, -0.5410080552101135, 0.00034297670936211944, -0.0001143227273132652, -7.658187389373779, 0.009553929790854454, -0.0031876221764832735, -1.0378824472427368, -0.8313254714012146, -0.979369580745697, 0.057658601552248, -0.1175381999134364, -0.8063488970906292, 9.556787959891311, 9362.0, 30146.0, 35388.0, 9362.0, 0, 0.0020325358491390944, -0.10329463332891464, -0.09392962604761124, -0.10535097122192383, -0.03438244014978409, 0.9953770637512207, 0, 0, 0, 0, 0, 0, 0, 0, 0, 0, 0
16398, -0.23716840147972107, 0.7378802299499512, -0.541144847869873, 0.000432249391451478, -0.00014411707525141537, -7.6685686111450195, 0.008300610817968845, -0.0027712408918887377, -1.0383834838867188, -0.8312576413154602, -0.9793829917907715, 0.05773652344942093, -0.1336543581392678, -0.765707617853991, 9.584331906206467, 9362.0, 30146.0, 35388.0, 9362.0, 0, -0.0016209755558520555, 0.05677274987101555, -0.029017163440585136, -0.10642972588539124, -0.03431989625096321, 0.9928905367851257, 0, 0, 0, 1.38720703125, 0.0291900634765625, 0, 1.39599609375, 10.0, 1.0, 10.0, 1.3812212944030762
16408, -0.23651070892810822, 0.7390686869621277, -0.5407958626747131, 0.000508997356519103, -0.00016975252947304398, -7.678955554962158, 0.0070489938370883465, -0.0023558507673442364, -1.0390006303787231, -0.8313403725624084, -0.979424238204956, 0.05770618095993996, -0.11434676215711442, -0.8237324523693133, 9.600066034296308, 9362.0, 30146.0, 35388.0, 9362.0, 0, -0.09817127138376236, -0.05612979829311371, 0.21560852229595184, -0.10403291136026382, -0.03277077525854111, 0.9916151762008667, 0, 0, 0, 1.41064453125, 0.0509490966796875, 1.49267578125, 1.40185546875, 10.0, 1.0, 10.0, 1.3812659978866577
16418, -0.2365545779466629, 0.7395729422569275, -0.5393551588058472, 0.000573231081943959, -0.00019124361278954893, -7.68934965133667, 0.00579774659126997, -0.001942397328093648, -1.0398057699203491, -0.8312713503837585, -0.9794272780418396, 0.05778000131249428, -0.13373947370290085, -0.7835903574135727, 9.627132481147463, 9362.0, 30146.0, 35388.0, 9362.0, 0, -0.27928221225738525, -0.09761246293783188, 0.02593577839434147, -0.10534346103668213, -0.03499788045883179, 0.9947510361671448, 0, 0, 0, 1.385009765625, 0.0276336669921875, 1.49267578125, 1.40478515625, 10.0, 1.0, 10.0, 1.381361961364746
16428, -0.23688460886478424, 0.7396785020828247, -0.5390276312828064, 0.000624937703832984, -0.00020859649521298707, -7.699750900268555, 0.0045435731299221516, -0.0015281916130334139, -1.0404508113861084, -0.8312693238258362, -0.9794251918792725, 0.05775515362620354, -0.13191385796258318, -0.7869801528383391, 9.626871789940871, 9362.0, 30146.0, 35388.0, 9362.0, 0, 0.020636240020394325, -0.07259025424718857, 0.13072854280471802, -0.10414616018533707, -0.03494195640087128, 0.9959540963172913, 0, 0, 0, 1.388671875, 0.03033447265625, 1.494140625, 1.399658203125, 10.0, 1.0, 10.0, 1.3813899755477905
16438, -0.23750732839107513, 0.740895688533783, -0.5393955111503601, 0.0006640880601480603, -0.00022180002997629344, -7.71015739440918, 0.003286506747826934, -0.0011125116143375635, -1.0408837795257568, -0.8313181400299072, -0.9793762564659119, 0.057650044560432434, -0.11276856522610694, -0.8000879254756796, 9.561272450714643, 9362.0, 30146.0, 35388.0, 9362.0, 0, 0.06640303879976273, -0.3569836914539337, -0.4482381343841553, -0.10532397776842117, -0.03756915405392647, 0.9941713809967041, 0, 0, 0, 1.3798828125, 0.0243377685546875, 1.494140625, 1.428955078125, 10.0, 1.0, 10.0, 1.3814295530319214
16448, -0.23731368780136108, 0.7411671876907349, -0.5406807661056519, 0.0006906630005687475, -0.0002308431576238945, -7.720568656921387, 0.00202848925255239, -0.0006960844621062279, -1.0414026975631714, -0.8313379883766174, -0.979418933391571, 0.05769770219922066, -0.11556656966457012, -0.8224032854917311, 9.599039393933012, 9362.0, 30146.0, 35388.0, 9362.0, 0, -0.009744233451783657, 0.11694817245006561, -0.1910143345594406, -0.10599406808614731, -0.038175132125616074, 0.9933063983917236, 0, 0, 0, 1.359375, 0.0160980224609375, 1.48974609375, 1.37841796875, 10.0, 1.0, 10.0, 1.3813825845718384
16458, -0.23772506415843964, 0.7414968013763428, -0.5418701171875, 0.000704662874341011, -0.0002357259509153664, -7.730985641479492, 0.0007714918465353549, -0.00028045097133144736, -1.0420364141464233, -0.8312693238258362, -0.9794189929962158, 0.05777675285935402, -0.1309214226812921, -0.7826991305502986, 9.63265175560621, 9362.0, 30146.0, 35388.0, 9362.0, 0, 0.03468749672174454, 0.07488568872213364, -0.07060526311397552, -0.10422017425298691, -0.03556958958506584, 0.9935534596443176, 0, 0, 0, 1.36669921875, 0.01806640625, 1.48974609375, 1.3974609375, 10.0, 1.0, 10.0, 1.3814407587051392
16468, -0.2370942384004593, 0.7415940165519714, -0.5436135530471802, 0.0007060916977934539, -0.00023644928296562284, -7.7414093017578125, -0.0004857161547988653, 0.00013582693645730615, -1.0426955223083496, -0.8313091993331909, -0.9794267416000366, 0.057697128504514694, -0.12970945870851083, -0.7588645267754544, 9.615991429564655, 9362.0, 30146.0, 35388.0, 9362.0, 0, 0.12791605293750763, 0.10283026844263077, 0.04361973702907562, -0.10305365175008774, -0.034235116094350815, 0.9946295022964478, 0, 0, 0, 1.40771484375, 0.0478363037109375, 1.494140625, 1.359375, 10.0, 1.0, 10.0, 1.3814077377319336
16478, -0.23729196190834045, 0.7412896156311035, -0.5425673127174377, 0.0006949434173293412, -0.00023301363398786634, -7.7518391609191895, -0.0017439520452171564, 0.0005512787611223757, -1.0432897806167603, -0.8313564658164978, -0.9794092178344727, 0.057619959115982056, -0.1069780138000469, -0.8060103020042959, 9.58752501694834, 9362.0, 30146.0, 35388.0, 9362.0, 8.390083312988281, -0.11405721306800842, 0.19868531823158264, 0.1122269257903099, -0.1040588840842247, -0.03484666720032692, 0.9948442578315735, -0.05057406425476074, 0.07688140869140625, 1.502197265625, 1.404052734375, 0.04400634765625, 1.494140625, 1.405517578125, 10.0, 1.0, 10.0, 1.3813982009887695
16488, -0.23764203488826752, 0.7405292987823486, -0.5414270758628845, 0.0006712069152854383, -0.00022541912039741874, -7.762274265289307, -0.0030033662915229797, 0.0009675950277596712, -1.0437532663345337, -0.8312759399414062, -0.9793705344200134, 0.05766351521015167, -0.13403541368160193, -0.7507586087301661, 9.58490825791957, 9362.0, 30146.0, 35388.0, 9362.0, 8.390083312988281, -0.05129684507846832, -0.38822275400161743, -0.1141071692109108, -0.10558203607797623, -0.03588834032416344, 0.9933681488037109, -0.05057406425476074, 0.07688140869140625, 1.502197265625, 1.376953125, 0.0225982666015625, 1.49267578125, 1.39892578125, 10.0, 1.0, 10.0, 1.3814960718154907
16498, -0.23783758282661438, 0.741619884967804, -0.5414617657661438, 0.0006348909228108823, -0.0002136613620677963, -7.772714614868164, -0.004259822424501181, 0.0013839545426890254, -1.0443434715270996, -0.831298291683197, -0.9794237613677979, 0.05769893154501915, -0.1304180900690374, -0.7565374125251765, 9.615176653304605, 9362.0, 30146.0, 35388.0, 9362.0, 8.390083312988281, 0.025735406205058098, 0.6273383498191833, 0.16714122891426086, -0.10669904202222824, -0.03444938361644745, 0.9952064156532288, -0.05057406425476074, 0.07688140869140625, 1.502197265625, 1.37548828125, 0.021820068359375, 1.49267578125, 1.40771484375, 10.0, 1.0, 10.0, 1.3815258741378784
16508, -0.23755508661270142, 0.738969087600708, -0.5409381985664368, 0.000586001027841121, -0.00019773824897129089, -7.783161163330078, -0.005518182180821896, 0.001800660858862102, -1.0449331998825073, -0.8312865495681763, -0.9793757796287537, 0.05767020583152771, -0.13707681907895655, -0.7449782965339864, 9.583155181031678, 9362.0, 30146.0, 35388.0, 9362.0, 8.390083312988281, -0.026836486533284187, -0.025843922048807144, -0.18826812505722046, -0.10552068054676056, -0.034187112003564835, 0.9950330257415771, -0.05057406425476074, 0.07688140869140625, 1.502197265625, 1.382080078125, 0.0256195068359375, 1.490478515625, 1.426025390625, 10.0, 1.0, 10.0, 1.3816419839859009
16518, -0.23653967678546906, 0.7377287745475769, -0.5425267815589905, 0.0005245445063337684, -0.0001776488934410736, -7.793612957000732, -0.0067731235176324844, 0.002217251341789961, -1.0454365015029907, -0.8313086032867432, -0.9794254899024963, 0.05770202353596687, -0.1321620557840521, -0.763262314352886, 9.610502979966101, 9362.0, 30146.0, 35388.0, 9362.0, 8.390083312988281, 0.119984470307827, 0.2668915390968323, -0.18503282964229584, -0.10562873631715775, -0.03540239483118057, 0.9957346320152283, -0.05057406425476074, 0.07688140869140625, 1.502197265625, 1.37841796875, 0.023406982421875, 1.490478515625, 1.38720703125, 10.0, 1.0, 10.0, 1.381669044494629
16528, -0.23589694499969482, 0.7389869689941406, -0.5436651110649109, 0.00045054726069793105, -0.0001534015900688246, -7.804069519042969, -0.008026301860809326, 0.0026322368066757917, -1.0459110736846924, -0.8313620686531067, -0.9794132709503174, 0.057624511420726776, -0.11087623057835769, -0.8003110451356008, 9.583133283320958, 9362.0, 30146.0, 35388.0, 9362.0, 8.390083312988281, 0.06241067126393318, 0.06836175173521042, -0.10251499712467194, -0.10556232184171677, -0.03384093567728996, 0.9933879375457764, -0.05057406425476074, 0.07688140869140625, 1.502197265625, 1.368896484375, 0.01885986328125, 1.49267578125, 1.41064453125, 10.0, 1.0, 10.0, 1.3817030191421509
16538, -0.2338733822107315, 0.7374098300933838, -0.5439403057098389, 0.0003640133363660425, -0.00012501161836553365, -7.814531326293945, -0.009280494414269924, 0.003045782446861267, -1.0464762449264526, -0.8313435912132263, -0.9793716073036194, 0.05760658532381058, -0.10786442687561003, -0.7818599746877908, 9.551251951775225, 9362.0, 30146.0, 35388.0, 9362.0, 8.390083312988281, 0.0306092556566, 0.02487489953637123, 0.16716526448726654, -0.10711023956537247, -0.036284156143665314, 0.9965280294418335, -0.05057406425476074, 0.07688140869140625, 1.502197265625, 1.405517578125, 0.0454254150390625, 1.49267578125, 1.36962890625, 10.0, 1.0, 10.0, 1.3818092346191406
16548, -0.23416589200496674, 0.7388732433319092, -0.5451720952987671, 0.0002649471862241626, -9.250234143109992e-05, -7.82499885559082, -0.010532716289162636, 0.003456098260357976, -1.0469857454299927, -0.8313037157058716, -0.979375422000885, 0.05765948444604874, -0.13281095903173773, -0.7449602682918908, 9.580462584683783, 9362.0, 30146.0, 35388.0, 9362.0, 8.390083312988281, -0.15883919596672058, -0.04683654382824898, 0.23219861090183258, -0.10582046955823898, -0.03610101714730263, 0.9943210482597351, -0.05057406425476074, 0.07688140869140625, 1.502197265625, 1.370361328125, 0.0194549560546875, 1.489013671875, 1.383544921875, 10.0, 1.0, 10.0, 1.381826400756836
16558, -0.23389428853988647, 0.7401853203773499, -0.5422936677932739, 0.0001533429604023695, -5.588601197814569e-05, -7.835471153259277, -0.011788140051066875, 0.0038671051152050495, -1.0474408864974976, -0.8313090801239014, -0.9794266223907471, 0.05770142376422882, -0.12565091150676166, -0.7623698433611708, 9.616021160534372, 9362.0, 30146.0, 35388.0, 9362.0, 8.390083312988281, 0.13383343815803528, 0.030592607334256172, -0.07304798066616058, -0.10519597679376602, -0.034309081733226776, 0.9956757426261902, -0.05057406425476074, 0.07688140869140625, 1.502197265625, 1.4150390625, 0.05596923828125, 1.489013671875, 1.3623046875, 10.0, 1.0, 10.0, 1.3818435668945312
16568, -0.2337525188922882, 0.7414858937263489, -0.5441093444824219, 2.9175353120081127e-05, -1.516287011327222e-05, -7.845948219299316, -0.01304535660892725, 0.004277566447854042, -1.0479304790496826, -0.8313021063804626, -0.9793880581855774, 0.05766172707080841, -0.13291306336565314, -0.7455941905895145, 9.575007528967653, 9362.0, 30146.0, 35388.0, 9362.0, 8.390083312988281, -0.029866544529795647, -0.04653867334127426, 0.1467253565788269, -0.1056148037314415, -0.035274796187877655, 0.9970110058784485, -0.05057406425476074, 0.07688140869140625, 1.502197265625, 1.3974609375, 0.03759765625, 1.489013671875, 1.42529296875, 10.0, 1.0, 10.0, 1.3819352388381958
16578, -0.2333163172006607, 0.740856945514679, -0.5423601865768433, 2.9175353120081127e-05, -1.516287011327222e-05, -7.845948219299316, -0.01304535660892725, 0.004277566447854042, -1.0479304790496826, -0.8313391804695129, -0.9794069528579712, 0.057655494660139084, -0.15119316897860882, -0.7458317779324659, 9.617230206053476, 9362.0, 30146.0, 35388.0, 9362.0, 8.390083312988281, 0.009385084733366966, -0.11992177367210388, -0.0012445165775716305, -0.105390764772892, -0.037723030894994736, 0.9957534074783325, -0.06198854371905327, -0.06647872924804688, 1.490478515625, 1.40478515625, 0.0446624755859375, 1.489013671875, 1.376220703125, 10.0, 1.0, 10.0, 1.3819869756698608
16588, -0.23282887041568756, 0.7423847913742065, -0.5424090027809143, -0.0002569530624896288, 7.860113692004234e-05, -7.866913795471191, -0.015566767193377018, 0.005098383408039808, -1.0486327409744263, -0.8314051628112793, -0.9793696999549866, 0.05753627419471741, -0.12166287950935926, -0.7609208133058019, 9.560270181826674, 9362.0, 30146.0, 35388.0, 9362.0, 8.390083312988281, -0.0035190251655876637, 0.08444897830486298, 0.33210575580596924, -0.10410796850919724, -0.0333000048995018, 0.9952530264854431, -0.06198854371905327, -0.06647872924804688, 1.490478515625, 1.39013671875, 0.0314483642578125, 1.493408203125, 1.39013671875, 10.0, 1.0, 10.0, 1.3820083141326904
16598, -0.2330307811498642, 0.741791844367981, -0.5400592684745789, -0.0004189286846667528, 0.00013162914547137916, -7.877402305603027, -0.016828378662467003, 0.005507165566086769, -1.0490765571594238, -0.8313322067260742, -0.9793443083763123, 0.057543788105249405, -0.11451600277462048, -0.68913625152598, 9.557078469121222, 9362.0, 30146.0, 35388.0, 9362.0, 8.390083312988281, 0.08004038780927658, -0.27729320526123047, 0.1777959167957306, -0.10486806184053421, -0.03300214558839798, 0.9952228665351868, -0.06198854371905327, -0.06647872924804688, 1.490478515625, 1.363037109375, 0.0169219970703125, 1.493408203125, 1.39892578125, 10.0, 1.0, 10.0, 1.3820551633834839
16608, -0.23237043619155884, 0.7429274916648865, -0.539294421672821, -0.0005935138906352222, 0.0001887458929559216, -7.887895584106445, -0.01808866113424301, 0.00591617077589035, -1.049544095993042, -0.8314099907875061, -0.979385256767273, 0.057508792728185654, -0.09561929760165883, -0.7420451958474246, 9.56780823176163, 9362.0, 30146.0, 35388.0, 9362.0, 8.390083312988281, 0.0629262775182724, -0.15167658030986786, -0.1819884330034256, -0.10431623458862305, -0.033149491995573044, 0.9937189221382141, -0.06198854371905327, -0.06647872924804688, 1.490478515625, 1.365966796875, 0.017791748046875, 1.496337890625, 1.37841796875, 10.0, 1.0, 10.0, 1.3820645809173584
16618, -0.231826052069664, 0.7448932528495789, -0.5411308407783508, -0.0007807064685039222, 0.00024994538398459554, -7.898393630981445, -0.019349828362464905, 0.006323771085590124, -1.0500924587249756, -0.8313584327697754, -0.9793963432312012, 0.05758758634328842, -0.10963203405124, -0.71020020377523, 9.593848881709194, 9362.0, 30146.0, 35388.0, 9362.0, 8.390083312988281, -0.09047307819128036, 0.43561676144599915, -0.23375484347343445, -0.10459117591381073, -0.03416147083044052, 0.9936803579330444, -0.06198854371905327, -0.06647872924804688, 1.490478515625, 1.402587890625, 0.0425262451171875, 1.496337890625, 1.36376953125, 10.0, 1.0, 10.0, 1.382032036781311
16628, -0.2321854680776596, 0.7426087260246277, -0.5422061085700989, -0.0009805199224501848, 0.0003152141871396452, -7.908897876739502, -0.020612889900803566, 0.006730011198669672, -1.0507563352584839, -0.8313532471656799, -0.9793996810913086, 0.05756082385778427, -0.11614271125352853, -0.7079847474404914, 9.590036927324746, 9362.0, 30146.0, 35388.0, 9362.0, 8.390083312988281, -0.0916716530919075, 0.11873320490121841, 0.38088560104370117, -0.10632527619600296, -0.036032989621162415, 0.9943487644195557, -0.06198854371905327, -0.06647872924804688, 1.490478515625, 1.415771484375, 0.0568695068359375, 1.4912109375, 1.412109375, 10.0, 1.0, 10.0, 1.3819669485092163
16638, -0.23299793899059296, 0.7420305609703064, -0.5396506786346436, -0.0011929513420909643, 0.0003845505998469889, -7.919408321380615, -0.02187342755496502, 0.007137210574001074, -1.0513136386871338, -0.8313595056533813, -0.9794113636016846, 0.057585492730140686, -0.11462890549477098, -0.7084407720255967, 9.599197262861145, 9362.0, 30146.0, 35388.0, 9362.0, 8.390083312988281, 0.14017285406589508, -0.1437877118587494, 0.1633232682943344, -0.10557502508163452, -0.03340955078601837, 0.9945999979972839, -0.06198854371905327, -0.06647872924804688, 1.490478515625, 1.382080078125, 0.0256195068359375, 1.4912109375, 1.398193359375, 10.0, 1.0, 10.0, 1.3820022344589233
16648, -0.23341132700443268, 0.7432421445846558, -0.5391762852668762, -0.0014179811114445329, 0.00045796489575877786, -7.929924488067627, -0.02313251793384552, 0.00754563370719552, -1.0519051551818848, -0.8313757181167603, -0.9793126583099365, 0.05736669898033142, -0.12908262639684914, -0.677154152343121, 9.479617221080789, 9362.0, 30146.0, 35388.0, 9362.0, 8.390083312988281, 0.19904516637325287, -0.3468077480792999, 0.048591211438179016, -0.1060897707939148, -0.03511183708906174, 0.9953376054763794, -0.06198854371905327, -0.06647872924804688, 1.490478515625, 1.393798828125, 0.0344085693359375, 1.494140625, 1.40185546875, 10.0, 1.0, 10.0, 1.3819814920425415
16658, -0.2322137951850891, 0.746035635471344, -0.5383285284042358, -0.0016556166810914874, 0.0005354684544727206, -7.940446376800537, -0.024394577369093895, 0.00795507151633501, -1.052425503730774, -0.8313096165657043, -0.9793168306350708, 0.05744881555438042, -0.15006425648001792, -0.6385630283500632, 9.510145096403049, 9362.0, 30146.0, 35388.0, 9362.0, 8.390083312988281, -0.0609063096344471, 0.005020070821046829, 0.23570042848587036, -0.10467510670423508, -0.03454438969492912, 0.9940779209136963, -0.06198854371905327, -0.06647872924804688, 1.490478515625, 1.42529296875, 0.0688018798828125, 1.494140625, 1.40771484375, 10.0, 1.0, 10.0, 1.3821543455123901
16668, -0.23250415921211243, 0.7451080679893494, -0.5375018119812012, -0.001905897632241249, 0.0006170566193759441, -7.950973033905029, -0.02566162869334221, 0.00836254470050335, -1.0529322624206543, -0.8313429951667786, -0.9793311357498169, 0.05749611556529999, -0.12778090626209243, -0.6831124729006319, 9.543078056188905, 9362.0, 30146.0, 35388.0, 9362.0, 8.390083312988281, 0.14089477062225342, 0.16693457961082458, 0.29086798429489136, -0.10473568737506866, -0.03278011456131935, 0.9943156242370605, -0.06198854371905327, -0.06647872924804688, 1.490478515625, 1.42529296875, 0.0688018798828125, 1.494140625, 1.376220703125, 10.0, 1.0, 10.0, 1.3822823762893677
16688, -0.2328418791294098, 0.7456262111663818, -0.5366020202636719, -0.0021688337437808514, 0.0007027194369584322, -7.96150541305542, -0.026925615966320038, 0.008769995532929897, -1.0535534620285034, -0.8313136696815491, -0.9793121814727783, 0.057444337755441666, -0.15466589702012618, -0.6455350199922236, 9.515539576049646, 9362.0, 30146.0, 35388.0, 9362.0, 8.390083312988281, 0.029829159379005432, 0.04252612218260765, -0.15319998562335968, -0.10507455468177795, -0.03531396761536598, 0.9927630424499512, -0.038287464529275894, -0.03959846496582031, 1.49267578125, 1.359375, 0.0160980224609375, 1.494140625, 1.376220703125, 10.0, 1.0, 10.0, 1.3822823762893677
16698, -0.2314525842666626, 0.7458422780036926, -0.5372157692909241, -0.0027326573617756367, 0.0008862717659212649, -7.982586860656738, -0.029456572607159615, 0.009585644118487835, -1.0546398162841797, -0.8313461542129517, -0.9793362021446228, 0.057517677545547485, -0.12571824211694974, -0.678318967630247, 9.540804919272883, 9362.0, 30146.0, 35388.0, 9362.0, 8.390083312988281, -0.08420781046152115, 0.22854672372341156, 0.3233688473701477, -0.10507455468177795, -0.03531396761536598, 0.9927630424499512, -0.038287464529275894, -0.03959846496582031, 1.49267578125, 1.359375, 0.0160980224609375, 1.494140625, 1.376220703125, 10.0, 1.0, 10.0, 1.382519006729126
16708, -0.23317162692546844, 0.7451103925704956, -0.5364522933959961, -0.0027326573617756367, 0.0008862717659212649, -7.982586860656738, -0.029456572607159615, 0.009585644118487835, -1.0546398162841797, -0.8313596844673157, -0.9793322682380676, 0.057489845901727676, -0.13345036452597783, -0.6819860598126297, 9.536778305988179, 9362.0, 30146.0, 35388.0, 9362.0, 8.390083312988281, -0.08420781046152115, 0.22854672372341156, 0.3233688473701477, -0.10582990199327469, -0.0386536531150341, 0.9935595989227295, -0.038287464529275894, -0.03959846496582031, 1.49267578125, 1.37841796875, 0.023406982421875, 1.494140625, 1.376220703125, 10.0, 1.0, 10.0, 1.382519006729126
16738, -0.23324500024318695, 0.7511694431304932, -0.5365210175514221, -0.004012119024991989, 0.0013022555503994226, -8.024828910827637, -0.03452496975660324, 0.011216741986572742, -1.057449460029602, -0.83134925365448, -0.9793285727500916, 0.05751017481088638, -0.12832173421332535, -0.6775293991135527, 9.54340628381746, 9362.0, 30146.0, 35388.0, 9362.0, 8.390083312988281, 0.07410429418087006, 0.16670429706573486, 0.16531525552272797, -0.10467201471328735, -0.03569947928190231, 0.9937090873718262, -0.038287464529275894, -0.03959846496582031, 1.49267578125, 1.399658203125, 0.0396575927734375, 1.49267578125, 1.376220703125, 10.0, 1.0, 10.0, 1.382519006729126
16758, -0.23151938617229462, 0.7484911680221558, -0.5370302200317383, -0.004012119024991989, 0.0013022555503994226, -8.024828910827637, -0.03452496975660324, 0.011216741986572742, -1.057449460029602, -0.8314104080200195, -0.979320764541626, 0.05741994082927704, -0.10801603282159518, -0.7195002807054891, 9.51946084541098, 9362.0, 30146.0, 35388.0, 9362.0, 8.390083312988281, 0.0680888369679451, -0.19516406953334808, 0.05894561484456062, -0.1027611792087555, -0.03357363119721413, 0.9957334399223328, -0.038287464529275894, -0.03959846496582031, 1.49267578125, 1.41650390625, 0.0577545166015625, 1.49267578125, 1.376220703125, 10.0, 1.0, 10.0, 1.382519006729126
16818, -0.23605434596538544, 0.7524799108505249, -0.5330222845077515, -0.007181994151324034, 0.0023303120397031307, -8.109591484069824, -0.044728513807058334, 0.014491364359855652, -1.06179678440094, -0.8313144445419312, -0.979325532913208, 0.05742839723825455, -0.15684778070294506, -0.6423279842651937, 9.512924627307155, 9362.0, 30146.0, 35388.0, 9362.0, 8.390083312988281, -0.08400708436965942, -0.0881161168217659, -0.09987243264913559, -0.10648362338542938, -0.035536836832761765, 0.9937638640403748, -0.04723476618528366, -0.0037593841552734375, 1.49560546875, 1.382080078125, 0.0256195068359375, 1.493408203125, 1.376220703125, 10.0, 1.0, 10.0, 1.383063554763794
16838, -0.2362414300441742, 0.7562735676765442, -0.5329617261886597, -0.00810210220515728, 0.0026284155901521444, -8.130840301513672, -0.04728333652019501, 0.015319624915719032, -1.0630666017532349, -0.8313173651695251, -0.9793298840522766, 0.057431600987911224, -0.15462462511467973, -0.6421132810915537, 9.51400860800697, 9362.0, 30146.0, 35388.0, 9362.0, 8.390083312988281, 0.07014012336730957, -0.32908129692077637, 0.1007976159453392, -0.10300102084875107, -0.0355205200612545, 0.9917733073234558, -0.04723476618528366, -0.0037593841552734375, 1.49560546875, 1.414306640625, 0.05517578125, 1.493408203125, 1.376220703125, 10.0, 1.0, 10.0, 1.3835664987564087
16858, -0.23631198704242706, 0.7585394382476807, -0.5343303084373474, -0.009073399938642979, 0.0029430692084133625, -8.152116775512695, -0.04984716698527336, 0.01614515483379364, -1.0645866394042969, -0.8313290476799011, -0.9793155193328857, 0.05743318051099777, -0.1510947061894997, -0.6428050249894, 9.514395022739281, 9362.0, 30146.0, 35388.0, 9362.0, 8.390083312988281, -0.013069197535514832, 0.13650250434875488, -0.032180000096559525, -0.10582907497882843, -0.035680972039699554, 0.992402195930481, -0.04723476618528366, -0.0037593841552734375, 1.49560546875, 1.370361328125, 0.0194549560546875, 1.493408203125, 1.376220703125, 10.0, 1.0, 10.0, 1.3834290504455566
16898, -0.23480632901191711, 0.7552324533462524, -0.5346994996070862, -0.011170018464326859, 0.0036219581961631775, -8.194759368896484, -0.054985854774713516, 0.017800692468881607, -1.067183017730713, -0.8314098119735718, -0.9793198108673096, 0.05742925778031349, -0.10626526065121077, -0.7204220925488869, 9.510803319023994, 9362.0, 30146.0, 35388.0, 9362.0, 8.390083312988281, 0.2355693280696869, -0.09352400153875351, -0.3249143064022064, -0.10629934072494507, -0.03486102446913719, 0.9932768940925598, -0.04723476618528366, -0.0037593841552734375, 1.49560546875, 1.405517578125, 0.0454254150390625, 1.493408203125, 1.376220703125, 10.0, 1.0, 10.0, 1.3835535049438477
16918, -0.23482418060302734, 0.7531761527061462, -0.5338963270187378, -0.01229536160826683, 0.003986199386417866, -8.216114044189453, -0.05754667520523071, 0.018622465431690216, -1.068377137184143, -0.8313487768173218, -0.9793237447738647, 0.05750909075140953, -0.13223035979753017, -0.6725935153093019, 9.543051877195468, 9362.0, 30146.0, 35388.0, 9362.0, 8.390083312988281, -0.08101990818977356, 0.05217285081744194, 0.3111104667186737, -0.10432600975036621, -0.036857619881629944, 0.9957304000854492, -0.04723476618528366, -0.0037593841552734375, 1.49560546875, 1.43115234375, 0.0766143798828125, 1.494140625, 1.376220703125, 10.0, 1.0, 10.0, 1.3835625648498535
16928, -0.23484158515930176, 0.7522385120391846, -0.5347387790679932, -0.01229536160826683, 0.003986199386417866, -8.216114044189453, -0.05754667520523071, 0.018622465431690216, -1.068377137184143, -0.8313140273094177, -0.9793149828910828, 0.05743744969367981, -0.15359826113613353, -0.6445957488724048, 9.508652139318883, 9362.0, 30146.0, 35388.0, 9362.0, 8.390083312988281, 0.1326838731765747, 0.17297954857349396, -0.12600742280483246, -0.10605157166719437, -0.035342272371053696, 0.9949792623519897, -0.04723476618528366, -0.0037593841552734375, 1.49560546875, 1.38720703125, 0.0291900634765625, 1.494140625, 1.376220703125, 10.0, 1.0, 10.0, 1.3835625648498535
16938, -0.23444348573684692, 0.751466691493988, -0.5357933640480042, -0.013471884652972221, 0.0043668923899531364, -8.2374906539917, -0.06010446697473526, 0.019446779042482376, -1.069313645362854, -0.8314017653465271, -0.9793049097061157, 0.057437486946582794, -0.11136118778113663, -0.7175147947886842, 9.511625234864782, 9362.0, 30146.0, 35388.0, 9362.0, 8.390083312988281, -0.2021251916885376, -0.11574079841375351, 0.2256028950214386, -0.10605157166719437, -0.035342272371053696, 0.9949792623519897, -0.04723476618528366, -0.0037593841552734375, 1.49560546875, 1.38720703125, 0.0291900634765625, 1.494140625, 1.376220703125, 10.0, 1.0, 10.0, 1.3836206197738647
16988, -0.23529325425624847, 0.7535301446914673, -0.5398939847946167, -0.01597815379500389, 0.005177681799978018, -8.280306816101074, -0.0652046874165535, 0.021092550829052925, -1.071549654006958, -0.8313540816307068, -0.9793148636817932, 0.05750129371881485, -0.12661623693110372, -0.6798743331949879, 9.536601431829064, 9362.0, 30146.0, 35388.0, 9362.0, 8.390083312988281, 0.10799010097980499, 0.042052920907735825, -0.19402459263801575, -0.10483056306838989, -0.03583621606230736, 0.9953711032867432, -0.04723476618528366, -0.0037593841552734375, 1.49560546875, 1.40185546875, 0.0417938232421875, 1.4912109375, 1.376220703125, 10.0, 1.0, 10.0, 1.3839036226272583
16998, -0.2348291277885437, 0.7537166476249695, -0.5414829254150391, -0.017307791858911514, 0.005607773549854755, -8.301748275756836, -0.06776029616594315, 0.021917102858424187, -1.0726187229156494, -0.8313078284263611, -0.9793135523796082, 0.0574568510055542, -0.1561318371775735, -0.6429732017697916, 9.511365593035778, 9362.0, 30146.0, 35388.0, 9362.0, 8.390083312988281, 0.10799010097980499, 0.042052920907735825, -0.19402459263801575, -0.10649380087852478, -0.03208329528570175, 0.99460768699646, -0.04723476618528366, -0.0037593841552734375, 1.49560546875, 1.41357421875, 0.0542449951171875, 1.4912109375, 1.376220703125, 10.0, 1.0, 10.0, 1.3839094638824463
17028, -0.23458720743656158, 0.7533453106880188, -0.5381443500518799, -0.017307791858911514, 0.005607773549854755, -8.301748275756836, -0.06776029616594315, 0.021917102858424187, -1.0726187229156494, -0.8313513398170471, -0.9793283939361572, 0.05750248581171036, -0.127119631488638, -0.6798174532176802, 9.537465972441723, 9362.0, 30146.0, 35388.0, 9362.0, 8.390083312988281, 0.1514671891927719, 0.03748513013124466, 0.17149078845977783, -0.10656718909740448, -0.034311823546886444, 0.9949876070022583, -0.04723476618528366, -0.0037593841552734375, 1.49560546875, 1.3857421875, 0.0280914306640625, 1.4970703125, 1.376220703125, 10.0, 1.0, 10.0, 1.3839781284332275
17058, -0.23475056886672974, 0.7518765330314636, -0.5362513661384583, -0.0216035358607769, 0.006996839307248592, -8.366205215454102, -0.07542486488819122, 0.024384217336773872, -1.0761454105377197, -0.8313508629798889, -0.9793078303337097, 0.05752914026379585, -0.1295971817345184, -0.6796645490581739, 9.542041566848784, 9362.0, 30146.0, 35388.0, 9362.0, 8.390083312988281, -0.11487502604722977, 0.10446063429117203, -0.013751312159001827, -0.1045241504907608, -0.038176581263542175, 0.9944109916687012, -0.04723476618528366, -0.0037593841552734375, 1.49560546875, 1.43701171875, 0.085052490234375, 1.4970703125, 1.376220703125, 10.0, 1.0, 10.0, 1.3839781284332275
17068, -0.23550650477409363, 0.750055193901062, -0.5368750095367432, -0.0216035358607769, 0.006996839307248592, -8.366205215454102, -0.07542486488819122, 0.024384217336773872, -1.0761454105377197, -0.8313470482826233, -0.9793193340301514, 0.057515598833560944, -0.12745620113516393, -0.6783261238049931, 9.542673450626834, 9362.0, 30146.0, 35388.0, 9362.0, 8.390083312988281, 0.048233795911073685, 0.15300698578357697, -0.0637577548623085, -0.1045241504907608, -0.038176581263542175, 0.9944109916687012, -0.04723476618528366, -0.0037593841552734375, 1.49560546875, 1.43701171875, 0.085052490234375, 1.48974609375, 1.376220703125, 10.0, 1.0, 10.0, 1.3844445943832397
17088, -0.23558956384658813, 0.7460100054740906, -0.5340313911437988, -0.0216035358607769, 0.006996839307248592, -8.366205215454102, -0.07542486488819122, 0.024384217336773872, -1.0761454105377197, -0.8313633799552917, -0.9793182015419006, 0.05750405415892601, -0.13022442769307463, -0.6743284131492828, 9.541615501486158, 9362.0, 30146.0, 35388.0, 9362.0, 8.390083312988281, -0.3197460174560547, 0.031803231686353683, 0.19419920444488525, -0.10263661295175552, -0.03326283395290375, 0.9937264919281006, -0.04723476618528366, -0.0037593841552734375, 1.49560546875, 1.404052734375, 0.04400634765625, 1.48974609375, 1.376220703125, 10.0, 1.0, 10.0, 1.3845804929733276
17108, -0.23484675586223602, 0.7448009252548218, -0.5330847501754761, -0.024722326546907425, 0.00800514966249466, -8.409306526184082, -0.08050668984651566, 0.026031991466879845, -1.0788862705230713, -0.8313793540000916, -0.9793140888214111, 0.057374075055122375, -0.12997856406876945, -0.6740818420680625, 9.489781183524743, 9362.0, 30146.0, 35388.0, 9362.0, 8.390083312988281, 0.18557627499103546, 0.17338821291923523, -0.04631926119327545, -0.10355423390865326, -0.03544212877750397, 0.9955324530601501, -0.04723476618528366, -0.0037593841552734375, 1.49560546875, 1.44140625, 0.0914459228515625, 1.490478515625, 1.376220703125, 10.0, 1.0, 10.0, 1.3845804929733276
17128, -0.2347749024629593, 0.746371865272522, -0.5369579792022705, -0.026357736438512802, 0.008534050546586514, -8.430895805358887, -0.08303471654653549, 0.02685721218585968, -1.0800416469573975, -0.8313498497009277, -0.9793111681938171, 0.05753934383392334, -0.13125868667726906, -0.6784003053758738, 9.541728071509965, 9362.0, 30146.0, 35388.0, 9362.0, 8.390083312988281, 0.08551637828350067, -0.08564454317092896, -0.3772151470184326, -0.10701417177915573, -0.035790976136922836, 0.9916137456893921, -0.04723476618528366, -0.0037593841552734375, 1.49560546875, 1.39306640625, 0.0337982177734375, 1.49267578125, 1.376220703125, 10.0, 1.0, 10.0, 1.3849951028823853
17168, -0.2339109480381012, 0.7491248846054077, -0.5325889587402344, -0.026357736438512802, 0.008534050546586514, -8.430895805358887, -0.08303471654653549, 0.02685721218585968, -1.0800416469573975, -0.831312894821167, -0.9792879819869995, 0.05737964063882828, -0.12833997476273648, -0.6791486273721716, 9.484027234351451, 9362.0, 30146.0, 35388.0, 9362.0, 8.390083312988281, 0.09483830630779266, 0.18130627274513245, -0.15030331909656525, -0.10566463321447372, -0.036383144557476044, 0.9945425391197205, -0.04723476618528366, -0.0037593841552734375, 1.49560546875, 1.43994140625, 0.089324951171875, 1.491943359375, 1.376220703125, 10.0, 1.0, 10.0, 1.3850555419921875
17178, -0.233371302485466, 0.7480689883232117, -0.532575249671936, -0.026357736438512802, 0.008534050546586514, -8.430895805358887, -0.08303471654653549, 0.02685721218585968, -1.0800416469573975, -0.831322193145752, -0.979299008846283, 0.05745168402791023, -0.1503504429077857, -0.6435531565682027, 9.514814979859747, 9362.0, 30146.0, 35388.0, 9362.0, 8.390083312988281, 0.09483830630779266, 0.18130627274513245, -0.15030331909656525, -0.10643691569566727, -0.03423634171485901, 0.9900722503662109, -0.04723476618528366, -0.0037593841552734375, 1.49560546875, 1.382080078125, 0.0256195068359375, 1.491943359375, 1.376220703125, 10.0, 1.0, 10.0, 1.3850555419921875
17188, -0.2325756996870041, 0.7473713755607605, -0.5356810688972473, -0.026357736438512802, 0.008534050546586514, -8.430895805358887, -0.08303471654653549, 0.02685721218585968, -1.0800416469573975, -0.8313189148902893, -0.9793164134025574, 0.057466693222522736, -0.1572169844420257, -0.6416451302249584, 9.517421876223706, 9362.0, 30146.0, 35388.0, 9362.0, 8.390083312988281, 0.13521119952201843, -0.3578035235404968, -0.12817446887493134, -0.10765181481838226, -0.03185869753360748, 0.9913443326950073, -0.04723476618528366, -0.0037593841552734375, 1.49560546875, 1.3828125, 0.0261077880859375, 1.491943359375, 1.376220703125, 10.0, 1.0, 10.0, 1.3850555419921875
17208, -0.231051966547966, 0.7458168864250183, -0.5391421914100647, -0.03340582922101021, 0.010813990607857704, -8.517512321472168, -0.09317057579755783, 0.030134638771414757, -1.0856926441192627, -0.8313103914260864, -0.9793076515197754, 0.057442788034677505, -0.15523707601001818, -0.6410006728929147, 9.511758647048785, 9362.0, 30146.0, 35388.0, 9362.0, 8.390083312988281, 0.12644751369953156, 0.5553132891654968, -0.048617489635944366, -0.10381046682596207, -0.03471625596284866, 0.995020866394043, -0.04723476618528366, -0.0037593841552734375, 1.49560546875, 1.41064453125, 0.0509490966796875, 1.49267578125, 1.376220703125, 10.0, 1.0, 10.0, 1.3853741884231567
17228, -0.23002395033836365, 0.7441003918647766, -0.5425841212272644, -0.03340582922101021, 0.010813990607857704, -8.517512321472168, -0.09317057579755783, 0.030134638771414757, -1.0856926441192627, -0.8313092589378357, -0.9793164730072021, 0.057441942393779755, -0.15476831533137614, -0.6439120661771653, 9.514168111650935, 9362.0, 30146.0, 35388.0, 9362.0, 8.390083312988281, 0.013359145261347294, 0.027869751676917076, 0.14524534344673157, -0.10492456704378128, -0.03892988711595535, 0.9949799180030823, -0.04723476618528366, -0.0037593841552734375, 1.49560546875, 1.39453125, 0.035003662109375, 1.49267578125, 1.376220703125, 10.0, 1.0, 10.0, 1.385334849357605
17258, -0.23144841194152832, 0.7424635887145996, -0.5398421883583069, -0.03340582922101021, 0.010813990607857704, -8.517512321472168, -0.09317057579755783, 0.030134638771414757, -1.0856926441192627, -0.8313162922859192, -0.9792893528938293, 0.05744824931025505, -0.15409435473337507, -0.6445449771353537, 9.514157517983103, 9362.0, 30146.0, 35388.0, 9362.0, 8.390083312988281, -0.03808156028389931, 0.2990162968635559, 0.14731623232364655, -0.10599279403686523, -0.033111266791820526, 0.9926648736000061, -0.04723476618528366, -0.0037593841552734375, 1.49560546875, 1.385009765625, 0.0276336669921875, 1.49267578125, 1.376220703125, 10.0, 1.0, 10.0, 1.385334849357605
17268, -0.2310377061367035, 0.7414702773094177, -0.5375023484230042, -0.03340582922101021, 0.010813990607857704, -8.517512321472168, -0.09317057579755783, 0.030134638771414757, -1.0856926441192627, -0.8314012289047241, -0.9793136119842529, 0.057441484183073044, -0.10987216076684726, -0.7177332683530153, 9.522706273457212, 9362.0, 30146.0, 35388.0, 9362.0, 8.390083312988281, 0.08172133564949036, 0.17661184072494507, -0.10492699593305588, -0.10588381439447403, -0.03646986559033394, 0.9923040866851807, -0.04723476618528366, -0.0037593841552734375, 1.49560546875, 1.37255859375, 0.02044677734375, 1.49267578125, 1.376220703125, 10.0, 1.0, 10.0, 1.385334849357605
17288, -0.23014308512210846, 0.7410454154014587, -0.5384759902954102, -0.04126433655619621, 0.013354366645216942, -8.604549407958984, -0.1032763347029686, 0.03337182477116585, -1.0903778076171875, -0.8313736319541931, -0.9792953729629517, 0.057370301336050034, -0.13522642776917299, -0.6871025198263965, 9.499207056819204, 9362.0, 30146.0, 35388.0, 9362.0, 8.390083312988281, 0.11004333198070526, 0.08019202202558517, 0.004286513198167086, -0.10803017765283585, -0.034210897982120514, 0.9949544072151184, -0.04822934791445732, 0.15752029418945312, 1.5087890625, 1.37255859375, 0.02044677734375, 1.49267578125, 1.376220703125, 10.0, 1.0, 10.0, 1.3857738971710205
17308, -0.2308572381734848, 0.742675244808197, -0.5373349785804749, -0.04126433655619621, 0.013354366645216942, -8.604549407958984, -0.1032763347029686, 0.03337182477116585, -1.0903778076171875, -0.8313080072402954, -0.97930508852005, 0.05744292214512825, -0.1560574753493473, -0.6459037291224945, 9.515245587189787, 9362.0, 30146.0, 35388.0, 9362.0, 8.390083312988281, 0.23253142833709717, 0.19644367694854736, 0.2854679822921753, -0.10808435827493668, -0.033369049429893494, 0.9953362345695496, -0.04822934791445732, 0.15752029418945312, 1.5087890625, 1.4091796875, 0.04937744140625, 1.49267578125, 1.376220703125, 10.0, 1.0, 10.0, 1.3861536979675293
17338, -0.2287840098142624, 0.7437183856964111, -0.5356227159500122, -0.047687556594610214, 0.015429424121975899, -8.670065879821777, -0.1108359768986702, 0.03579616919159889, -1.0932846069335938, -0.8313401937484741, -0.9792962074279785, 0.057489506900310516, -0.1377109835171384, -0.6853604124891035, 9.550856795290466, 9362.0, 30146.0, 35388.0, 9362.0, 8.390083312988281, 0.0790523961186409, -0.18166115880012512, -0.046068087220191956, -0.10759604722261429, -0.036340851336717606, 0.9927678108215332, -0.04822934791445732, 0.15752029418945312, 1.5087890625, 1.409912109375, 0.0501251220703125, 1.49267578125, 1.376220703125, 10.0, 1.0, 10.0, 1.3862348794937134
17348, -0.2296004742383957, 0.7442018985748291, -0.5351769924163818, -0.047687556594610214, 0.015429424121975899, -8.670065879821777, -0.1108359768986702, 0.03579616919159889, -1.0932846069335938, -0.8313416838645935, -0.9793088436126709, 0.05750526115298271, -0.13963995189916706, -0.6866637379931717, 9.551862569009238, 9362.0, 30146.0, 35388.0, 9362.0, 8.390083312988281, 0.055052898824214935, -0.25229525566101074, 0.03644493594765663, -0.10597976297140121, -0.03721032291650772, 0.9950687289237976, -0.04822934791445732, 0.15752029418945312, 1.5087890625, 1.392333984375, 0.03314208984375, 1.49267578125, 1.376220703125, 10.0, 1.0, 10.0, 1.3862348794937134
17358, -0.229051873087883, 0.7455779314041138, -0.5343165397644043, -0.04992951825261116, 0.016153376549482346, -8.691943168640137, -0.11336060613393784, 0.03659982606768608, -1.0944923162460327, -0.8313049674034119, -0.9792897701263428, 0.057433392852544785, -0.16447355689180196, -0.6527181296860078, 9.515305636669368, 9362.0, 30146.0, 35388.0, 9362.0, 8.390083312988281, -0.16114161908626556, -0.05679933726787567, 0.4342334270477295, -0.10597976297140121, -0.03721032291650772, 0.9950687289237976, -0.04822934791445732, 0.15752029418945312, 1.5087890625, 1.392333984375, 0.03314208984375, 1.49267578125, 1.376220703125, 10.0, 1.0, 10.0, 1.3863275051116943
17398, -0.23058928549289703, 0.7447109222412109, -0.527612030506134, -0.05456510931253433, 0.017649544402956963, -8.735771179199219, -0.11841840296983719, 0.03821038454771042, -1.0969057083129883, -0.831396758556366, -0.9792951345443726, 0.05743122473359108, -0.12048844199008907, -0.7304140104998567, 9.51504173252826, 9362.0, 30146.0, 35388.0, 9362.0, 8.390083312988281, -0.11834598332643509, 0.3371816873550415, 0.0033310623839497566, -0.10542582720518112, -0.0361744686961174, 0.9940464496612549, -0.04822934791445732, 0.15752029418945312, 1.5087890625, 1.39892578125, 0.0390167236328125, 1.494140625, 1.376220703125, 10.0, 1.0, 10.0, 1.3864747285842896
17468, -0.23135508596897125, 0.7515973448753357, -0.5294623374938965, -0.059402935206890106, 0.01921035721898079, -8.779690742492676, -0.12347578257322311, 0.03982910141348839, -1.0989115238189697, -0.8313143253326416, -0.9793184399604797, 0.05743645876646042, -0.1473961165214891, -0.6373942915500947, 9.511283029790745, 9362.0, 30146.0, 35388.0, 9362.0, 8.390083312988281, -0.06877122074365616, 0.27916020154953003, 0.2873539626598358, -0.10512343794107437, -0.03578032925724983, 0.9940056204795837, -0.04822934791445732, 0.15752029418945312, 1.5087890625, 1.393798828125, 0.0344085693359375, 1.48974609375, 1.376220703125, 10.0, 1.0, 10.0, 1.386755347251892
17498, -0.23242196440696716, 0.7545768618583679, -0.5261109471321106, -0.06704031676054001, 0.021673044189810753, -8.845735549926758, -0.13111612200737, 0.0422668531537056, -1.1022779941558838, -0.8313217163085938, -0.9793156385421753, 0.057443007826805115, -0.14493115156217234, -0.6401098020667177, 9.51466674701404, 9362.0, 30146.0, 35388.0, 9362.0, 8.390083312988281, -0.06877122074365616, 0.27916020154953003, 0.2873539626598358, -0.10757357627153397, -0.03514448180794716, 0.9964936375617981, -0.03636777400970459, -0.1650371551513672, 1.482421875, 1.40185546875, 0.0417938232421875, 1.491943359375, 1.376220703125, 10.0, 1.0, 10.0, 1.3869704008102417
17508, -0.2309161126613617, 0.7537401914596558, -0.5274393558502197, -0.06704031676054001, 0.021673044189810753, -8.845735549926758, -0.13111612200737, 0.0422668531537056, -1.1022779941558838, -0.8313863277435303, -0.9793197512626648, 0.05736271291971207, -0.12295489848351614, -0.6700275177219623, 9.487655224365454, 9362.0, 30146.0, 35388.0, 9362.0, 8.390083312988281, 0.1927216500043869, -0.14787115156650543, -0.13456133008003235, -0.10466594994068146, -0.033794205635786057, 0.9950398802757263, -0.03636777400970459, -0.1650371551513672, 1.482421875, 1.376953125, 0.0225982666015625, 1.491943359375, 1.376220703125, 10.0, 1.0, 10.0, 1.3869704008102417
17518, -0.2298249900341034, 0.7531790137290955, -0.5267704725265503, -0.06704031676054001, 0.021673044189810753, -8.845735549926758, -0.13111612200737, 0.0422668531537056, -1.1022779941558838, -0.8313613533973694, -0.9793474674224854, 0.05748296156525612, -0.12088516353087096, -0.6668127465917166, 9.54351606117614, 9362.0, 30146.0, 35388.0, 9362.0, 8.390083312988281, -0.0033260146155953407, -0.19830265641212463, -0.12725205719470978, -0.10466594994068146, -0.033794205635786057, 0.9950398802757263, -0.03636777400970459, -0.1650371551513672, 1.482421875, 1.426025390625, 0.069732666015625, 1.491943359375, 1.376220703125, 10.0, 1.0, 10.0, 1.3869704008102417
17558, -0.2291092425584793, 0.7503252029418945, -0.5281062126159668, -0.06704031676054001, 0.021673044189810753, -8.845735549926758, -0.13111612200737, 0.0422668531537056, -1.1022779941558838, -0.8313714861869812, -0.9793007969856262, 0.057385217398405075, -0.12741592403971871, -0.6787108568599933, 9.4867516166287, 9362.0, 30146.0, 35388.0, 9362.0, 8.390083312988281, -0.24603913724422455, 0.40451157093048096, 0.4845103621482849, -0.10582275688648224, -0.0341021828353405, 0.9943282604217529, -0.03636777400970459, -0.1650371551513672, 1.482421875, 1.42236328125, 0.0649566650390625, 1.491943359375, 1.376220703125, 10.0, 1.0, 10.0, 1.3870329856872559
17568, -0.22933301329612732, 0.7479520440101624, -0.5270528793334961, -0.06704031676054001, 0.021673044189810753, -8.845735549926758, -0.13111612200737, 0.0422668531537056, -1.1022779941558838, -0.8313196301460266, -0.9793027639389038, 0.05745764076709747, -0.1510785114415573, -0.6374454127049489, 9.51393323872202, 9362.0, 30146.0, 35388.0, 9362.0, 8.390083312988281, -0.051258668303489685, -0.2574295997619629, 0.01794210448861122, -0.10582275688648224, -0.0341021828353405, 0.9943282604217529, -0.03636777400970459, -0.1650371551513672, 1.482421875, 1.42236328125, 0.0649566650390625, 1.496337890625, 1.376220703125, 10.0, 1.0, 10.0, 1.3872426748275757
17588, -0.23045340180397034, 0.7491794228553772, -0.526142418384552, -0.07793933153152466, 0.025184115394949913, -8.934072494506836, -0.14134129881858826, 0.04550262913107872, -1.1064631938934326, -0.8313329815864563, -0.9792977571487427, 0.05743471905589104, -0.16116770896160015, -0.6434472834205565, 9.510444411633376, 9362.0, 30146.0, 35388.0, 9362.0, 8.390083312988281, -0.1723053902387619, 0.45461517572402954, -0.16285556554794312, -0.10422886908054352, -0.03423215448856354, 0.9925103783607483, -0.03636777400970459, -0.1650371551513672, 1.482421875, 1.42236328125, 0.0649566650390625, 1.49560546875, 1.376220703125, 10.0, 1.0, 10.0, 1.3872426748275757
17598, -0.23215317726135254, 0.7465001940727234, -0.5272597074508667, -0.07793933153152466, 0.025184115394949913, -8.934072494506836, -0.14134129881858826, 0.04550262913107872, -1.1064631938934326, -0.8313058614730835, -0.9792876839637756, 0.05745720863342285, -0.16661369681318852, -0.6475685319266518, 9.515350616006572, 9362.0, 30146.0, 35388.0, 9362.0, 8.390083312988281, -0.20531494915485382, -0.14730072021484375, 0.009736922569572926, -0.10422886908054352, -0.03423215448856354, 0.9925103783607483, -0.03636777400970459, -0.1650371551513672, 1.482421875, 1.36669921875, 0.01806640625, 1.49560546875, 1.376220703125, 10.0, 1.0, 10.0, 1.3872426748275757
17638, -0.2358413189649582, 0.7399561405181885, -0.5319303274154663, -0.08664796501398087, 0.027987170964479446, -9.000578880310059, -0.14893046021461487, 0.04794471338391304, -1.1101046800613403, -0.8313004970550537, -0.9792845249176025, 0.057454392313957214, -0.16713231552691343, -0.6484595186192053, 9.512446676800078, 9362.0, 30146.0, 35388.0, 9362.0, 8.390083312988281, -0.38555270433425903, 0.7365010976791382, 0.32951608300209045, -0.10947347432374954, -0.03554253280162811, 0.9955387115478516, -0.03636777400970459, -0.1650371551513672, 1.482421875, 1.3916015625, 0.0325927734375, 1.49560546875, 1.376220703125, 10.0, 1.0, 10.0, 1.3872426748275757
17648, -0.23864296078681946, 0.7339903712272644, -0.529053270816803, -0.08664796501398087, 0.027987170964479446, -9.000578880310059, -0.14893046021461487, 0.04794471338391304, -1.1101046800613403, -0.8313137888908386, -0.9792819619178772, 0.05745690315961838, -0.15958800381254581, -0.649866622156793, 9.515851275052857, 9362.0, 30146.0, 35388.0, 9362.0, 8.390083312988281, -0.16543298959732056, 0.29057690501213074, 0.6222269535064697, -0.10944843292236328, -0.03570437803864479, 0.9950811862945557, -0.03636777400970459, -0.1650371551513672, 1.482421875, 1.3916015625, 0.0325927734375, 1.48974609375, 1.376220703125, 10.0, 1.0, 10.0, 1.3872426748275757
17658, -0.24040594696998596, 0.7295491695404053, -0.5273944735527039, -0.0896516665816307, 0.028954358771443367, -9.022790908813477, -0.1514349728822708, 0.04877649247646332, -1.1110213994979858, -0.8313112258911133, -0.9792864322662354, 0.057446546852588654, -0.16737988406196574, -0.6435909644405342, 9.517416108452496, 9362.0, 30146.0, 35388.0, 9362.0, 8.390083312988281, -0.16543298959732056, 0.29057690501213074, 0.6222269535064697, -0.10665827989578247, -0.034663841128349304, 0.9940385222434998, -0.03636777400970459, -0.1650371551513672, 1.482421875, 1.3916015625, 0.0325927734375, 1.48974609375, 1.376220703125, 10.0, 1.0, 10.0, 1.3879493474960327
17708, -0.2456625998020172, 0.7228609919548035, -0.524605393409729, -0.0896516665816307, 0.028954358771443367, -9.022790908813477, -0.1514349728822708, 0.04877649247646332, -1.1110213994979858, -0.8313817977905273, -0.9792929887771606, 0.05736575275659561, -0.13581459713243685, -0.6818577836279474, 9.495879291968725, 9362.0, 30146.0, 35388.0, 9362.0, 8.390083312988281, 0.010886888951063156, -0.2949371635913849, 0.489013135433197, -0.10667011141777039, -0.038023076951503754, 0.9943405985832214, -0.02601829171180725, 0.1396007537841797, 1.50732421875, 1.396728515625, 0.0370025634765625, 1.48974609375, 1.376220703125, 10.0, 1.0, 10.0, 1.3879493474960327
17728, -0.24418237805366516, 0.7252174615859985, -0.5254311561584473, -0.09895996749401093, 0.03195750340819359, -9.089557647705078, -0.15882867574691772, 0.051337871700525284, -1.1146049499511719, -0.8313004970550537, -0.9792921543121338, 0.05746486037969589, -0.1575154611166893, -0.6403285360733548, 9.521063043845317, 9362.0, 30146.0, 35388.0, 9362.0, 8.390083312988281, 0.173980250954628, -0.30446988344192505, -0.21064867079257965, -0.10729259252548218, -0.036546193063259125, 0.9931573867797852, -0.02601829171180725, 0.1396007537841797, 1.50732421875, 1.4150390625, 0.05596923828125, 1.48681640625, 1.376220703125, 10.0, 1.0, 10.0, 1.388476848602295
17738, -0.24276630580425262, 0.7271640300750732, -0.5242449641227722, -0.10216111689805984, 0.03299281746149063, -9.111865043640137, -0.1612866371870041, 0.05219263955950737, -1.1160364151000977, -0.8313174843788147, -0.9793049097061157, 0.057440076023340225, -0.15709753369231427, -0.6452281351618581, 9.51710790339057, 9362.0, 30146.0, 35388.0, 9362.0, 8.390083312988281, 0.09156650304794312, -0.09340926259756088, 0.10715014487504959, -0.10729259252548218, -0.036546193063259125, 0.9931573867797852, -0.02601829171180725, 0.1396007537841797, 1.50732421875, 1.4150390625, 0.05596923828125, 1.48681640625, 1.376220703125, 10.0, 1.0, 10.0, 1.388476848602295
17768, -0.23484469950199127, 0.7310457229614258, -0.5192082524299622, -0.10216111689805984, 0.03299281746149063, -9.111865043640137, -0.1612866371870041, 0.05219263955950737, -1.1160364151000977, -0.8313076496124268, -0.9793140888214111, 0.057441890239715576, -0.15086187978650323, -0.6390869310265259, 9.513005928106496, 9362.0, 30146.0, 35388.0, 9362.0, 8.390083312988281, 0.4436067044734955, -0.0829288586974144, -0.12710806727409363, -0.10781954228878021, -0.035822659730911255, 0.9939775466918945, -0.02601829171180725, 0.1396007537841797, 1.50732421875, 1.40478515625, 0.0446624755859375, 1.4912109375, 1.376220703125, 10.0, 1.0, 10.0, 1.3885776996612549
17788, -0.22845864295959473, 0.738052248954773, -0.5199517607688904, -0.10216111689805984, 0.03299281746149063, -9.111865043640137, -0.1612866371870041, 0.05219263955950737, -1.1160364151000977, -0.8313179016113281, -0.9793246388435364, 0.057439904659986496, -0.14532213236166433, -0.6364409482798408, 9.516500672712032, 9362.0, 30146.0, 35388.0, 9362.0, 8.370248794555664, 0.4436067044734955, -0.0829288586974144, -0.12710806727409363, -0.10676009953022003, -0.03333939239382744, 0.9948458075523376, -0.02601829171180725, 0.1396007537841797, 1.50732421875, 1.389404296875, 0.03082275390625, 1.493408203125, 1.376220703125, 10.0, 1.0, 10.0, 1.3887662887573242
17808, -0.22352313995361328, 0.7426546812057495, -0.5221226215362549, -0.10216111689805984, 0.03299281746149063, -9.111865043640137, -0.1612866371870041, 0.05219263955950737, -1.1160364151000977, -0.8313104510307312, -0.9793041944503784, 0.057446736842393875, -0.15024636492047036, -0.6381326818854234, 9.515160673819494, 9362.0, 30146.0, 35388.0, 9362.0, 8.370248794555664, 0.3711957633495331, -0.030583186075091362, -0.02770856022834778, -0.1049230769276619, -0.03371164947748184, 0.9925235509872437, -0.02601829171180725, 0.1396007537841797, 1.50732421875, 1.420166015625, 0.0621337890625, 1.49560546875, 1.376220703125, 10.0, 1.0, 10.0, 1.3887662887573242
17818, -0.22037944197654724, 0.7452567219734192, -0.5221092104911804, -0.10216111689805984, 0.03299281746149063, -9.111865043640137, -0.1612866371870041, 0.05219263955950737, -1.1160364151000977, -0.8313533067703247, -0.9793243408203125, 0.05750375613570213, -0.11970009535670184, -0.6746552032559237, 9.545421543052175, 9362.0, 30146.0, 35388.0, 9362.0, 8.370248794555664, 0.18899713456630707, 0.16952545940876007, -0.15259821712970734, -0.1049230769276619, -0.03371164947748184, 0.9925235509872437, -0.02601829171180725, 0.1396007537841797, 1.50732421875, 1.383544921875, 0.026611328125, 1.49560546875, 1.376220703125, 10.0, 1.0, 10.0, 1.3887662887573242
17858, -0.2221900373697281, 0.7419872879981995, -0.5239834189414978, -0.12241248786449432, 0.0395502895116806, -9.246197700500488, -0.1763060837984085, 0.057004570960998535, -1.1228382587432861, -0.8313087821006775, -0.9792980551719666, 0.057443343102931976, -0.14950414081874644, -0.6403199304656653, 9.5149075436633, 9362.0, 30146.0, 35388.0, 9362.0, 8.370248794555664, -0.17251908779144287, 0.10830187052488327, -0.2774151861667633, -0.10625306516885757, -0.03149600327014923, 0.9938321709632874, -0.02601829171180725, 0.1396007537841797, 1.50732421875, 1.443603515625, 0.0948486328125, 1.49560546875, 1.376220703125, 10.0, 1.0, 10.0, 1.3892055749893188
17868, -0.22315473854541779, 0.7377840876579285, -0.5257256031036377, -0.12241248786449432, 0.0395502895116806, -9.246197700500488, -0.1763060837984085, 0.057004570960998535, -1.1228382587432861, -0.8313072323799133, -0.9792958498001099, 0.05744613707065582, -0.15228432587714158, -0.6401740419828457, 9.509256867112823, 9362.0, 30146.0, 35388.0, 9362.0, 8.370248794555664, -0.17251908779144287, 0.10830187052488327, -0.2774151861667633, -0.10569050163030624, -0.03501148894429207, 0.9914653301239014, -0.02601829171180725, 0.1396007537841797, 1.50732421875, 1.37109375, 0.0197906494140625, 1.49560546875, 1.376220703125, 10.0, 1.0, 10.0, 1.3892055749893188
17888, -0.22760526835918427, 0.7315225601196289, -0.530252993106842, -0.12241248786449432, 0.0395502895116806, -9.246197700500488, -0.1763060837984085, 0.057004570960998535, -1.1228382587432861, -0.831318736076355, -0.9793075919151306, 0.05745449662208557, -0.1548816159536324, -0.6376479140693334, 9.516025891974966, 9362.0, 30146.0, 35388.0, 9362.0, 8.370248794555664, -0.18013733625411987, 0.3851349949836731, 0.08350347727537155, -0.10783388465642929, -0.036859553307294846, 0.9950118660926819, -0.02601829171180725, 0.1396007537841797, 1.50732421875, 1.32861328125, 0.0214385986328125, 1.497802734375, 1.376220703125, 10.0, 1.0, 10.0, 1.3891054391860962
17948, -0.24068766832351685, 0.7156217098236084, -0.5194174647331238, -0.1369158923625946, 0.044237248599529266, -9.33623218536377, -0.18623214960098267, 0.06020546332001686, -1.1276804208755493, -0.8313082456588745, -0.9792943596839905, 0.057450488209724426, -0.15319719351132383, -0.6445933895591622, 9.519837840787448, 9362.0, 30146.0, 35388.0, 9362.0, 8.370248794555664, -0.2182994931936264, 0.17911945283412933, 0.2578286826610565, -0.10881746560335159, -0.03762401267886162, 0.9940919280052185, -0.02601829171180725, 0.1396007537841797, 1.50732421875, 1.402587890625, 0.0425262451171875, 1.49560546875, 1.376220703125, 10.0, 1.0, 10.0, 1.3891669511795044
17968, -0.24085599184036255, 0.7155013084411621, -0.5188458561897278, -0.1369158923625946, 0.044237248599529266, -9.33623218536377, -0.18623214960098267, 0.06020546332001686, -1.1276804208755493, -0.8313478827476501, -0.9792992472648621, 0.05752336233854294, -0.14178143797978268, -0.6797916918820306, 9.542934771873046, 9362.0, 30146.0, 35388.0, 9362.0, 8.370248794555664, -0.15374238789081573, -0.13512307405471802, 0.2380196750164032, -0.10833802074193954, -0.037920888513326645, 0.9939596056938171, -0.02601829171180725, 0.1396007537841797, 1.50732421875, 1.35205078125, 0.015380859375, 1.49560546875, 1.376220703125, 10.0, 1.0, 10.0, 1.3890550136566162
18008, -0.239613875746727, 0.7145711779594421, -0.5116444826126099, -0.14830876886844635, 0.0479252003133297, -9.403990745544434, -0.1935230791568756, 0.06272929906845093, -1.1309465169906616, -0.8313180208206177, -0.9792923927307129, 0.057457342743873596, -0.15039774744183648, -0.6414914594461436, 9.523262217997145, 9362.0, 30146.0, 35388.0, 9362.0, 8.370248794555664, 0.1799602061510086, -0.1730564534664154, 0.29707854986190796, -0.10558071732521057, -0.035278331488370895, 0.9929068684577942, -0.02601829171180725, 0.1396007537841797, 1.50732421875, 1.40478515625, 0.0446624755859375, 1.496337890625, 1.376220703125, 10.0, 1.0, 10.0, 1.3890495300292969
18028, -0.23492461442947388, 0.7197607159614563, -0.508080244064331, -0.15220347046852112, 0.04918818175792694, -9.42662239074707, -0.19594581425189972, 0.06356775760650635, -1.1322946548461914, -0.8314114809036255, -0.9792904853820801, 0.05744502320885658, -0.10848874588571238, -0.7195075264206423, 9.517825950897725, 9362.0, 30146.0, 35388.0, 9362.0, 8.370248794555664, 0.16163010895252228, -0.16024644672870636, 0.18734577298164368, -0.10555785894393921, -0.03592245280742645, 0.9969910979270935, -0.02601829171180725, 0.1396007537841797, 1.50732421875, 1.398193359375, 0.03826904296875, 1.49560546875, 1.376220703125, 10.0, 1.0, 10.0, 1.3892704248428345
18088, -0.22087910771369934, 0.7298991680145264, -0.5135102272033691, -0.1641802191734314, 0.05307573452591896, -9.494659423828125, -0.2032967358827591, 0.0659927949309349, -1.1355247497558594, -0.8314149379730225, -0.9793025255203247, 0.05743791535496712, -0.10800378497413006, -0.7127162992972274, 9.51826546810922, 9362.0, 30146.0, 35388.0, 9362.0, 8.370248794555664, 0.025635141879320145, -0.10314955562353134, -0.11868110299110413, -0.10526105761528015, -0.035141684114933014, 0.991740882396698, -0.02601829171180725, 0.1396007537841797, 1.50732421875, 1.41650390625, 0.0577545166015625, 1.49560546875, 1.376220703125, 10.0, 1.0, 10.0, 1.3893660306930542
18098, -0.22024807333946228, 0.7313750386238098, -0.5139058232307434, -0.1641802191734314, 0.05307573452591896, -9.494659423828125, -0.2032967358827591, 0.0659927949309349, -1.1355247497558594, -0.8313561677932739, -0.9793146252632141, 0.057521089911460876, -0.1275617718276218, -0.6710039528836376, 9.541051592395592, 9362.0, 30146.0, 35388.0, 9362.0, 8.370248794555664, 0.16317451000213623, 0.09478862583637238, -0.43189680576324463, -0.10684709995985031, -0.03620326519012451, 0.9935431480407715, -0.02601829171180725, 0.1396007537841797, 1.50732421875, 1.41650390625, 0.0577545166015625, 1.49560546875, 1.376220703125, 10.0, 1.0, 10.0, 1.3893660306930542
18108, -0.21939826011657715, 0.7302546501159668, -0.5168457627296448, -0.1641802191734314, 0.05307573452591896, -9.494659423828125, -0.2032967358827591, 0.0659927949309349, -1.1355247497558594, -0.831320583820343, -0.9793052077293396, 0.05744225159287453, -0.15488070787201771, -0.6431491468156878, 9.518539322602491, 9362.0, 30146.0, 35388.0, 9362.0, 8.370248794555664, -0.10815685987472534, 0.13025642931461334, -0.050257425755262375, -0.10546413064002991, -0.03580532595515251, 0.995237410068512, -0.02601829171180725, 0.1396007537841797, 1.50732421875, 1.37548828125, 0.021820068359375, 1.49560546875, 1.376220703125, 10.0, 1.0, 10.0, 1.3893660306930542
