timeTick, roll, pitch, yaw, stateX, stateY, stateZ, stateVX, stateVY, stateVZ, otX0, otY0, otZ0, otRoll0, otPitch0, otYaw0, left wing, pitch motor, yaw motor, right wing, voltage, roll rate, pitch rate, yaw rate, A_x, A_y, A_z, current, i_raw, v_raw, airflow_voltage, airflow_speed, pot_Pitch, voltage_nKF, kFFx, state, State, volt_KF
16098, 0.060467589646577835, -1.3203054666519165, 2.40356707572937, 0, 0, 0, 0, 0, 0, -0.8397499322891235, -0.9689494967460632, 0.05797559767961502, -0.8843146104044876, -0.8312874950783851, 5.873474214445501, 0, 0, 0, 0, 0, 0, 0, 0, 0, 0, 0, 0, 0, 0, 0, 0, 0, 0, 0, 0, 0, 0
16108, 0.05959403142333031, -1.3182538747787476, 2.4029579162597656, -0.0005380424554459751, 1.272385816264432e-06, -9.164481163024902, -0.02465732768177986, 5.7567238400224596e-05, -1.2666783332824707, -0.8397574424743652, -0.9689462780952454, 0.05798061564564705, -0.8749867941929151, -0.833335270595768, 5.8839434135999955, 9362.0, 30146.0, 35388.0, 9362.0, 0, 0.035246025770902634, 0.06637367606163025, 0.16396303474903107, -0.10945481806993484, -0.053087133914232254, 0.9945206642150879, 0, 0, 0, 0, 0, 0, 0, 0, 0, 0, 0
16118, 0.059798430651426315, -1.3194541931152344, 2.4043569564819336, -0.0007733515230938792, 1.8050288872473175e-06, -9.177149772644043, -0.022404473274946213, 4.893276491202414e-05, -1.2671332359313965, -0.8397610187530518, -0.9689602851867676, 0.05797257646918297, -0.8780208557579633, -0.8255343530003074, 5.874705261886345, 9362.0, 30146.0, 35388.0, 9362.0, 0, -0.1267319619655609, -0.2723156809806824, -0.02472146973013878, -0.10836412012577057, -0.05319568142294884, 0.9920763373374939, 0, 0, 0, 1.431884765625, 0.07769775390625, 0, 1.40185546875, 10.0, 1.0, 10.0, 1.4301975965499878
16128, 0.060095082968473434, -1.3183672428131104, 2.404569149017334, -0.0009861632715910673, 2.257956793982885e-06, -9.189824104309082, -0.020157888531684875, 4.170929969404824e-05, -1.2677046060562134, -0.8397228121757507, -0.968977689743042, 0.05801621079444885, -0.8995673849612663, -0.8075923140283692, 5.8957981353596205, 9362.0, 30146.0, 35388.0, 9362.0, 0, 0.06664584577083588, 0.002825654111802578, -0.16845913231372833, -0.11055972427129745, -0.0525476299226284, 0.993022084236145, 0, 0, 0, 1.39453125, 0.035003662109375, 1.49560546875, 1.45166015625, 10.0, 1.0, 10.0, 1.4302698373794556
16138, 0.06044737622141838, -1.318008303642273, 2.4038901329040527, -0.0011765267699956894, 2.6377072117611533e-06, -9.202505111694336, -0.017914803698658943, 3.425341492402367e-05, -1.2685182094573975, -0.8397663235664368, -0.9689447283744812, 0.05799095705151558, -0.8736622915657889, -0.8321206223578201, 5.888698745104395, 9362.0, 30146.0, 35388.0, 9362.0, 0, -0.06091410294175148, 0.06483480334281921, 0.08580552786588669, -0.10837377607822418, -0.05040773004293442, 0.9930887818336487, 0, 0, 0, 1.361572265625, 0.016571044921875, 1.49560546875, 1.39599609375, 10.0, 1.0, 10.0, 1.43015456199646
16148, 0.059288714081048965, -1.3185656070709229, 2.405364513397217, -0.0013444586656987667, 2.9400005132629303e-06, -9.215193748474121, -0.015671567991375923, 2.6182897272519767e-05, -1.2692456245422363, -0.8397716283798218, -0.9689486026763916, 0.05798394978046417, -0.8740810801406919, -0.8270212003540678, 5.879998912791552, 9362.0, 30146.0, 35388.0, 9362.0, 0, 0.21479472517967224, 0.08433867245912552, 0.04495580494403839, -0.1096862331032753, -0.0529489628970623, 0.9924607276916504, 0, 0, 0, 1.43115234375, 0.0766143798828125, 1.493408203125, 1.469970703125, 10.0, 1.0, 10.0, 1.430288314819336
16158, 0.0606246292591095, -1.320570707321167, 2.4072065353393555, -0.0014899610541760921, 3.1583363124809694e-06, -9.227890014648438, -0.013428931124508381, 1.752884782035835e-05, -1.2699732780456543, -0.8397993445396423, -0.968970537185669, 0.057952310889959335, -0.8954106164367759, -0.845065913185465, 5.925792254549455, 9362.0, 30146.0, 35388.0, 9362.0, 0, -0.1272779107093811, -0.3298913836479187, -0.4009872376918793, -0.10931664705276489, -0.05226348713040352, 0.9917555451393127, 0, 0, 0, 1.46630859375, 0.132171630859375, 1.493408203125, 1.43994140625, 10.0, 1.0, 10.0, 1.4303207397460938
16168, 0.060221027582883835, -1.3175400495529175, 2.404191493988037, -0.0016130427829921246, 3.3004876058839727e-06, -9.240593910217285, -0.011187438853085041, 1.0990147529810201e-05, -1.2707873582839966, -0.8397839665412903, -0.9689298868179321, 0.05794356018304825, -0.8939827601720306, -0.826756333880212, 5.889063094816756, 9362.0, 30146.0, 35388.0, 9362.0, 0, -0.08691564202308655, -0.2770983874797821, 0.1762763410806656, -0.10885906219482422, -0.05240758880972862, 0.9934942722320557, 0, 0, 0, 1.4033203125, 0.043182373046875, 1.4970703125, 1.458251953125, 10.0, 1.0, 10.0, 1.4304145574569702
16178, 0.060348693281412125, -1.3160688877105713, 2.405414581298828, -0.001713693724013865, 3.366998498677276e-06, -9.25330638885498, -0.008942714892327785, 2.192250576626975e-06, -1.2716155052185059, -0.8397889733314514, -0.9689467549324036, 0.057941414415836334, -0.8920050546772972, -0.8260216830924207, 5.891153397314426, 9362.0, 30146.0, 35388.0, 9362.0, 0, 0.038539692759513855, -0.08818956464529037, -0.2409166544675827, -0.10882285982370377, -0.05426105484366417, 0.9920140504837036, 0, 0, 0, 1.447265625, 0.1004791259765625, 1.4970703125, 1.4091796875, 10.0, 1.0, 10.0, 1.4303432703018188
16188, 0.06082643195986748, -1.314659595489502, 2.4026198387145996, -0.00179190537892282, 3.3472192626504693e-06, -9.26602554321289, -0.0066995942033827305, -6.098743142501917e-06, -1.2722877264022827, -0.8397859930992126, -0.9689406752586365, 0.05794840306043625, -0.8938019510202425, -0.8265732665999792, 5.895071172117544, 9362.0, 30146.0, 35388.0, 9362.0, 0, 0.07778633385896683, -0.23958776891231537, 0.12470193952322006, -0.11005419492721558, -0.05141469091176987, 0.9935555458068848, 0, 0, 0, 1.459716796875, 0.120849609375, 1.496337890625, 1.43115234375, 10.0, 1.0, 10.0, 1.4303460121154785
16198, 0.061358045786619186, -1.312882423400879, 2.4032998085021973, -0.0018477089470252395, 3.2431998988613486e-06, -9.278752326965332, -0.00446110125631094, -1.4806968465563841e-05, -1.2730530500411987, -0.8397763967514038, -0.9689396619796753, 0.05795629695057869, -0.8926235145120663, -0.8243408483000394, 5.895784841679613, 9362.0, 30146.0, 35388.0, 9362.0, 8.370248794555664, 0.016967544332146645, -0.036874920129776, -0.18922799825668335, -0.11209896206855774, -0.050576817244291306, 0.9920324683189392, -0.05589181184768677, -0.08439826965332031, 1.489013671875, 1.405517578125, 0.0454254150390625, 1.496337890625, 1.4296875, 10.0, 1.0, 10.0, 1.430343747138977
16208, 0.06201557815074921, -1.3124228715896606, 2.4013030529022217, -0.0018811309710144997, 3.046958681807155e-06, -9.291486740112305, -0.002223294461145997, -2.4408334866166115e-05, -1.2737451791763306, -0.8397766351699829, -0.9689523577690125, 0.05792845040559769, -0.8920535334582215, -0.8216645072018309, 5.891333728535139, 9362.0, 30146.0, 35388.0, 9362.0, 8.370248794555664, -0.24198944866657257, -0.1744367480278015, 0.30818748474121094, -0.11108027398586273, -0.05213378369808197, 0.9928396940231323, -0.05589181184768677, -0.08439826965332031, 1.489013671875, 1.443603515625, 0.0948486328125, 1.493408203125, 1.48681640625, 10.0, 1.0, 10.0, 1.4305330514907837
16218, 0.06042972952127457, -1.3115558624267578, 2.402872323989868, -0.0018922025337815285, 2.7497469545778586e-06, -9.304227828979492, 8.990555215859786e-06, -3.510278111207299e-05, -1.2745479345321655, -0.8397731781005859, -0.9689401984214783, 0.057953543961048126, -0.8893430780698419, -0.8260262843780879, 5.888833127873874, 9362.0, 30146.0, 35388.0, 9362.0, 8.370248794555664, 0.250271201133728, 0.22190797328948975, 0.011812589131295681, -0.10960088670253754, -0.05383946746587753, 0.9931373596191406, -0.05589181184768677, -0.08439826965332031, 1.489013671875, 1.44873046875, 0.102813720703125, 1.493408203125, 1.428955078125, 10.0, 1.0, 10.0, 1.4305278062820435
16228, 0.06162217631936073, -1.3121874332427979, 2.4018635749816895, -0.0018809463363140821, 2.3394134132104227e-06, -9.316976547241211, 0.002242267830297351, -4.6920220484025776e-05, -1.2752755880355835, -0.8397805094718933, -0.9689396619796753, 0.0579579621553421, -0.8904074895919293, -0.8255453965286677, 5.884575155276156, 9362.0, 30146.0, 35388.0, 9362.0, 8.370248794555664, -0.09855833649635315, 0.14372305572032928, -0.18379078805446625, -0.1092849001288414, -0.05329504609107971, 0.9921639561653137, -0.05589181184768677, -0.08439826965332031, 1.489013671875, 1.39599609375, 0.0362701416015625, 1.49560546875, 1.41650390625, 10.0, 1.0, 10.0, 1.4304808378219604
16238, 0.06166698783636093, -1.3118970394134521, 2.39976167678833, -0.0018473647069185972, 1.824368382585817e-06, -9.329732894897461, 0.004474060144275427, -5.611550295725465e-05, -1.2759979963302612, -0.8397677540779114, -0.968934178352356, 0.05795124173164368, -0.8891902309352983, -0.826214124324764, 5.8910914141594, 9362.0, 30146.0, 35388.0, 9362.0, 8.370248794555664, -0.05654243379831314, 0.26892247796058655, 0.22948722541332245, -0.10949330776929855, -0.052149612456560135, 0.9933826923370361, -0.05589181184768677, -0.08439826965332031, 1.489013671875, 1.456787109375, 0.115966796875, 1.49560546875, 1.42822265625, 10.0, 1.0, 10.0, 1.4304733276367188
16248, 0.0619993656873703, -1.3142919540405273, 2.4012560844421387, -0.0017914659110829234, 1.207304876515991e-06, -9.342496871948242, 0.006705689709633589, -6.737811054335907e-05, -1.2767784595489502, -0.8397777080535889, -0.9689419865608215, 0.05794092267751694, -0.8939562387733584, -0.8311020891215435, 5.888608563145205, 9362.0, 30146.0, 35388.0, 9362.0, 8.370248794555664, 0.1456288993358612, -0.047755591571331024, 0.20623190701007843, -0.10884891450405121, -0.05244069546461105, 0.9935082197189331, -0.05589181184768677, -0.08439826965332031, 1.489013671875, 1.338134765625, 0.01727294921875, 1.496337890625, 1.39013671875, 10.0, 1.0, 10.0, 1.4303382635116577
16258, 0.06273502111434937, -1.3148057460784912, 2.4028983116149902, -0.001713242381811142, 4.7666651425970485e-07, -9.355268478393555, 0.008938995189964771, -7.868820830481127e-05, -1.2774631977081299, -0.8397708535194397, -0.9689320921897888, 0.057942748069763184, -0.8868487396827399, -0.8284308058688339, 5.881929228455347, 9362.0, 30146.0, 35388.0, 9362.0, 8.370248794555664, 0.01595473475754261, -0.2189999222755432, 0.050232820212841034, -0.11057194322347641, -0.05156461149454117, 0.9957288503646851, -0.05589181184768677, -0.08439826965332031, 1.489013671875, 1.402587890625, 0.0425262451171875, 1.496337890625, 1.398193359375, 10.0, 1.0, 10.0, 1.430230736732483
16268, 0.06156100705265999, -1.3135414123535156, 2.4029879570007324, -0.0016126587288454175, -3.6878657283523353e-07, -9.368045806884766, 0.011177738197147846, -9.033143578562886e-05, -1.2780903577804565, -0.8397833108901978, -0.968937337398529, 0.057925645262002945, -0.8892193623979882, -0.8285604639499411, 5.8885683806954, 9362.0, 30146.0, 35388.0, 9362.0, 8.370248794555664, 0.2164059430360794, -0.047674376517534256, -0.3385446071624756, -0.1094319298863411, -0.050828516483306885, 0.9948769807815552, -0.05589181184768677, -0.08439826965332031, 1.489013671875, 1.43701171875, 0.085052490234375, 1.4970703125, 1.4208984375, 10.0, 1.0, 10.0, 1.4301995038986206
16278, 0.06203187629580498, -1.3134158849716187, 2.4001269340515137, -0.001489665824919939, -1.3365195172809763e-06, -9.380828857421875, 0.01342084351927042, -0.00010321975423721597, -1.2785686254501343, -0.8397782444953918, -0.9689388871192932, 0.05795137584209442, -0.8962271516741879, -0.8339115847516041, 5.88705477738309, 9362.0, 30146.0, 35388.0, 9362.0, 8.370248794555664, -0.07012318074703217, -0.0957656279206276, 0.03290877863764763, -0.11125125735998154, -0.052719686180353165, 0.9915981888771057, -0.05589181184768677, -0.08439826965332031, 1.489013671875, 1.408447265625, 0.0485382080078125, 1.4970703125, 1.42822265625, 10.0, 1.0, 10.0, 1.4301929473876953
16288, 0.060948651283979416, -1.312786340713501, 2.3984382152557373, -0.0013442618073895574, -2.423533715045778e-06, -9.393617630004883, 0.01565997675061226, -0.00011429061851231381, -1.279122233390808, -0.8397812247276306, -0.9689295291900635, 0.057921867817640305, -0.8927511467392161, -0.8277360400353189, 5.884974733942317, 9362.0, 30146.0, 35388.0, 9362.0, 8.370248794555664, 0.20406785607337952, 0.41904401779174805, -0.07672470062971115, -0.11028769612312317, -0.0542115680873394, 0.990192174911499, -0.05589181184768677, -0.08439826965332031, 1.489013671875, 1.405517578125, 0.0454254150390625, 1.49267578125, 1.452392578125, 10.0, 1.0, 10.0, 1.4302672147750854
16298, 0.06182955577969551, -1.3152928352355957, 2.396941661834717, -0.001176500809378922, -3.6256867588235764e-06, -9.406413078308105, 0.017892230302095413, -0.0001262193836737424, -1.2799679040908813, -0.8397703766822815, -0.9689361453056335, 0.05792907252907753, -0.8956132694469459, -0.8289317058434165, 5.890187094929789, 9362.0, 30146.0, 35388.0, 9362.0, 8.370248794555664, 0.046600207686424255, -0.32267990708351135, -0.35488611459732056, -0.11008815467357635, -0.055011484771966934, 0.9920971989631653, -0.036910708993673325, -0.13815879821777344, 1.484619140625, 1.46484375, 0.1295928955078125, 1.49267578125, 1.449462890625, 10.0, 1.0, 10.0, 1.4303313493728638
16308, 0.061654094606637955, -1.3141196966171265, 2.3947126865386963, -0.000986437313258648, -4.93842799187405e-06, -9.419218063354492, 0.020120421424508095, -0.00013637609663419425, -1.2809385061264038, -0.8397707343101501, -0.9689462780952454, 0.05792822316288948, -0.8957962338318729, -0.8283790079742062, 5.884449209263423, 9362.0, 30146.0, 35388.0, 9362.0, 8.370248794555664, 0.009649869985878468, -0.3899945020675659, -0.041165757924318314, -0.11112894117832184, -0.05153629928827286, 0.9927070736885071, -0.036910708993673325, -0.13815879821777344, 1.484619140625, 1.405517578125, 0.0454254150390625, 1.49560546875, 1.36962890625, 10.0, 1.0, 10.0, 1.430128574371338
16318, 0.06113704666495323, -1.3110995292663574, 2.3939595222473145, -0.0007740473374724388, -6.359719009196851e-06, -9.432031631469727, 0.022357579320669174, -0.0001479699567425996, -1.2817087173461914, -0.8397794961929321, -0.9689344167709351, 0.057933345437049866, -0.8862068247249416, -0.8343332753511561, 5.894033656359997, 9362.0, 30146.0, 35388.0, 9362.0, 8.370248794555664, -0.026713920757174492, 0.15627549588680267, -0.3905778229236603, -0.10959501564502716, -0.051032278686761856, 0.9931082129478455, -0.036910708993673325, -0.13815879821777344, 1.484619140625, 1.45166015625, 0.107452392578125, 1.49560546875, 1.47216796875, 10.0, 1.0, 10.0, 1.4302690029144287
16328, 0.060606807470321655, -1.3116400241851807, 2.3925442695617676, -0.0005392891471274197, -7.896345778135583e-06, -9.444851875305176, 0.024594100192189217, -0.00015938853903207928, -1.2824206352233887, -0.8397846221923828, -0.9689498543739319, 0.057950325310230255, -0.8886653222377688, -0.8277891474556611, 5.892868905533812, 9362.0, 30146.0, 35388.0, 9362.0, 8.370248794555664, 0.010852230712771416, 0.03987046331167221, -0.28222888708114624, -0.10965743660926819, -0.05104577913880348, 0.9911471009254456, -0.036910708993673325, -0.13815879821777344, 1.484619140625, 1.423095703125, 0.06591796875, 1.494873046875, 1.38427734375, 10.0, 1.0, 10.0, 1.4301154613494873
16338, 0.061567213386297226, -1.3126972913742065, 2.39111065864563, -0.00028219513478688896, -9.543964551994577e-06, -9.457679748535156, 0.026824692264199257, -0.00017019757069647312, -1.2831639051437378, -0.8397417068481445, -0.968961238861084, 0.0579596646130085, -0.9120478160053253, -0.8111228740723959, 5.9003392493619495, 9362.0, 30146.0, 35388.0, 9362.0, 8.370248794555664, 0.023838819935917854, 0.15337510406970978, 0.15272322297096252, -0.10843608528375626, -0.05349532887339592, 0.9918767809867859, -0.036910708993673325, -0.13815879821777344, 1.484619140625, 1.47509765625, 0.147857666015625, 1.494873046875, 1.428955078125, 10.0, 1.0, 10.0, 1.4301116466522217
16348, 0.06234747916460037, -1.3148905038833618, 2.3922672271728516, -2.804648829624057e-06, -1.1295198419247754e-05, -9.470515251159668, 0.029053393751382828, -0.00018009261111728847, -1.2840272188186646, -0.8397793173789978, -0.9689474701881409, 0.05791589990258217, -0.8922235587981812, -0.8236162661484343, 5.894838460385846, 9362.0, 30146.0, 35388.0, 9362.0, 8.370248794555664, -0.18558339774608612, 0.18525268137454987, -0.016745591536164284, -0.11060293763875961, -0.05345849320292473, 0.9913714528083801, -0.036910708993673325, -0.13815879821777344, 1.484619140625, 1.41064453125, 0.0509490966796875, 1.49560546875, 1.349853515625, 10.0, 1.0, 10.0, 1.4298439025878906
16358, 0.06266847997903824, -1.3150001764297485, 2.3909950256347656, 0.0002988879568874836, -1.3153460713510867e-05, -9.483359336853027, 0.03128509968519211, -0.0001915053726406768, -1.284840703010559, -0.8397794365882874, -0.9689227342605591, 0.05792862921953201, -0.8934069577108448, -0.8292367096198916, 5.888250263715774, 9362.0, 30146.0, 35388.0, 9362.0, 8.370248794555664, 0.06547509133815765, 0.01375754363834858, -0.18592925369739532, -0.10892009735107422, -0.0517745316028595, 0.9941384196281433, -0.036910708993673325, -0.13815879821777344, 1.484619140625, 1.427490234375, 0.0716400146484375, 1.49560546875, 1.41943359375, 10.0, 1.0, 10.0, 1.4298092126846313
16368, 0.06320788711309433, -1.3167260885238647, 2.3910698890686035, 0.0006229138234630227, -1.513145434728358e-05, -9.496212005615234, 0.03352006524801254, -0.0002041388797806576, -1.2856770753860474, -0.8397828340530396, -0.9689404964447021, 0.057929348200559616, -0.8884197939469497, -0.8249060526967753, 5.886666945292354, 9362.0, 30146.0, 35388.0, 9362.0, 8.370248794555664, 0.05311981216073036, -0.21950368583202362, -0.167654350399971, -0.10907436162233353, -0.04938092827796936, 0.9952547550201416, -0.036910708993673325, -0.13815879821777344, 1.484619140625, 1.46923828125, 0.137359619140625, 1.494140625, 1.436279296875, 10.0, 1.0, 10.0, 1.42983078956604
16378, 0.06385240703821182, -1.3169598579406738, 2.3902926445007324, 0.000969315879046917, -1.723886452964507e-05, -9.509072303771973, 0.03576032444834709, -0.0002173363754991442, -1.286292314529419, -0.8397804498672485, -0.9689340591430664, 0.057920198887586594, -0.886708469423278, -0.8325500576891898, 5.894205559941635, 9362.0, 30146.0, 35388.0, 9362.0, 8.370248794555664, -0.10469067841768265, -0.03456025943160057, 0.3200899660587311, -0.11145865172147751, -0.05033191666007042, 0.9913963079452515, -0.036910708993673325, -0.13815879821777344, 1.484619140625, 1.442138671875, 0.0926361083984375, 1.494140625, 1.43994140625, 10.0, 1.0, 10.0, 1.429864525794983
16388, 0.06336076557636261, -1.318206548690796, 2.3912205696105957, 0.0013381473254412413, -1.9482286006677896e-05, -9.521937370300293, 0.03800598531961441, -0.00023137284733820707, -1.286803126335144, -0.839775800704956, -0.9689455628395081, 0.05793042108416557, -0.8903770584583982, -0.8270770128088714, 5.883756263466752, 9362.0, 30146.0, 35388.0, 9362.0, 8.370248794555664, 0.06614848971366882, -0.33685529232025146, -0.07611968368291855, -0.10931273549795151, -0.051572345197200775, 0.9916670918464661, -0.036910708993673325, -0.13815879821777344, 1.484619140625, 1.39453125, 0.035003662109375, 1.494140625, 1.4150390625, 10.0, 1.0, 10.0, 1.4298151731491089
16398, 0.06350737810134888, -1.3179696798324585, 2.390578031539917, 0.0017293969867751002, -2.187135578424204e-05, -9.534810066223145, 0.040243931114673615, -0.0002464113349560648, -1.2876660823822021, -0.8397791981697083, -0.9689294695854187, 0.0579199492931366, -0.8886165105316607, -0.830194218789984, 5.892772517187176, 9362.0, 30146.0, 35388.0, 9362.0, 8.370248794555664, -0.06610046327114105, 0.2910713851451874, 0.15099000930786133, -0.10966946929693222, -0.05316683277487755, 0.9942558407783508, -0.04951569437980652, -0.3083972930908203, 1.470703125, 1.41064453125, 0.0509490966796875, 1.494140625, 1.365966796875, 10.0, 1.0, 10.0, 1.4296025037765503
16408, 0.06233273074030876, -1.318189263343811, 2.391345262527466, 0.0017293969867751002, -2.187135578424204e-05, -9.534810066223145, 0.040243931114673615, -0.0002464113349560648, -1.2876660823822021, -0.8397710919380188, -0.9689484238624573, 0.057916607707738876, -0.8922448773494334, -0.8270900878774228, 5.891943634646408, 9362.0, 30146.0, 35388.0, 9362.0, 8.370248794555664, -0.06610046327114105, 0.2910713851451874, 0.15099000930786133, -0.10964901745319366, -0.04952129349112511, 0.9942493438720703, -0.04951569437980652, -0.3083972930908203, 1.470703125, 1.40625, 0.04620361328125, 1.49267578125, 1.365966796875, 10.0, 1.0, 10.0, 1.4296025037765503
16428, 0.06150677800178528, -1.320493221282959, 2.396001100540161, 0.0025791225489228964, -2.7083751774625853e-05, -9.560578346252441, 0.04473114013671875, -0.0002749717386905104, -1.2890681028366089, -0.83973628282547, -0.9689549207687378, 0.05798468738794327, -0.9161294394825222, -0.8122622192653353, 5.898117940687133, 9362.0, 30146.0, 35388.0, 9362.0, 8.370248794555664, 0.07450154423713684, 0.37163791060447693, 0.06082364544272423, -0.10964901745319366, -0.04952129349112511, 0.9942493438720703, -0.04951569437980652, -0.3083972930908203, 1.470703125, 1.40625, 0.04620361328125, 1.49560546875, 1.365966796875, 10.0, 1.0, 10.0, 1.429756760597229
16438, 0.0619039349257946, -1.3217418193817139, 2.3961434364318848, 0.0025791225489228964, -2.7083751774625853e-05, -9.560578346252441, 0.04473114013671875, -0.0002749717386905104, -1.2890681028366089, -0.8397738337516785, -0.9689298272132874, 0.05792694911360741, -0.894647339217654, -0.8226607498866656, 5.894766136906194, 9362.0, 30146.0, 35388.0, 9362.0, 8.370248794555664, 0.048677172511816025, 0.0703774020075798, 0.2033463567495346, -0.10747676342725754, -0.05216280743479729, 0.9950999617576599, -0.04951569437980652, -0.3083972930908203, 1.470703125, 1.38720703125, 0.0291900634765625, 1.49560546875, 1.365966796875, 10.0, 1.0, 10.0, 1.429756760597229
16448, 0.06134473904967308, -1.3219883441925049, 2.3968605995178223, 0.0025791225489228964, -2.7083751774625853e-05, -9.560578346252441, 0.04473114013671875, -0.0002749717386905104, -1.2890681028366089, -0.8397740721702576, -0.9689404964447021, 0.05792585760354996, -0.8925264939017387, -0.8320176203831124, 5.890810891052577, 9362.0, 30146.0, 35388.0, 9362.0, 8.370248794555664, 0.1423356980085373, 0.010508260689675808, -0.2662923336029053, -0.10747676342725754, -0.05216280743479729, 0.9950999617576599, -0.04951569437980652, -0.3083972930908203, 1.470703125, 1.38720703125, 0.0291900634765625, 1.49560546875, 1.365966796875, 10.0, 1.0, 10.0, 1.429500699043274
16458, 0.06244417279958725, -1.322046160697937, 2.3946120738983154, 0.0025791225489228964, -2.7083751774625853e-05, -9.560578346252441, 0.04473114013671875, -0.0002749717386905104, -1.2890681028366089, -0.8397844433784485, -0.9689335823059082, 0.057922955602407455, -0.8914963732383437, -0.8342545762433247, 5.894475483858151, 9362.0, 30146.0, 35388.0, 9362.0, 8.370248794555664, 0.1423356980085373, 0.010508260689675808, -0.2662923336029053, -0.10747676342725754, -0.05216280743479729, 0.9950999617576599, -0.04951569437980652, -0.3083972930908203, 1.470703125, 1.45166015625, 0.107452392578125, 1.49560546875, 1.365966796875, 10.0, 1.0, 10.0, 1.4295402765274048
16468, 0.061886899173259735, -1.3200799226760864, 2.393646001815796, 0.0025791225489228964, -2.7083751774625853e-05, -9.560578346252441, 0.04473114013671875, -0.0002749717386905104, -1.2890681028366089, -0.8397759199142456, -0.9689327478408813, 0.05791953578591347, -0.8870073608004316, -0.82543746124162, 5.889359589077284, 9362.0, 30146.0, 35388.0, 9362.0, 8.370248794555664, -0.004220245406031609, 0.15244142711162567, 0.09236093610525131, -0.10942627489566803, -0.0503685399889946, 0.9930000901222229, -0.04951569437980652, -0.3083972930908203, 1.470703125, 1.436279296875, 0.0838775634765625, 1.4970703125, 1.365966796875, 10.0, 1.0, 10.0, 1.4295402765274048
16478, 0.062004879117012024, -1.3212151527404785, 2.3939015865325928, 0.0025791225489228964, -2.7083751774625853e-05, -9.560578346252441, 0.04473114013671875, -0.0002749717386905104, -1.2890681028366089, -0.8397921323776245, -0.9689479470252991, 0.0579318106174469, -0.8872978334137451, -0.8242924263300324, 5.899583169540013, 9362.0, 30146.0, 35388.0, 9362.0, 8.370248794555664, 0.08499305695295334, 0.1373974233865738, 0.22778379917144775, -0.10942627489566803, -0.0503685399889946, 0.9930000901222229, -0.04951569437980652, -0.3083972930908203, 1.470703125, 1.436279296875, 0.0838775634765625, 1.4970703125, 1.365966796875, 10.0, 1.0, 10.0, 1.4296989440917969
16488, 0.062424588948488235, -1.3204172849655151, 2.3951210975646973, 0.0025791225489228964, -2.7083751774625853e-05, -9.560578346252441, 0.04473114013671875, -0.0002749717386905104, -1.2890681028366089, -0.8397892713546753, -0.968941330909729, 0.05792640894651413, -0.8882299984163324, -0.8233393565374456, 5.890016430314665, 9362.0, 30146.0, 35388.0, 9362.0, 8.370248794555664, 0.08499305695295334, 0.1373974233865738, 0.22778379917144775, -0.11097081005573273, -0.04880319908261299, 0.9928333163261414, -0.04951569437980652, -0.3083972930908203, 1.470703125, 1.436279296875, 0.0838775634765625, 1.4912109375, 1.365966796875, 10.0, 1.0, 10.0, 1.4296989440917969
16508, 0.06237463653087616, -1.320124864578247, 2.396313428878784, 0.0025791225489228964, -2.7083751774625853e-05, -9.560578346252441, 0.04473114013671875, -0.0002749717386905104, -1.2890681028366089, -0.8397788405418396, -0.9689346551895142, 0.05792749673128128, -0.8898291567446958, -0.8341958786188002, 5.891594103986332, 9362.0, 30146.0, 35388.0, 9362.0, 8.370248794555664, -0.018113035708665848, 0.19765479862689972, 0.034579403698444366, -0.11103146523237228, -0.05100967735052109, 0.9924210906028748, -0.04205555468797684, -0.01271820068359375, 1.494873046875, 1.405517578125, 0.0454254150390625, 1.49267578125, 1.43408203125, 10.0, 1.0, 10.0, 1.4296989440917969
16518, 0.06313659250736237, -1.3195338249206543, 2.3954391479492188, 0.0025791225489228964, -2.7083751774625853e-05, -9.560578346252441, 0.04473114013671875, -0.0002749717386905104, -1.2890681028366089, -0.8397898077964783, -0.9689299464225769, 0.057922348380088806, -0.8942269507331156, -0.8259152612167497, 5.89031882488956, 9362.0, 30146.0, 35388.0, 9362.0, 8.370248794555664, 0.11272068321704865, 0.12798616290092468, -0.31035441160202026, -0.11103146523237228, -0.05100967735052109, 0.9924210906028748, -0.04205555468797684, -0.01271820068359375, 1.494873046875, 1.380615234375, 0.024749755859375, 1.49267578125, 1.43408203125, 10.0, 1.0, 10.0, 1.4296989440917969
16528, 0.06397739797830582, -1.319510817527771, 2.393033742904663, 0.0025791225489228964, -2.7083751774625853e-05, -9.560578346252441, 0.04473114013671875, -0.0002749717386905104, -1.2890681028366089, -0.8397821187973022, -0.9689355492591858, 0.057921573519706726, -0.8924234198611144, -0.829604308680473, 5.8877167873509295, 9362.0, 30146.0, 35388.0, 9362.0, 8.370248794555664, 0.0241519995033741, 0.0853436067700386, -0.2589551508426666, -0.10914022475481033, -0.0506276972591877, 0.9927582144737244, -0.04205555468797684, -0.01271820068359375, 1.494873046875, 1.464111328125, 0.1283111572265625, 1.49267578125, 1.43408203125, 10.0, 1.0, 10.0, 1.4296989440917969
16538, 0.06463111191987991, -1.3195492029190063, 2.3908209800720215, 0.0025791225489228964, -2.7083751774625853e-05, -9.560578346252441, 0.04473114013671875, -0.0002749717386905104, -1.2890681028366089, -0.8397814631462097, -0.9689418077468872, 0.05792684480547905, -0.8926994646152663, -0.824210295792625, 5.888530662580542, 9362.0, 30146.0, 35388.0, 9362.0, 8.370248794555664, 0.0241519995033741, 0.0853436067700386, -0.2589551508426666, -0.10914022475481033, -0.0506276972591877, 0.9927582144737244, -0.04205555468797684, -0.01271820068359375, 1.494873046875, 1.464111328125, 0.1283111572265625, 1.49267578125, 1.43408203125, 10.0, 1.0, 10.0, 1.429823875427246
16548, 0.06550618261098862, -1.322432041168213, 2.3896138668060303, 0.0025791225489228964, -2.7083751774625853e-05, -9.560578346252441, 0.04473114013671875, -0.0002749717386905104, -1.2890681028366089, -0.8397836685180664, -0.9689360857009888, 0.057923585176467896, -0.8857253562566599, -0.826016216680614, 5.890517724968569, 9362.0, 30146.0, 35388.0, 9362.0, 8.370248794555664, 0.14954157173633575, 0.15951742231845856, -0.16604819893836975, -0.11053545773029327, -0.050653230398893356, 0.99300217628479, -0.04205555468797684, -0.01271820068359375, 1.494873046875, 1.41357421875, 0.0542449951171875, 1.49267578125, 1.43408203125, 10.0, 1.0, 10.0, 1.429823875427246
16558, 0.06697743386030197, -1.3239035606384277, 2.387819766998291, 0.0025791225489228964, -2.7083751774625853e-05, -9.560578346252441, 0.04473114013671875, -0.0002749717386905104, -1.2890681028366089, -0.8397776484489441, -0.968937873840332, 0.05793594568967819, -0.8898730183572698, -0.8262030603049197, 5.88849014615775, 9362.0, 30146.0, 35388.0, 9362.0, 8.370248794555664, 0.12331848591566086, 0.23774303495883942, -0.1406894475221634, -0.11053545773029327, -0.050653230398893356, 0.99300217628479, -0.04205555468797684, -0.01271820068359375, 1.494873046875, 1.41357421875, 0.0542449951171875, 1.49267578125, 1.43408203125, 10.0, 1.0, 10.0, 1.4295902252197266
16568, 0.0677516832947731, -1.3266863822937012, 2.38661527633667, 0.0025791225489228964, -2.7083751774625853e-05, -9.560578346252441, 0.04473114013671875, -0.0002749717386905104, -1.2890681028366089, -0.8397864103317261, -0.9689441323280334, 0.05793460085988045, -0.8938744162524488, -0.831734309545709, 5.893406668861733, 9362.0, 30146.0, 35388.0, 9362.0, 8.370248794555664, 0.12331848591566086, 0.23774303495883942, -0.1406894475221634, -0.11100523918867111, -0.052363645285367966, 0.992792546749115, -0.04205555468797684, -0.01271820068359375, 1.494873046875, 1.41357421875, 0.0542449951171875, 1.49267578125, 1.43408203125, 10.0, 1.0, 10.0, 1.4295902252197266
16578, 0.06817618012428284, -1.3297044038772583, 2.38865327835083, 0.01261279359459877, -8.647085633128881e-05, -9.767721176147461, 0.08068776875734329, -0.00048618929577060044, -1.3005884885787964, -0.839777946472168, -0.9689463376998901, 0.05793687701225281, -0.8886808888523836, -0.8182029816484544, 5.886636981550892, 9362.0, 30146.0, 35388.0, 9362.0, 8.370248794555664, 0.1450381577014923, -0.14398717880249023, -0.2982384264469147, -0.11100523918867111, -0.052363645285367966, 0.992792546749115, -0.04205555468797684, -0.01271820068359375, 1.494873046875, 1.41357421875, 0.0542449951171875, 1.49267578125, 1.43408203125, 10.0, 1.0, 10.0, 1.4297363758087158
16588, 0.06844432651996613, -1.3294376134872437, 2.3864083290100098, 0.01261279359459877, -8.647085633128881e-05, -9.767721176147461, 0.08068776875734329, -0.00048618929577060044, -1.3005884885787964, -0.8397825956344604, -0.9689393043518066, 0.05794011428952217, -0.8847624776856932, -0.8320093995219224, 5.88783681702293, 9362.0, 30146.0, 35388.0, 9362.0, 8.370248794555664, -0.0733112171292305, 0.14701727032661438, 0.20119810104370117, -0.11100523918867111, -0.052363645285367966, 0.992792546749115, -0.04205555468797684, -0.01271820068359375, 1.494873046875, 1.41357421875, 0.0542449951171875, 1.49267578125, 1.43408203125, 10.0, 1.0, 10.0, 1.4297363758087158
16608, 0.06876452267169952, -1.3343448638916016, 2.3875412940979004, 0.01261279359459877, -8.647085633128881e-05, -9.767721176147461, 0.08068776875734329, -0.00048618929577060044, -1.3005884885787964, -0.839783787727356, -0.9689399600028992, 0.05792625620961189, -0.8923244900792231, -0.8339166091264758, 5.890796926458177, 9362.0, 30146.0, 35388.0, 9362.0, 8.370248794555664, -0.007100414950400591, 0.22561015188694, -0.0007600367534905672, -0.10981205850839615, -0.051700472831726074, 0.993319571018219, -0.06384744495153427, -0.1650371551513672, 1.482421875, 1.376220703125, 0.0222930908203125, 1.49267578125, 1.43408203125, 10.0, 1.0, 10.0, 1.4297363758087158
16618, 0.06860192865133286, -1.3352630138397217, 2.386748790740967, 0.01261279359459877, -8.647085633128881e-05, -9.767721176147461, 0.08068776875734329, -0.00048618929577060044, -1.3005884885787964, -0.8397684097290039, -0.9689449667930603, 0.057922106236219406, -0.897725740270796, -0.8263297857852763, 5.889444939850619, 9362.0, 30146.0, 35388.0, 9362.0, 8.370248794555664, -0.007100414950400591, 0.22561015188694, -0.0007600367534905672, -0.11022458225488663, -0.05269250646233559, 0.9951329827308655, -0.06384744495153427, -0.1650371551513672, 1.482421875, 1.376220703125, 0.0222930908203125, 1.49267578125, 1.43408203125, 10.0, 1.0, 10.0, 1.429624080657959
16628, 0.06904945522546768, -1.337277889251709, 2.387268543243408, 0.01261279359459877, -8.647085633128881e-05, -9.767721176147461, 0.08068776875734329, -0.00048618929577060044, -1.3005884885787964, -0.8397755026817322, -0.968930721282959, 0.057938121259212494, -0.8950611604133784, -0.832413846506995, 5.8900955378239015, 9362.0, 30146.0, 35388.0, 9362.0, 8.370248794555664, -0.006403164938092232, 0.18108929693698883, 0.3364444375038147, -0.11022458225488663, -0.05269250646233559, 0.9951329827308655, -0.06384744495153427, -0.1650371551513672, 1.482421875, 1.376220703125, 0.0222930908203125, 1.49267578125, 1.43408203125, 10.0, 1.0, 10.0, 1.4295032024383545
16638, 0.0687786266207695, -1.3392561674118042, 2.388500690460205, 0.01261279359459877, -8.647085633128881e-05, -9.767721176147461, 0.08068776875734329, -0.00048618929577060044, -1.3005884885787964, -0.8397860527038574, -0.9689298868179321, 0.05791982263326645, -0.893497134359109, -0.8232666983429624, 5.889618684266679, 9362.0, 30146.0, 35388.0, 9362.0, 8.370248794555664, 0.3079923093318939, 0.07302262634038925, 0.14412198960781097, -0.11022458225488663, -0.05269250646233559, 0.9951329827308655, -0.06384744495153427, -0.1650371551513672, 1.482421875, 1.376220703125, 0.0222930908203125, 1.49267578125, 1.43408203125, 10.0, 1.0, 10.0, 1.4292229413986206
16648, 0.0702919065952301, -1.3410155773162842, 2.3881442546844482, 0.01261279359459877, -8.647085633128881e-05, -9.767721176147461, 0.08068776875734329, -0.00048618929577060044, -1.3005884885787964, -0.8397760391235352, -0.9689255356788635, 0.05792703852057457, -0.8952385395934128, -0.8289521259155492, 5.8895339642744915, 9362.0, 30146.0, 35388.0, 9362.0, 8.370248794555664, 0.3079923093318939, 0.07302262634038925, 0.14412198960781097, -0.10941610485315323, -0.05193711072206497, 0.9929454326629639, -0.06384744495153427, -0.1650371551513672, 1.482421875, 1.40771484375, 0.0478363037109375, 1.49267578125, 1.43408203125, 10.0, 1.0, 10.0, 1.4290889501571655
16658, 0.06977272033691406, -1.3416472673416138, 2.3870692253112793, 0.01261279359459877, -8.647085633128881e-05, -9.767721176147461, 0.08068776875734329, -0.00048618929577060044, -1.3005884885787964, -0.8397821187973022, -0.96893709897995, 0.05792184919118881, -0.8926095222743694, -0.8289968986435099, 5.893451777382867, 9362.0, 30146.0, 35388.0, 9362.0, 8.370248794555664, -0.14337114989757538, -0.05579797551035881, 0.025313926860690117, -0.10941610485315323, -0.05193711072206497, 0.9929454326629639, -0.06384744495153427, -0.1650371551513672, 1.482421875, 1.44873046875, 0.102813720703125, 1.49267578125, 1.43408203125, 10.0, 1.0, 10.0, 1.4292021989822388
16668, 0.06893250346183777, -1.342846155166626, 2.386462450027466, 0.01261279359459877, -8.647085633128881e-05, -9.767721176147461, 0.08068776875734329, -0.00048618929577060044, -1.3005884885787964, -0.8397774696350098, -0.9689298868179321, 0.05792403966188431, -0.891394693090857, -0.8304765466619983, 5.886403303302053, 9362.0, 30146.0, 35388.0, 9362.0, 8.370248794555664, -0.14337114989757538, -0.05579797551035881, 0.025313926860690117, -0.10941610485315323, -0.05193711072206497, 0.9929454326629639, -0.06384744495153427, -0.1650371551513672, 1.482421875, 1.44873046875, 0.102813720703125, 1.49560546875, 1.43408203125, 10.0, 1.0, 10.0, 1.429283618927002
16678, 0.06836553663015366, -1.3432077169418335, 2.386262893676758, 0.01261279359459877, -8.647085633128881e-05, -9.767721176147461, 0.08068776875734329, -0.00048618929577060044, -1.3005884885787964, -0.8397881388664246, -0.9689233303070068, 0.05792597681283951, -0.8934740561686332, -0.8231097179959761, 5.8905640337714, 9362.0, 30146.0, 35388.0, 9362.0, 8.370248794555664, 0.21667912602424622, -0.25830936431884766, 0.00205851998180151, -0.11033178120851517, -0.050520166754722595, 0.9921252131462097, -0.06384744495153427, -0.1650371551513672, 1.482421875, 1.443603515625, 0.0948486328125, 1.49560546875, 1.43408203125, 10.0, 1.0, 10.0, 1.429283618927002
16688, 0.06878652423620224, -1.342927098274231, 2.3867483139038086, 0.01261279359459877, -8.647085633128881e-05, -9.767721176147461, 0.08068776875734329, -0.00048618929577060044, -1.3005884885787964, -0.8397889137268066, -0.9689394235610962, 0.057934440672397614, -0.8966121348393711, -0.8317097671304339, 5.886941086649643, 9362.0, 30146.0, 35388.0, 9362.0, 8.370248794555664, 0.019916025921702385, 0.24191249907016754, 0.15246830880641937, -0.10882242023944855, -0.05164181813597679, 0.9933332204818726, -0.06384744495153427, -0.1650371551513672, 1.482421875, 1.443603515625, 0.0948486328125, 1.49560546875, 1.43408203125, 10.0, 1.0, 10.0, 1.429283618927002
16708, 0.06871195882558823, -1.3445850610733032, 2.3898918628692627, 0.01261279359459877, -8.647085633128881e-05, -9.767721176147461, 0.08068776875734329, -0.00048618929577060044, -1.3005884885787964, -0.839741587638855, -0.9689421057701111, 0.057970527559518814, -0.9202238281312596, -0.8050926352764805, 5.903625197752827, 9362.0, 30146.0, 35388.0, 9362.0, 8.370248794555664, -0.07171350717544556, -0.1475461721420288, 0.12171569466590881, -0.11176268011331558, -0.05333952605724335, 0.9934173226356506, -0.05389539152383804, -0.03959846496582031, 1.49267578125, 1.443603515625, 0.0948486328125, 1.49560546875, 1.43408203125, 10.0, 1.0, 10.0, 1.429283618927002
16718, 0.06841167062520981, -1.3444198369979858, 2.391676425933838, 0.01261279359459877, -8.647085633128881e-05, -9.767721176147461, 0.08068776875734329, -0.00048618929577060044, -1.3005884885787964, -0.8397859334945679, -0.9689324498176575, 0.057923030108213425, -0.8985890310217761, -0.822036065431206, 5.8913991035403885, 9362.0, 30146.0, 35388.0, 9362.0, 8.370248794555664, -0.1147366389632225, 0.11115378141403198, 0.09643746167421341, -0.11176268011331558, -0.05333952605724335, 0.9934173226356506, -0.05389539152383804, -0.03959846496582031, 1.49267578125, 1.443603515625, 0.0948486328125, 1.49560546875, 1.43408203125, 10.0, 1.0, 10.0, 1.4289367198944092
16728, 0.06840015947818756, -1.345336675643921, 2.3922274112701416, 0.01261279359459877, -8.647085633128881e-05, -9.767721176147461, 0.08068776875734329, -0.00048618929577060044, -1.3005884885787964, -0.8397953510284424, -0.9689237475395203, 0.0579100027680397, -0.897393912770281, -0.8229807135635951, 5.887147178315944, 9362.0, 30146.0, 35388.0, 9362.0, 8.370248794555664, 0.04921453818678856, 0.14097672700881958, 0.228065624833107, -0.11176268011331558, -0.05333952605724335, 0.9934173226356506, -0.05389539152383804, -0.03959846496582031, 1.49267578125, 1.443603515625, 0.0948486328125, 1.4912109375, 1.43408203125, 10.0, 1.0, 10.0, 1.4289851188659668
16738, 0.06885045766830444, -1.3465323448181152, 2.3938064575195312, 0.01261279359459877, -8.647085633128881e-05, -9.767721176147461, 0.08068776875734329, -0.00048618929577060044, -1.3005884885787964, -0.8397945761680603, -0.968938410282135, 0.057927411049604416, -0.8936032838867644, -0.8230590064591752, 5.892596684342377, 9362.0, 30146.0, 35388.0, 9362.0, 8.370248794555664, -0.022546004503965378, 0.1081579253077507, 0.09992554038763046, -0.11176268011331558, -0.05333952605724335, 0.9934173226356506, -0.05389539152383804, -0.03959846496582031, 1.49267578125, 1.443603515625, 0.0948486328125, 1.4912109375, 1.43408203125, 10.0, 1.0, 10.0, 1.4289851188659668
16748, 0.06863151490688324, -1.346727967262268, 2.3950555324554443, 0.01261279359459877, -8.647085633128881e-05, -9.767721176147461, 0.08068776875734329, -0.00048618929577060044, -1.3005884885787964, -0.8397916555404663, -0.9689233899116516, 0.05793483555316925, -0.8935264022115903, -0.8243455455146034, 5.89703633032945, 9362.0, 30146.0, 35388.0, 9362.0, 8.370248794555664, 0.03858819231390953, -0.2497389018535614, -0.1572328805923462, -0.11176268011331558, -0.05333952605724335, 0.9934173226356506, -0.05389539152383804, -0.03959846496582031, 1.49267578125, 1.443603515625, 0.0948486328125, 1.494873046875, 1.43408203125, 10.0, 1.0, 10.0, 1.4289851188659668
16758, 0.06959451735019684, -1.344649314880371, 2.3943190574645996, 0.01261279359459877, -8.647085633128881e-05, -9.767721176147461, 0.08068776875734329, -0.00048618929577060044, -1.3005884885787964, -0.8397840261459351, -0.9689303040504456, 0.05795227736234665, -0.8915689567579799, -0.8253822702321258, 5.891772284680193, 9362.0, 30146.0, 35388.0, 9362.0, 8.370248794555664, -0.22212356328964233, -0.1688217967748642, -0.14165553450584412, -0.11030378192663193, -0.051198333501815796, 0.9920962452888489, -0.05389539152383804, -0.03959846496582031, 1.49267578125, 1.4033203125, 0.043182373046875, 1.494873046875, 1.43408203125, 10.0, 1.0, 10.0, 1.4289851188659668
16768, 0.06841026246547699, -1.3433810472488403, 2.392961025238037, 0.01261279359459877, -8.647085633128881e-05, -9.767721176147461, 0.08068776875734329, -0.00048618929577060044, -1.3005884885787964, -0.839787483215332, -0.9689331650733948, 0.05794542282819748, -0.8974418079860645, -0.8190428462221746, 5.890316537731726, 9362.0, 30146.0, 35388.0, 9362.0, 8.370248794555664, 0.03285741060972214, -0.0760917067527771, 0.18025659024715424, -0.11030378192663193, -0.051198333501815796, 0.9920962452888489, -0.05389539152383804, -0.03959846496582031, 1.49267578125, 1.4033203125, 0.043182373046875, 1.494873046875, 1.43408203125, 10.0, 1.0, 10.0, 1.4289851188659668
16778, 0.06771176308393478, -1.3416342735290527, 2.394845962524414, 0.01261279359459877, -8.647085633128881e-05, -9.767721176147461, 0.08068776875734329, -0.00048618929577060044, -1.3005884885787964, -0.8397517800331116, -0.9689541459083557, 0.057944681495428085, -0.9106155755402594, -0.8047211736223403, 5.9045194287292775, 9362.0, 30146.0, 35388.0, 9362.0, 8.370248794555664, -0.05701874569058418, -0.1933564841747284, -0.26007193326950073, -0.11054780334234238, -0.052994247525930405, 0.9951896667480469, -0.05389539152383804, -0.03959846496582031, 1.49267578125, 1.36962890625, 0.01910400390625, 1.494873046875, 1.43408203125, 10.0, 1.0, 10.0, 1.4289851188659668
16788, 0.06718520820140839, -1.3396703004837036, 2.3933324813842773, 0.01261279359459877, -8.647085633128881e-05, -9.767721176147461, 0.08068776875734329, -0.00048618929577060044, -1.3005884885787964, -0.8397875428199768, -0.9689223170280457, 0.05792806297540665, -0.8880212429587973, -0.8223179430700611, 5.889557520312498, 9362.0, 30146.0, 35388.0, 9362.0, 8.370248794555664, 0.05031735822558403, 0.36565640568733215, 0.0707562193274498, -0.11054780334234238, -0.052994247525930405, 0.9951896667480469, -0.05389539152383804, -0.03959846496582031, 1.49267578125, 1.36962890625, 0.01910400390625, 1.494873046875, 1.43408203125, 10.0, 1.0, 10.0, 1.4292402267456055
16808, 0.06792820245027542, -1.3417965173721313, 2.395418882369995, 0.03587368130683899, -0.00024637868045829237, -10.055460929870605, 0.13088595867156982, -0.0009633577428758144, -1.3152786493301392, -0.8397321701049805, -0.9689640402793884, 0.05797988921403885, -0.9072156481458888, -0.7977104479858781, 5.899542300637603, 9362.0, 30146.0, 35388.0, 9362.0, 8.370248794555664, 0.08531872183084488, 0.3669107258319855, 0.281892329454422, -0.11088535189628601, -0.05197279155254364, 0.9930543303489685, -0.07629669457674026, -0.030637741088867188, 1.493408203125, 1.36962890625, 0.01910400390625, 1.493408203125, 1.43408203125, 10.0, 1.0, 10.0, 1.4292402267456055
16818, 0.06722615659236908, -1.3428081274032593, 2.3975369930267334, 0.03587368130683899, -0.00024637868045829237, -10.055460929870605, 0.13088595867156982, -0.0009633577428758144, -1.3152786493301392, -0.8397854566574097, -0.9689475893974304, 0.05794767662882805, -0.8868881447321368, -0.8218721904437132, 5.8894135715088325, 9362.0, 30146.0, 35388.0, 9362.0, 8.370248794555664, 0.21113698184490204, 0.2785745859146118, -0.47239649295806885, -0.10961373895406723, -0.051730573177337646, 0.9948649406433105, -0.07629669457674026, -0.030637741088867188, 1.493408203125, 1.4208984375, 0.063079833984375, 1.493408203125, 1.43408203125, 10.0, 1.0, 10.0, 1.4292402267456055
16828, 0.06787052005529404, -1.3425076007843018, 2.395098924636841, 0.03587368130683899, -0.00024637868045829237, -10.055460929870605, 0.13088595867156982, -0.0009633577428758144, -1.3152786493301392, -0.8397889137268066, -0.9689429998397827, 0.057951997965574265, -0.8896285485490179, -0.820996941037663, 5.88313787444297, 9362.0, 30146.0, 35388.0, 9362.0, 8.370248794555664, 0.21113698184490204, 0.2785745859146118, -0.47239649295806885, -0.10961373895406723, -0.051730573177337646, 0.9948649406433105, -0.07629669457674026, -0.030637741088867188, 1.493408203125, 1.4208984375, 0.063079833984375, 1.493408203125, 1.43408203125, 10.0, 1.0, 10.0, 1.4290319681167603
16838, 0.06762286275625229, -1.3400496244430542, 2.3942344188690186, 0.03587368130683899, -0.00024637868045829237, -10.055460929870605, 0.13088595867156982, -0.0009633577428758144, -1.3152786493301392, -0.8397879004478455, -0.9689476490020752, 0.05796173959970474, -0.8850227086718577, -0.8215468815076292, 5.88647773520253, 9362.0, 30146.0, 35388.0, 9362.0, 8.370248794555664, 0.02459799312055111, -0.033990759402513504, -0.2119525969028473, -0.111603282392025, -0.05169399082660675, 0.9953572750091553, -0.07629669457674026, -0.030637741088867188, 1.493408203125, 1.376953125, 0.0225982666015625, 1.493408203125, 1.43408203125, 10.0, 1.0, 10.0, 1.4290319681167603
16848, 0.06823217123746872, -1.3401124477386475, 2.3930158615112305, 0.03587368130683899, -0.00024637868045829237, -10.055460929870605, 0.13088595867156982, -0.0009633577428758144, -1.3152786493301392, -0.8397818803787231, -0.9689528942108154, 0.057953305542469025, -0.882961890771003, -0.8283425894489937, 5.890317980395288, 9362.0, 30146.0, 35388.0, 9362.0, 8.370248794555664, 0.009558279998600483, -0.16389495134353638, -0.1746501922607422, -0.10851288586854935, -0.05073057487607002, 0.9946179389953613, -0.07629669457674026, -0.030637741088867188, 1.493408203125, 1.376953125, 0.0225982666015625, 1.493408203125, 1.43408203125, 10.0, 1.0, 10.0, 1.4290319681167603
16858, 0.06872058659791946, -1.339705467224121, 2.391476631164551, 0.04413798078894615, -0.0003077300207223743, -10.134492874145508, 0.1445956528186798, -0.0010817148722708225, -1.3190327882766724, -0.8397884368896484, -0.9689512252807617, 0.057941634207963943, -0.8834022423441205, -0.8255176180806814, 5.891069567508087, 9362.0, 30146.0, 35388.0, 9362.0, 8.370248794555664, 0.13138578832149506, -0.21426668763160706, -0.2541084289550781, -0.10851288586854935, -0.05073057487607002, 0.9946179389953613, -0.07629669457674026, -0.030637741088867188, 1.493408203125, 1.376953125, 0.0225982666015625, 1.493408203125, 1.43408203125, 10.0, 1.0, 10.0, 1.4290319681167603
16868, 0.06930864602327347, -1.3389171361923218, 2.390082359313965, 0.04413798078894615, -0.0003077300207223743, -10.134492874145508, 0.1445956528186798, -0.0010817148722708225, -1.3190327882766724, -0.8397945761680603, -0.9689516425132751, 0.057938266545534134, -0.879053364992699, -0.823608843337837, 5.894208400452981, 9362.0, 30146.0, 35388.0, 9362.0, 8.370248794555664, -0.10761411488056183, -0.10525050759315491, 0.1316869705915451, -0.10851288586854935, -0.05073057487607002, 0.9946179389953613, -0.07629669457674026, -0.030637741088867188, 1.493408203125, 1.42236328125, 0.0649566650390625, 1.493408203125, 1.43408203125, 10.0, 1.0, 10.0, 1.429024577140808
16878, 0.06944292783737183, -1.3372292518615723, 2.3914878368377686, 0.0470755435526371, -0.0003297853982076049, -10.16088581085205, 0.1491580754518509, -0.001124309259466827, -1.3204206228256226, -0.839789628982544, -0.9689536690711975, 0.05795565992593765, -0.880878801809679, -0.8245775849645725, 5.8960017149566655, 9362.0, 30146.0, 35388.0, 9362.0, 8.370248794555664, 0.12383090704679489, 0.4548877775669098, 0.23039667308330536, -0.10851288586854935, -0.05073057487607002, 0.9946179389953613, -0.07629669457674026, -0.030637741088867188, 1.493408203125, 1.42236328125, 0.0649566650390625, 1.493408203125, 1.43408203125, 10.0, 1.0, 10.0, 1.429024577140808
16888, 0.06993010640144348, -1.3403599262237549, 2.392239570617676, 0.0470755435526371, -0.0003297853982076049, -10.16088581085205, 0.1491580754518509, -0.001124309259466827, -1.3204206228256226, -0.8397822976112366, -0.9689485430717468, 0.057952579110860825, -0.8806881746691501, -0.828008314682819, 5.890360093293042, 9362.0, 30146.0, 35388.0, 9362.0, 8.370248794555664, 0.007333075627684593, 0.2832081615924835, 0.21081267297267914, -0.10791455954313278, -0.05162918195128441, 0.9943625926971436, -0.07629669457674026, -0.030637741088867188, 1.493408203125, 1.433349609375, 0.0797576904296875, 1.494140625, 1.43408203125, 10.0, 1.0, 10.0, 1.429024577140808
16908, 0.0702674388885498, -1.3418594598770142, 2.3934381008148193, 0.0470755435526371, -0.0003297853982076049, -10.16088581085205, 0.1491580754518509, -0.001124309259466827, -1.3204206228256226, -0.8397971987724304, -0.9689509868621826, 0.057951442897319794, -0.8870333114615252, -0.827242191338911, 5.8987265557160535, 9362.0, 30146.0, 35388.0, 9362.0, 8.370248794555664, -0.1112397238612175, -0.38707560300827026, 0.25259891152381897, -0.10864141583442688, -0.050410691648721695, 0.9916396141052246, -0.04102194309234619, 0.023120880126953125, 1.497802734375, 1.433349609375, 0.0797576904296875, 1.5, 1.43408203125, 10.0, 1.0, 10.0, 1.429024577140808
16918, 0.06903187185525894, -1.341222882270813, 2.3956334590911865, 0.05322413146495819, -0.00037660609814338386, -10.213761329650879, 0.15827521681785583, -0.001217811950482428, -1.3234199285507202, -0.8398035764694214, -0.968940019607544, 0.05794178694486618, -0.8833774869393236, -0.8242182954038526, 5.8962843704952075, 9362.0, 30146.0, 35388.0, 9362.0, 8.370248794555664, -0.2691424489021301, 0.044510405510663986, 0.09637262672185898, -0.10864141583442688, -0.050410691648721695, 0.9916396141052246, -0.04102194309234619, 0.023120880126953125, 1.497802734375, 1.433349609375, 0.0797576904296875, 1.5, 1.43408203125, 10.0, 1.0, 10.0, 1.4294703006744385
16928, 0.06736352294683456, -1.3397924900054932, 2.3965556621551514, 0.05322413146495819, -0.00037660609814338386, -10.213761329650879, 0.15827521681785583, -0.001217811950482428, -1.3234199285507202, -0.8398003578186035, -0.9689511060714722, 0.05794663354754448, -0.8902130688164182, -0.8272273665945704, 5.896562440572068, 9362.0, 30146.0, 35388.0, 9362.0, 8.370248794555664, 0.04149627685546875, 0.02174050360918045, 0.0349511057138443, -0.10969360917806625, -0.05081732198596001, 0.9913169145584106, -0.04102194309234619, 0.023120880126953125, 1.497802734375, 1.4033203125, 0.043182373046875, 1.5, 1.43408203125, 10.0, 1.0, 10.0, 1.4294703006744385
16938, 0.06671467423439026, -1.3408929109573364, 2.3978829383850098, 0.05643526837229729, -0.00040143239311873913, -10.240245819091797, 0.162838876247406, -0.0012637393083423376, -1.3249998092651367, -0.8397945761680603, -0.9689433574676514, 0.05794713273644447, -0.8881535167129477, -0.8250354030830067, 5.892654166068033, 9362.0, 30146.0, 35388.0, 9362.0, 8.370248794555664, -0.17105217278003693, -0.1704513430595398, 0.06271972507238388, -0.10969360917806625, -0.05081732198596001, 0.9913169145584106, -0.04102194309234619, 0.023120880126953125, 1.497802734375, 1.4033203125, 0.043182373046875, 1.5, 1.43408203125, 10.0, 1.0, 10.0, 1.4294703006744385
16948, 0.0651882067322731, -1.3404669761657715, 2.398712158203125, 0.05643526837229729, -0.00040143239311873913, -10.240245819091797, 0.162838876247406, -0.0012637393083423376, -1.3249998092651367, -0.8397880792617798, -0.9689445495605469, 0.057959917932748795, -0.8867766779229241, -0.8217034261959384, 5.898556667655127, 9362.0, 30146.0, 35388.0, 9362.0, 8.370248794555664, -0.01942073553800583, 0.157502681016922, 0.16656044125556946, -0.10969360917806625, -0.05081732198596001, 0.9913169145584106, -0.04102194309234619, 0.023120880126953125, 1.497802734375, 1.4033203125, 0.043182373046875, 1.496337890625, 1.43408203125, 10.0, 1.0, 10.0, 1.4294703006744385
16958, 0.06418067961931229, -1.3408467769622803, 2.399277448654175, 0.05643526837229729, -0.00040143239311873913, -10.240245819091797, 0.162838876247406, -0.0012637393083423376, -1.3249998092651367, -0.8397970795631409, -0.968940258026123, 0.05794396251440048, -0.8919541324469303, -0.8277988231982647, 5.892800924474538, 9362.0, 30146.0, 35388.0, 9362.0, 8.370248794555664, -0.01942073553800583, 0.157502681016922, 0.16656044125556946, -0.10969360917806625, -0.05081732198596001, 0.9913169145584106, -0.04102194309234619, 0.023120880126953125, 1.497802734375, 1.435546875, 0.0829315185546875, 1.496337890625, 1.43408203125, 10.0, 1.0, 10.0, 1.429540991783142
16968, 0.06365916877985, -1.3417659997940063, 2.3992960453033447, 0.05643526837229729, -0.00040143239311873913, -10.240245819091797, 0.162838876247406, -0.0012637393083423376, -1.3249998092651367, -0.8397998213768005, -0.9689347743988037, 0.05794324725866318, -0.8872030590963426, -0.8230067055331176, 5.893273893362557, 9362.0, 30146.0, 35388.0, 9362.0, 8.370248794555664, -0.07432299852371216, -0.18526560068130493, 0.1249215230345726, -0.10969360917806625, -0.05081732198596001, 0.9913169145584106, -0.04102194309234619, 0.023120880126953125, 1.497802734375, 1.4384765625, 0.0871429443359375, 1.496337890625, 1.43408203125, 10.0, 1.0, 10.0, 1.429540991783142
16978, 0.062363605946302414, -1.3400777578353882, 2.399738073348999, 0.05643526837229729, -0.00040143239311873913, -10.240245819091797, 0.162838876247406, -0.0012637393083423376, -1.3249998092651367, -0.8397549986839294, -0.9689627289772034, 0.057973772287368774, -0.9160687464033824, -0.8057288879472821, 5.904754054924823, 9362.0, 30146.0, 35388.0, 9362.0, 8.370248794555664, -0.07432299852371216, -0.18526560068130493, 0.1249215230345726, -0.11183063685894012, -0.0528368316590786, 0.9939631819725037, -0.04102194309234619, 0.023120880126953125, 1.497802734375, 1.43701171875, 0.085052490234375, 1.496337890625, 1.43408203125, 10.0, 1.0, 10.0, 1.4293746948242188
16988, 0.060984935611486435, -1.342516541481018, 2.402048110961914, 0.05643526837229729, -0.00040143239311873913, -10.240245819091797, 0.162838876247406, -0.0012637393083423376, -1.3249998092651367, -0.8397984504699707, -0.9689365029335022, 0.05793891102075577, -0.8931195614036388, -0.8221983383142231, 5.897698169449922, 9362.0, 30146.0, 35388.0, 9362.0, 8.370248794555664, -0.07432299852371216, -0.18526560068130493, 0.1249215230345726, -0.11183063685894012, -0.0528368316590786, 0.9939631819725037, -0.04102194309234619, 0.023120880126953125, 1.497802734375, 1.43701171875, 0.085052490234375, 1.496337890625, 1.43408203125, 10.0, 1.0, 10.0, 1.4292798042297363
16998, 0.06064031645655632, -1.3446550369262695, 2.4035069942474365, 0.05643526837229729, -0.00040143239311873913, -10.240245819091797, 0.162838876247406, -0.0012637393083423376, -1.3249998092651367, -0.8398019075393677, -0.9689363241195679, 0.05793260782957077, -0.8910679921684974, -0.8211992899178995, 5.899079035862196, 9362.0, 30146.0, 35388.0, 9362.0, 8.370248794555664, -0.17010419070720673, 0.042359232902526855, -0.16320383548736572, -0.11183063685894012, -0.0528368316590786, 0.9939631819725037, -0.061555441468954086, -0.07543754577636719, 1.48974609375, 1.4384765625, 0.0871429443359375, 1.496337890625, 1.43408203125, 10.0, 1.0, 10.0, 1.4292798042297363
17008, 0.06041621416807175, -1.3450978994369507, 2.402177333831787, 0.05643526837229729, -0.00040143239311873913, -10.240245819091797, 0.162838876247406, -0.0012637393083423376, -1.3249998092651367, -0.8398010730743408, -0.9689426422119141, 0.057940464466810226, -0.8924836241209889, -0.8225611590826816, 5.892533402851668, 9362.0, 30146.0, 35388.0, 9362.0, 8.370248794555664, 0.27021366357803345, -0.07558712363243103, -0.02203795313835144, -0.10924075543880463, -0.05314880982041359, 0.9930906891822815, -0.061555441468954086, -0.07543754577636719, 1.48974609375, 1.4384765625, 0.0871429443359375, 1.496337890625, 1.43408203125, 10.0, 1.0, 10.0, 1.4292798042297363
17018, 0.06244037300348282, -1.3448331356048584, 2.4010446071624756, 0.07019320130348206, -0.0005074514192529023, -10.346446990966797, 0.18111996352672577, -0.0013680480187758803, -1.3299472332000732, -0.8397460579872131, -0.9689551591873169, 0.05797876790165901, -0.9141343413334597, -0.7993915612782132, 5.908331591641987, 9362.0, 30146.0, 35388.0, 9362.0, 8.370248794555664, 0.020341696217656136, 0.08059661090373993, -0.25887084007263184, -0.10845590382814407, -0.053322989493608475, 0.9941283464431763, -0.061555441468954086, -0.07543754577636719, 1.48974609375, 1.4384765625, 0.0871429443359375, 1.496337890625, 1.43408203125, 10.0, 1.0, 10.0, 1.4292798042297363
17028, 0.06392369419336319, -1.3460197448730469, 2.4004998207092285, 0.07019320130348206, -0.0005074514192529023, -10.346446990966797, 0.18111996352672577, -0.0013680480187758803, -1.3299472332000732, -0.8397909998893738, -0.9689491391181946, 0.057939205318689346, -0.8921504054065552, -0.8298372627012043, 5.904459304624918, 9362.0, 30146.0, 35388.0, 9362.0, 8.370248794555664, 0.020341696217656136, 0.08059661090373993, -0.25887084007263184, -0.10845590382814407, -0.053322989493608475, 0.9941283464431763, -0.061555441468954086, -0.07543754577636719, 1.48974609375, 1.4384765625, 0.0871429443359375, 1.496337890625, 1.43408203125, 10.0, 1.0, 10.0, 1.4292798042297363
17038, 0.06578655540943146, -1.3461644649505615, 2.4028167724609375, 0.07386140525341034, -0.0005349658895283937, -10.373059272766113, 0.18570102751255035, -0.0013851638650521636, -1.3312309980392456, -0.8398087620735168, -0.9689416885375977, 0.05793376266956329, -0.887139096345469, -0.8276447296985907, 5.897374052566761, 9362.0, 30146.0, 35388.0, 9362.0, 8.370248794555664, 0.12183402478694916, 0.05922917649149895, -0.19310824573040009, -0.10967370867729187, -0.05174274370074272, 0.9932537078857422, -0.061555441468954086, -0.07543754577636719, 1.48974609375, 1.4384765625, 0.0871429443359375, 1.496337890625, 1.43408203125, 10.0, 1.0, 10.0, 1.4292453527450562
17048, 0.06752198934555054, -1.3471311330795288, 2.4022068977355957, 0.07386140525341034, -0.0005349658895283937, -10.373059272766113, 0.18570102751255035, -0.0013851638650521636, -1.3312309980392456, -0.8397968411445618, -0.9689447283744812, 0.05794527754187584, -0.892188728169167, -0.8254768214374053, 5.887126471567822, 9362.0, 30146.0, 35388.0, 9362.0, 8.370248794555664, 0.39408794045448303, 0.04368066042661667, -0.06346479803323746, -0.10967370867729187, -0.05174274370074272, 0.9932537078857422, -0.061555441468954086, -0.07543754577636719, 1.48974609375, 1.4384765625, 0.0871429443359375, 1.494140625, 1.43408203125, 10.0, 1.0, 10.0, 1.4292453527450562
17058, 0.07145620882511139, -1.3475892543792725, 2.4013617038726807, 0.07386140525341034, -0.0005349658895283937, -10.373059272766113, 0.18570102751255035, -0.0013851638650521636, -1.3312309980392456, -0.8397835493087769, -0.9689465165138245, 0.057949844747781754, -0.8887314865705256, -0.8252431344194235, 5.895649880412569, 9362.0, 30146.0, 35388.0, 9362.0, 8.370248794555664, 0.03129103407263756, 0.23570191860198975, 0.021090636029839516, -0.10967370867729187, -0.05174274370074272, 0.9932537078857422, -0.061555441468954086, -0.07543754577636719, 1.48974609375, 1.417236328125, 0.058624267578125, 1.494140625, 1.43408203125, 10.0, 1.0, 10.0, 1.429197907447815
