timeTick, roll, pitch, yaw, stateX, stateY, stateZ, stateVX, stateVY, stateVZ, otX0, otY0, otZ0, otRoll0, otPitch0, otYaw0, left wing, pitch motor, yaw motor, right wing, voltage, roll rate, pitch rate, yaw rate, A_x, A_y, A_z, current, i_raw, v_raw, airflow_voltage, airflow_speed, pot_Pitch, voltage_nKF, kFFx, state, State, volt_KF
24686, 1.1108171939849854, 0.23245970904827118, 0.2562355399131775, 0, 0, 0, 0, 0, 0, -0.8287599086761475, -1.0022783279418945, 0.0560811348259449, 0.053158432032321186, -0.1529555776283189, 4.2994761759624796, 0, 0, 0, 0, 0, 0, 0, 0, 0, 0, 0, 0, 0, 0, 0, 0, 0, 0, 0, 0, 0, 0
24696, 1.110742449760437, 0.23322290182113647, 0.25502732396125793, 6.653710443060845e-05, 0.00032677751732990146, -8.170673370361328, 0.0016368759097531438, 0.008052796125411987, -0.7094129920005798, -0.8287659287452698, -1.0022677183151245, 0.056065354496240616, 0.05552304901978577, -0.14694302990781694, 4.301959865751258, 9362.0, 30146.0, 35388.0, 9362.0, 0, -0.010662462562322617, 0.21245445311069489, 0.062423113733530045, -0.09477617591619492, -0.030928730964660645, 0.9955059289932251, 0, 0, 0, 1.36962890625, 0.01910400390625, 0, 0, 0, 0, 0, 0
24706, 1.1100789308547974, 0.23169077932834625, 0.2560252845287323, 8.096814417513087e-05, 0.0003978337626904249, -8.177769660949707, 0.0012492988025769591, 0.006158457603305578, -0.7099059820175171, -0.8287715911865234, -1.0022623538970947, 0.05609559640288353, 0.05858137771204504, -0.1477918294660583, 4.293463179212348, 9362.0, 30146.0, 35388.0, 9362.0, 0, 0.1333533525466919, -0.3919995427131653, -0.20144779980182648, -0.09387705475091934, -0.028721097856760025, 0.995251476764679, 0, 0, 0, 1.38720703125, 0.0291900634765625, 1.48828125, 1.383544921875, 10.0, 1.0, 10.0, 1.3833584785461426
24716, 1.1107240915298462, 0.23325839638710022, 0.2552536427974701, 9.151570702670142e-05, 0.00044994239578954875, -8.184870719909668, 0.00086023606127128, 0.004263254813849926, -0.7103486061096191, -0.8287619352340698, -1.0022679567337036, 0.05605210363864899, 0.05156210239654293, -0.1462763522389423, 4.294076620633692, 9362.0, 30146.0, 35388.0, 9362.0, 0, -0.14570964872837067, 0.06211100518703461, 0.0031412234529852867, -0.09513796865940094, -0.030290167778730392, 0.9950236678123474, 0, 0, 0, 1.364501953125, 0.0173492431640625, 1.48828125, 1.3828125, 10.0, 1.0, 10.0, 1.3833568096160889
24726, 1.1100066900253296, 0.23287546634674072, 0.25457853078842163, 9.818749822443351e-05, 0.00048311278806068003, -8.191976547241211, 0.0004741112352348864, 0.002370836678892374, -0.7108751535415649, -0.8287604451179504, -1.0022672414779663, 0.056072790175676346, 0.055552158539466365, -0.1482788588476467, 4.299338484062051, 9362.0, 30146.0, 35388.0, 9362.0, 0, 0.29289647936820984, -0.025956960394978523, -0.043597426265478134, -0.09509516507387161, -0.030952654778957367, 0.9946324229240417, 0, 0, 0, 1.40478515625, 0.0446624755859375, 1.491943359375, 1.36962890625, 10.0, 1.0, 10.0, 1.3833134174346924
24736, 1.1107693910598755, 0.23254215717315674, 0.25395894050598145, 0.00010098383063450456, 0.0004973497707396746, -8.199088096618652, 8.513019565725699e-05, 0.00047655586968176067, -0.7113632559776306, -0.8287693858146667, -1.0022605657577515, 0.05608115717768669, 0.058275801264031785, -0.14440218511074931, 4.295516158662868, 9362.0, 30146.0, 35388.0, 9362.0, 0, -0.048391107469797134, -0.17216856777668, -0.19006353616714478, -0.0970723107457161, -0.03294721245765686, 0.9961879849433899, 0, 0, 0, 1.386474609375, 0.028656005859375, 1.491943359375, 1.377685546875, 10.0, 1.0, 10.0, 1.3832956552505493
24746, 1.1106873750686646, 0.2331979125738144, 0.2520129084587097, 9.989343379857019e-05, 0.0004926499095745385, -8.206204414367676, -0.0003032321692444384, -0.0014165174216032028, -0.7118496298789978, -0.8287581205368042, -1.0022704601287842, 0.056094247847795486, 0.056901937824053464, -0.14426922557808552, 4.2886949473272695, 9362.0, 30146.0, 35388.0, 9362.0, 0, -0.05446835979819298, 0.24209195375442505, 0.3213489353656769, -0.0939844399690628, -0.030386824160814285, 0.9963647127151489, 0, 0, 0, 1.33154296875, 0.0198516845703125, 1.489013671875, 1.3564453125, 10.0, 1.0, 10.0, 1.3832108974456787
24756, 1.110878348350525, 0.23129206895828247, 0.2530871033668518, 9.492034587310627e-05, 0.0004690038622356951, -8.213324546813965, -0.0006914461264386773, -0.0033126811031252146, -0.712243378162384, -0.828837513923645, -1.0022642612457275, 0.055963750928640366, 0.06436770605361757, -0.16058531103982432, 4.26868674761887, 9362.0, 30146.0, 35388.0, 9362.0, 0, -0.22973228991031647, -0.29315364360809326, -0.1568828970193863, -0.09553507715463638, -0.030778616666793823, 0.9944553375244141, 0, 0, 0, 1.355712890625, 0.0155029296875, 1.489013671875, 1.39453125, 10.0, 1.0, 10.0, 1.383246660232544
24766, 1.109675645828247, 0.233895942568779, 0.2524401545524597, 8.605921902926639e-05, 0.0004263969894964248, -8.22044849395752, -0.0010807567741721869, -0.0052087013609707355, -0.7126379609107971, -0.8288403153419495, -1.002238392829895, 0.05595743656158447, 0.06444625125675844, -0.16169622028300523, 4.259668381648679, 9362.0, 30146.0, 35388.0, 9362.0, 0, 0.1664528101682663, -0.20998674631118774, -0.12094540894031525, -0.09457311034202576, -0.030181242153048515, 0.9950329065322876, 0, 0, 0, 1.349853515625, 0.015350341796875, 1.489013671875, 1.36669921875, 10.0, 1.0, 10.0, 1.3831944465637207
24776, 1.1105852127075195, 0.2331247180700302, 0.25104856491088867, 7.33246561139822e-05, 0.0003648442216217518, -8.227577209472656, -0.0014661531895399094, -0.007101854775100946, -0.713196337223053, -0.8287836313247681, -1.0022577047348022, 0.05603081360459328, 0.047906914403773704, -0.1289422951808774, 4.281512910372352, 9362.0, 30146.0, 35388.0, 9362.0, 0, 0.04547391086816788, -0.05384325236082077, -0.332542359828949, -0.09302862733602524, -0.02941863238811493, 0.9927216172218323, 0, 0, 0, 1.36083984375, 0.016387939453125, 1.489013671875, 1.3212890625, 10.0, 1.0, 10.0, 1.3829989433288574
24786, 1.1106420755386353, 0.2347298413515091, 0.2494393289089203, 5.6713986850809306e-05, 0.00028437093715183437, -8.234711647033691, -0.0018560349708423018, -0.008992784656584263, -0.7137633562088013, -0.8287736773490906, -1.0021841526031494, 0.05594975873827934, 0.09164016103402789, -0.09281479532000958, 4.237934449403214, 9362.0, 30146.0, 35388.0, 9362.0, 8.390083312988281, -0.13522036373615265, 0.17973874509334564, 0.3641129732131958, -0.0928250327706337, -0.03075101599097252, 0.9930010437965393, -0.0837618038058281, -0.1291980743408203, 1.4853515625, 1.377685546875, 0.023040771484375, 1.49267578125, 1.34912109375, 10.0, 1.0, 10.0, 1.3828920125961304
24796, 1.1099709272384644, 0.2343178391456604, 0.25143179297447205, 3.621393989305943e-05, 0.00018499564612284303, -8.241852760314941, -0.002244008472189307, -0.01088226493448019, -0.7144846320152283, -0.8287853598594666, -1.0021852254867554, 0.055936601012945175, 0.08559774168688457, -0.09088765633237017, 4.245235771672906, 9362.0, 30146.0, 35388.0, 9362.0, 8.390083312988281, -0.1594632863998413, 0.17105159163475037, 0.1169828549027443, -0.09403321146965027, -0.03107861988246441, 0.9951150417327881, -0.0837618038058281, -0.1291980743408203, 1.4853515625, 1.3828125, 0.0261077880859375, 1.49267578125, 1.36962890625, 10.0, 1.0, 10.0, 1.382850170135498
24806, 1.1086843013763428, 0.2349536120891571, 0.251719206571579, 1.1818452549050562e-05, 6.671634037047625e-05, -8.249000549316406, -0.0026350270491093397, -0.012773613445460796, -0.7151161432266235, -0.8288206458091736, -1.002177357673645, 0.055893853306770325, 0.07309511730982798, -0.07979952548663505, 4.2446744878534375, 9362.0, 30146.0, 35388.0, 9362.0, 8.390083312988281, -0.0667116716504097, -0.24058426916599274, 0.009594975039362907, -0.09530665725469589, -0.03164814040064812, 0.9944625496864319, -0.0837618038058281, -0.1291980743408203, 1.4853515625, 1.39599609375, 0.0362701416015625, 1.48974609375, 1.37255859375, 10.0, 1.0, 10.0, 1.3828176259994507
24816, 1.1087709665298462, 0.23692262172698975, 0.2514851987361908, -1.6485419109812938e-05, -7.048046973068267e-05, -8.25615406036377, -0.0030257324688136578, -0.014665765687823296, -0.7156475186347961, -0.8288105726242065, -1.002188801765442, 0.055894698947668076, 0.08140660110227911, -0.07215337957188694, 4.232617923518538, 9362.0, 30146.0, 35388.0, 9362.0, 8.390083312988281, 0.020398307591676712, -0.1976727545261383, -0.14741580188274384, -0.09327472001314163, -0.03259611874818802, 0.9963392019271851, -0.0837618038058281, -0.1291980743408203, 1.4853515625, 1.3623046875, 0.0167999267578125, 1.48974609375, 1.418701171875, 10.0, 1.0, 10.0, 1.3829309940338135
24826, 1.10956871509552, 0.23746399581432343, 0.25233012437820435, -4.8700931074563414e-05, -0.00022658392845187336, -8.263313293457031, -0.003417358733713627, -0.01655491814017296, -0.7162200808525085, -0.8288364410400391, -1.0021830797195435, 0.05585625022649765, 0.06994884920582885, -0.06657305985146422, 4.256209518236935, 9362.0, 30146.0, 35388.0, 9362.0, 8.390083312988281, -0.3148852288722992, 0.04751109704375267, -0.5246865153312683, -0.09447445720434189, -0.031040357425808907, 0.9966687560081482, -0.0837618038058281, -0.1291980743408203, 1.4853515625, 1.389404296875, 0.03082275390625, 1.494140625, 1.404052734375, 10.0, 1.0, 10.0, 1.382997751235962
24836, 1.1088863611221313, 0.23770612478256226, 0.25013166666030884, -8.485408034175634e-05, -0.0004016016609966755, -8.270477294921875, -0.0038132404442876577, -0.01844862289726734, -0.7165663838386536, -0.8288240432739258, -1.0021651983261108, 0.055839650332927704, 0.0695837478990157, -0.06424943186030418, 4.2357210502122795, 9362.0, 30146.0, 35388.0, 9362.0, 8.390083312988281, -0.11945709586143494, -0.04602593556046486, 0.31292712688446045, -0.09322219341993332, -0.030604902654886246, 0.995101273059845, -0.0837618038058281, -0.1291980743408203, 1.4853515625, 1.376953125, 0.0225982666015625, 1.494140625, 1.33740234375, 10.0, 1.0, 10.0, 1.3828537464141846
24846, 1.1088223457336426, 0.23704871535301208, 0.25155046582221985, -0.00012496925774030387, -0.0005955572705715895, -8.277645111083984, -0.0042098648846149445, -0.020342495292425156, -0.7169740200042725, -0.8288161754608154, -1.002165675163269, 0.055856067687273026, 0.07263295060056194, -0.06507760125748518, 4.243555735379772, 9362.0, 30146.0, 35388.0, 9362.0, 8.390083312988281, -0.12217685580253601, -0.3392222225666046, -0.3975900113582611, -0.09169737249612808, -0.03071264922618866, 0.996929407119751, -0.0837618038058281, -0.1291980743408203, 1.4853515625, 1.359375, 0.0160980224609375, 1.497802734375, 1.352783203125, 10.0, 1.0, 10.0, 1.3827587366104126
24856, 1.1086286306381226, 0.23983517289161682, 0.2491856962442398, -0.00016905268421396613, -0.0008084435830824077, -8.28481674194336, -0.004606776870787144, -0.022234778851270676, -0.7174039483070374, -0.8288252949714661, -1.0021827220916748, 0.05584913492202759, 0.07265471022992283, -0.062497896452924806, 4.2391384243809505, 9362.0, 30146.0, 35388.0, 9362.0, 8.390083312988281, -0.08666809648275375, -0.2738664448261261, 0.10120309889316559, -0.09420377016067505, -0.030611898750066757, 0.9948264956474304, -0.0837618038058281, -0.1291980743408203, 1.4853515625, 1.363037109375, 0.0169219970703125, 1.497802734375, 1.376220703125, 10.0, 1.0, 10.0, 1.3827381134033203
24866, 1.1084140539169312, 0.24084948003292084, 0.2489178478717804, -0.00021710092551074922, -0.0010402596089988947, -8.2919921875, -0.0050029330886900425, -0.02412840723991394, -0.7177575826644897, -0.8288112282752991, -1.0021679401397705, 0.055836983025074005, 0.07204169530787853, -0.07067151543469663, 4.247427501502683, 9362.0, 30146.0, 35388.0, 9362.0, 8.390083312988281, 0.005129953846335411, -0.06349737197160721, 0.27362319827079773, -0.09320318698883057, -0.029163874685764313, 0.9959861040115356, -0.0837618038058281, -0.1291980743408203, 1.4853515625, 1.38720703125, 0.0291900634765625, 1.494873046875, 1.38134765625, 10.0, 1.0, 10.0, 1.382733702659607
24876, 1.1075330972671509, 0.24135085940361023, 0.24853117763996124, -0.00026913173496723175, -0.0012909952783957124, -8.299172401428223, -0.005403227172791958, -0.026018738746643066, -0.718265950679779, -0.8288212418556213, -1.0021741390228271, 0.05584539845585823, 0.06674150962001411, -0.05974758104210309, 4.24614807456694, 9362.0, 30146.0, 35388.0, 9362.0, 8.390083312988281, 0.10951445251703262, -0.10084165632724762, -0.12810564041137695, -0.09310372173786163, -0.029799193143844604, 0.9972839951515198, -0.0837618038058281, -0.1291980743408203, 1.4853515625, 1.324951171875, 0.0236663818359375, 1.494873046875, 1.37548828125, 10.0, 1.0, 10.0, 1.3827108144760132
24886, 1.1088967323303223, 0.24208073318004608, 0.24912342429161072, -0.0003251763992011547, -0.0015606428496539593, -8.306357383728027, -0.005805713590234518, -0.02791079320013523, -0.7186664342880249, -0.8288208246231079, -1.0021672248840332, 0.055836331099271774, 0.07268534311902125, -0.06820049384711524, 4.244641177436501, 9362.0, 30146.0, 35388.0, 9362.0, 8.390083312988281, -0.0021609575487673283, 0.051400650292634964, 0.47757184505462646, -0.09514749050140381, -0.03005394898355007, 0.9939575791358948, -0.09239844232797623, -0.06647872924804688, 1.490478515625, 1.388671875, 0.03033447265625, 1.48828125, 1.409912109375, 10.0, 1.0, 10.0, 1.3827967643737793
24896, 1.1091610193252563, 0.24025480449199677, 0.2526226043701172, -0.00038525176933035254, -0.0018492104718461633, -8.313545227050781, -0.0062093366868793964, -0.029802728444337845, -0.7189955711364746, -0.8288245797157288, -1.0021640062332153, 0.05583710968494415, 0.06739698564214992, -0.06742718480529675, 4.244262219106863, 9362.0, 30146.0, 35388.0, 9362.0, 8.390083312988281, -0.02139548771083355, -0.3036975562572479, -0.029979467391967773, -0.09554395079612732, -0.03044443391263485, 0.9941257238388062, -0.09239844232797623, -0.06647872924804688, 1.490478515625, 1.37841796875, 0.023406982421875, 1.48828125, 1.399658203125, 10.0, 1.0, 10.0, 1.3828500509262085
24906, 1.109080195426941, 0.24202990531921387, 0.2517901062965393, -0.0004493638698477298, -0.002156683010980487, -8.320737838745117, -0.0066129849292337894, -0.03169179707765579, -0.7195943593978882, -0.8288299441337585, -1.00216805934906, 0.05583607777953148, 0.07303121919968625, -0.06830887652932915, 4.247868547890296, 9362.0, 30146.0, 35388.0, 9362.0, 8.390083312988281, 0.10141952335834503, -0.1382320374250412, -0.21609607338905334, -0.0949539989233017, -0.03182799741625786, 0.9955165386199951, -0.09239844232797623, -0.06647872924804688, 1.490478515625, 1.35205078125, 0.015380859375, 1.49267578125, 1.367431640625, 10.0, 1.0, 10.0, 1.3828014135360718
24916, 1.1095513105392456, 0.24206876754760742, 0.2527989149093628, -0.0005174964899197221, -0.0024830494076013565, -8.327937126159668, -0.007013549562543631, -0.033581461757421494, -0.7201846241950989, -0.8288201689720154, -1.0021686553955078, 0.05584627762436867, 0.07063338218450667, -0.06646265315714572, 4.249672592260873, 9362.0, 30146.0, 35388.0, 9362.0, 8.390083312988281, 0.1167173907160759, -0.15098649263381958, 0.05810832977294922, -0.09515241533517838, -0.031218327581882477, 0.9954257011413574, -0.09239844232797623, -0.06647872924804688, 1.490478515625, 1.387939453125, 0.0297393798828125, 1.49267578125, 1.376953125, 10.0, 1.0, 10.0, 1.3827829360961914
24926, 1.1091063022613525, 0.2443055808544159, 0.25298187136650085, -0.0005896528018638492, -0.002828324679285288, -8.3351411819458, -0.007417676039040089, -0.03547361120581627, -0.7206407189369202, -0.828812837600708, -1.0021557807922363, 0.05583763122558594, 0.06966430381272189, -0.06488612888463763, 4.249748766600645, 9362.0, 30146.0, 35388.0, 9362.0, 8.390083312988281, 0.13661512732505798, -0.059568315744400024, -0.20226608216762543, -0.09468629956245422, -0.030023328959941864, 0.9940833449363708, -0.09239844232797623, -0.06647872924804688, 1.490478515625, 1.40478515625, 0.0446624755859375, 1.493408203125, 1.3681640625, 10.0, 1.0, 10.0, 1.3827368021011353
24936, 1.110541582107544, 0.24390855431556702, 0.2520202100276947, -0.0006658495403826237, -0.0031925211660563946, -8.342350006103516, -0.007821646519005299, -0.037365663796663284, -0.7211435437202454, -0.8288099765777588, -1.00216805934906, 0.05584831163287163, 0.0725405404392873, -0.06813905980473578, 4.245552239562532, 9362.0, 30146.0, 35388.0, 9362.0, 8.390083312988281, -0.03009140118956566, 0.2870616018772125, 0.0634823739528656, -0.0945640504360199, -0.030318524688482285, 0.9927953481674194, -0.09239844232797623, -0.06647872924804688, 1.490478515625, 1.31103515625, 0.0355682373046875, 1.493408203125, 1.38134765625, 10.0, 1.0, 10.0, 1.3827323913574219
24946, 1.1098582744598389, 0.2425679862499237, 0.2524830400943756, -0.0007461016066372395, -0.003575618378818035, -8.349564552307129, -0.008228794671595097, -0.03925374522805214, -0.7218116521835327, -0.8288150429725647, -1.0021501779556274, 0.055841024965047836, 0.07453892109392611, -0.06872654179221627, 4.245490945970006, 9362.0, 30146.0, 35388.0, 9362.0, 8.390083312988281, -0.057078659534454346, -0.3446824252605438, 0.06126423925161362, -0.0937330573797226, -0.03132247179746628, 0.9954241514205933, -0.09239844232797623, -0.06647872924804688, 1.490478515625, 1.368896484375, 0.01885986328125, 1.494873046875, 1.39599609375, 10.0, 1.0, 10.0, 1.3827742338180542
24956, 1.109205722808838, 0.24504390358924866, 0.25124290585517883, -0.0008304222137667239, -0.0039776102639734745, -8.356785774230957, -0.008635328151285648, -0.04114464670419693, -0.7224614024162292, -0.8288164734840393, -1.0021651983261108, 0.05583807826042175, 0.07187912708702077, -0.06363077910521042, 4.250065938665017, 9362.0, 30146.0, 35388.0, 9362.0, 8.390083312988281, -0.027411852031946182, -0.011334949173033237, 0.11560340225696564, -0.09522182494401932, -0.03168746083974838, 0.9952422976493835, -0.09239844232797623, -0.06647872924804688, 1.490478515625, 1.3740234375, 0.0210723876953125, 1.494873046875, 1.400390625, 10.0, 1.0, 10.0, 1.3828299045562744
24966, 1.1085562705993652, 0.24656346440315247, 0.2522560954093933, -0.0009188008843921125, -0.004398524761199951, -8.364012718200684, -0.009040427394211292, -0.043038252741098404, -0.7229107618331909, -0.8288196921348572, -1.0021508932113647, 0.055837396532297134, 0.07327383585670429, -0.06845791990937755, 4.255634839591672, 9362.0, 30146.0, 35388.0, 9362.0, 8.390083312988281, 0.08690331876277924, -0.19332267343997955, 0.33753326535224915, -0.09256875514984131, -0.031394507735967636, 0.9943088889122009, -0.09239844232797623, -0.06647872924804688, 1.490478515625, 1.39013671875, 0.0314483642578125, 1.4912109375, 1.3330078125, 10.0, 1.0, 10.0, 1.3826725482940674
24976, 1.1085660457611084, 0.24795787036418915, 0.2537705600261688, -0.0010112497257068753, -0.004838360473513603, -8.371244430541992, -0.009449304081499577, -0.044928837567567825, -0.723459780216217, -0.8288121223449707, -1.0021518468856812, 0.05585185065865517, 0.07067091609921226, -0.06513770536108154, 4.249502243755086, 9362.0, 30146.0, 35388.0, 9362.0, 8.390083312988281, -0.05347801744937897, 0.03546704724431038, 0.10910686105489731, -0.09304802864789963, -0.03212293982505798, 0.9944972395896912, -0.09239844232797623, -0.06647872924804688, 1.490478515625, 1.37841796875, 0.023406982421875, 1.4912109375, 1.38720703125, 10.0, 1.0, 10.0, 1.3826868534088135
24986, 1.109290599822998, 0.24883036315441132, 0.25340309739112854, -0.0011078002862632275, -0.005297096911817789, -8.3784818649292, -0.009860757738351822, -0.04681849107146263, -0.7240006923675537, -0.8288150429725647, -1.002153754234314, 0.05584339424967766, 0.0743256381853812, -0.06268224734176897, 4.249755835260314, 9362.0, 30146.0, 35388.0, 9362.0, 8.390083312988281, 0.21167506277561188, -0.1979210525751114, -0.07698553800582886, -0.0961107388138771, -0.031615249812603, 0.9933372139930725, -0.06695080548524857, 0.014162063598632812, 1.4970703125, 1.37255859375, 0.02044677734375, 1.493408203125, 1.358642578125, 10.0, 1.0, 10.0, 1.3826109170913696
24996, 1.1088277101516724, 0.249092236161232, 0.25338324904441833, -0.001208476722240448, -0.005774728488177061, -8.385725021362305, -0.010274529457092285, -0.04870783910155296, -0.7245586514472961, -0.8288149237632751, -1.002156138420105, 0.05585644394159317, 0.07400913400283386, -0.06364873625886958, 4.2480290675131425, 9362.0, 30146.0, 35388.0, 9362.0, 8.390083312988281, 0.06334801018238068, -0.15221565961837769, -0.2481987625360489, -0.09649008512496948, -0.032578445971012115, 0.992306649684906, -0.06695080548524857, 0.014162063598632812, 1.4970703125, 1.380615234375, 0.024749755859375, 1.493408203125, 1.3974609375, 10.0, 1.0, 10.0, 1.382657766342163
25006, 1.1096688508987427, 0.24914957582950592, 0.253526896238327, -0.001313295098952949, -0.0062712449580430984, -8.392973899841309, -0.010689137503504753, -0.050595492124557495, -0.7252691388130188, -0.828827977180481, -1.002152681350708, 0.05585217475891113, 0.0751494904291315, -0.06488534601703577, 4.252380008310205, 9362.0, 30146.0, 35388.0, 9362.0, 8.390083312988281, -0.028735395520925522, 0.28867006301879883, 0.12044230848550797, -0.0957869440317154, -0.03149707615375519, 0.9934789538383484, -0.06695080548524857, 0.014162063598632812, 1.4970703125, 1.379150390625, 0.0238189697265625, 1.494873046875, 1.377685546875, 10.0, 1.0, 10.0, 1.3826420307159424
25016, 1.1103466749191284, 0.2470121532678604, 0.25504040718078613, -0.001422261237166822, -0.006786631885915995, -8.400230407714844, -0.011104092933237553, -0.052481863647699356, -0.7260033488273621, -0.8288257718086243, -1.0021523237228394, 0.055849023163318634, 0.06453168400037268, -0.06552246900517389, 4.243899480951399, 9362.0, 30146.0, 35388.0, 9362.0, 8.390083312988281, -0.024233387783169746, -0.012600570917129517, 0.07224385440349579, -0.0936850756406784, -0.03204432129859924, 0.9943891763687134, -0.06695080548524857, 0.014162063598632812, 1.4970703125, 1.37548828125, 0.021820068359375, 1.494873046875, 1.36962890625, 10.0, 1.0, 10.0, 1.3826009035110474
25036, 1.1102135181427002, 0.2473905384540558, 0.256269246339798, -0.0015353788621723652, -0.007320896256715059, -8.407493591308594, -0.011519408784806728, -0.05437103286385536, -0.7266680598258972, -0.8288200497627258, -1.002155065536499, 0.05585590749979019, 0.06816280715908331, -0.0676060959932272, 4.248577186769713, 9362.0, 30146.0, 35388.0, 9362.0, 8.390083312988281, -0.1341862827539444, -0.22094812989234924, 0.010406918823719025, -0.0948401615023613, -0.03268914669752121, 0.996686577796936, -0.06695080548524857, 0.014162063598632812, 1.4970703125, 1.37841796875, 0.023406982421875, 1.494873046875, 1.36962890625, 10.0, 1.0, 10.0, 1.3826009035110474
25056, 1.11000394821167, 0.24429035186767578, 0.25682446360588074, -0.0018994837300851941, -0.0090372608974576, -8.429315567016602, -0.012755081988871098, -0.06005503237247467, -0.7280099987983704, -0.8288248181343079, -1.0021518468856812, 0.055856116116046906, 0.07562737722176047, -0.06471533584650047, 4.245261647110622, 9362.0, 30146.0, 35388.0, 9362.0, 8.390083312988281, -0.08938060700893402, 0.2599186599254608, 0.2059074342250824, -0.09443629533052444, -0.03252224996685982, 0.9944379925727844, -0.06695080548524857, 0.014162063598632812, 1.4970703125, 1.404052734375, 0.04400634765625, 1.494873046875, 1.36962890625, 10.0, 1.0, 10.0, 1.3826009035110474
25076, 1.1112356185913086, 0.24403218924999237, 0.25487738847732544, -0.0020290904212743044, -0.009647263213992119, -8.436598777770996, -0.013166263699531555, -0.06194540485739708, -0.7285969853401184, -0.8288259506225586, -1.0021541118621826, 0.055832188576459885, 0.07161073153381689, -0.06718507835515197, 4.247273559621688, 9362.0, 30146.0, 35388.0, 9362.0, 8.390083312988281, 0.17318730056285858, 0.12517069280147552, 0.07018712908029556, -0.09376370906829834, -0.029850002378225327, 0.9958236813545227, -0.06695080548524857, 0.014162063598632812, 1.4970703125, 1.385009765625, 0.0276336669921875, 1.494873046875, 1.36962890625, 10.0, 1.0, 10.0, 1.3826009035110474
25096, 1.1114400625228882, 0.2493053823709488, 0.2546054720878601, -0.0020290904212743044, -0.009647263213992119, -8.436598777770996, -0.013166263699531555, -0.06194540485739708, -0.7285969853401184, -0.8288230895996094, -1.0021536350250244, 0.05585723742842674, 0.06668390074266842, -0.06879849450402276, 4.243348091131255, 9362.0, 30146.0, 35388.0, 9362.0, 8.390083312988281, 0.005683761555701494, -0.13397808372974396, 0.03584972769021988, -0.09266560524702072, -0.03320275992155075, 0.9949025511741638, -0.07083649933338165, -0.10231781005859375, 1.487548828125, 1.3212890625, 0.026214599609375, 1.494873046875, 1.36962890625, 10.0, 1.0, 10.0, 1.3826009035110474
25136, 1.1114462614059448, 0.2476266473531723, 0.2563028335571289, -0.00305120344273746, -0.01444782130420208, -8.48770809173584, -0.016053251922130585, -0.07521334290504456, -0.7317878603935242, -0.8288295865058899, -1.0021541118621826, 0.055856119841337204, 0.06835023762918793, -0.07150384433293766, 4.243619856327418, 9362.0, 30146.0, 35388.0, 9362.0, 8.390083312988281, -0.08895833790302277, 0.47317302227020264, -0.0963217243552208, -0.0955573096871376, -0.02999286726117134, 0.9942997097969055, -0.07083649933338165, -0.10231781005859375, 1.487548828125, 1.3623046875, 0.0167999267578125, 1.494873046875, 1.36962890625, 10.0, 1.0, 10.0, 1.3826009035110474
25156, 1.1104871034622192, 0.24630405008792877, 0.2547394633293152, -0.00305120344273746, -0.01444782130420208, -8.48770809173584, -0.016053251922130585, -0.07521334290504456, -0.7317878603935242, -0.8288229703903198, -1.0021604299545288, 0.05587734282016754, 0.07143728624628884, -0.06348633546056703, 4.239970916076255, 9362.0, 30146.0, 35388.0, 9362.0, 8.390083312988281, -0.045759137719869614, 0.18729202449321747, 0.15008848905563354, -0.09347020834684372, -0.030094346031546593, 0.99470055103302, -0.07083649933338165, -0.10231781005859375, 1.487548828125, 1.364501953125, 0.0173492431640625, 1.494873046875, 1.36962890625, 10.0, 1.0, 10.0, 1.3821544647216797
25196, 1.1109479665756226, 0.2444608360528946, 0.2530660331249237, -0.00408873101696372, -0.019301192834973335, -8.531722068786621, -0.018520809710025787, -0.08656366169452667, -0.7353858947753906, -0.8288395404815674, -1.0021604299545288, 0.0558631606400013, 0.06724383043463006, -0.06729600024647198, 4.247905866474368, 9362.0, 30146.0, 35388.0, 9362.0, 8.390083312988281, -0.07103373855352402, 0.09588100761175156, -0.40019068121910095, -0.09577586501836777, -0.030704041942954063, 0.9934101104736328, -0.07083649933338165, -0.10231781005859375, 1.487548828125, 1.368896484375, 0.01885986328125, 1.48828125, 1.36962890625, 10.0, 1.0, 10.0, 1.3821544647216797
25216, 1.110876202583313, 0.24288545548915863, 0.2516922652721405, -0.004467336926609278, -0.021070249378681183, -8.5464448928833, -0.019338570535182953, -0.0903439000248909, -0.7368055582046509, -0.8288270831108093, -1.002171516418457, 0.055876776576042175, 0.07225923777586647, -0.0692414445065026, 4.243400348345211, 9362.0, 30146.0, 35388.0, 9362.0, 8.390083312988281, -0.08018898963928223, 0.28746721148490906, 0.2540370225906372, -0.09256933629512787, -0.03131565451622009, 0.9947320222854614, -0.07083649933338165, -0.10231781005859375, 1.487548828125, 1.364501953125, 0.0173492431640625, 1.48828125, 1.36962890625, 10.0, 1.0, 10.0, 1.3821544647216797
25236, 1.1091275215148926, 0.24472767114639282, 0.25414595007896423, -0.004662762396037579, -0.021983163431286812, -8.553815841674805, -0.019746527075767517, -0.09223879128694534, -0.7372970581054688, -0.8288381695747375, -1.002155065536499, 0.05588100105524063, 0.07209875389161507, -0.07014754141007984, 4.242124120776099, 9362.0, 30146.0, 35388.0, 9362.0, 8.390083312988281, 0.015177241526544094, 0.12010907381772995, -0.002205492462962866, -0.09401708841323853, -0.030064310878515244, 0.9945337772369385, -0.07083649933338165, -0.10231781005859375, 1.487548828125, 1.37109375, 0.0197906494140625, 1.494873046875, 1.36962890625, 10.0, 1.0, 10.0, 1.3821544647216797
25246, 1.1076573133468628, 0.24361282587051392, 0.2533215582370758, -0.005065809469670057, -0.023865800350904465, -8.568572998046875, -0.020559370517730713, -0.09602407366037369, -0.7383795380592346, -0.8288182020187378, -1.0021711587905884, 0.05587032809853554, 0.06891161663522959, -0.06853097842670763, 4.243895846817203, 9362.0, 30146.0, 35388.0, 9362.0, 8.390083312988281, -0.04484740272164345, 0.12705807387828827, -0.21633414924144745, -0.09401708841323853, -0.030064310878515244, 0.9945337772369385, -0.07083649933338165, -0.10231781005859375, 1.487548828125, 1.39013671875, 0.0314483642578125, 1.49560546875, 1.36962890625, 10.0, 1.0, 10.0, 1.3821544647216797
25256, 1.1090024709701538, 0.24361084401607513, 0.2515934705734253, -0.005065809469670057, -0.023865800350904465, -8.568572998046875, -0.020559370517730713, -0.09602407366037369, -0.7383795380592346, -0.828833818435669, -1.0021494626998901, 0.05586839094758034, 0.07418997065866118, -0.07215236112955381, 4.245587053896973, 9362.0, 30146.0, 35388.0, 9362.0, 8.390083312988281, 0.020438099279999733, 0.18447458744049072, 0.22506798803806305, -0.09445662051439285, -0.032214805483818054, 0.9972249269485474, -0.07083649933338165, -0.10231781005859375, 1.487548828125, 1.335205078125, 0.018280029296875, 1.49560546875, 1.36962890625, 10.0, 1.0, 10.0, 1.3821544647216797
25276, 1.1091983318328857, 0.24181053042411804, 0.25356045365333557, -0.005700960755348206, -0.02683170698583126, -8.590742111206055, -0.021783320233225822, -0.10170517861843109, -0.7393819093704224, -0.8288748264312744, -1.0021618604660034, 0.055805157870054245, 0.08740211562348672, -0.09993613943967716, 4.211448288149726, 9362.0, 30146.0, 35388.0, 9362.0, 8.390083312988281, 0.0971129983663559, 0.49229469895362854, -0.08531264960765839, -0.09486643970012665, -0.030207796022295952, 0.9962376356124878, -0.07083649933338165, -0.10231781005859375, 1.487548828125, 1.389404296875, 0.03082275390625, 1.49560546875, 1.36962890625, 10.0, 1.0, 10.0, 1.3821544647216797
25296, 1.1085498332977295, 0.2421848624944687, 0.25348785519599915, -0.00614473270252347, -0.028903687372803688, -8.605538368225098, -0.022592777386307716, -0.10549157857894897, -0.7402706742286682, -0.8288195729255676, -1.0021518468856812, 0.05587228387594223, 0.07172817419589424, -0.06796061613516713, 4.245098858877181, 9362.0, 30146.0, 35388.0, 9362.0, 8.390083312988281, 0.22210898995399475, -0.05871424078941345, -0.13736267387866974, -0.09279254078865051, -0.032952990382909775, 0.9939926862716675, -0.09116185456514359, -0.12023735046386719, 1.486083984375, 1.385009765625, 0.0276336669921875, 1.49560546875, 1.36962890625, 10.0, 1.0, 10.0, 1.3821544647216797
25306, 1.1094000339508057, 0.24144907295703888, 0.25254297256469727, -0.00614473270252347, -0.028903687372803688, -8.605538368225098, -0.022592777386307716, -0.10549157857894897, -0.7402706742286682, -0.828834056854248, -1.0021623373031616, 0.05587088689208031, 0.0683035000184062, -0.06527479915007461, 4.245826579706021, 9362.0, 30146.0, 35388.0, 9362.0, 8.390083312988281, 0.08299559354782104, 0.13858604431152344, 0.3043096959590912, -0.09279254078865051, -0.032952990382909775, 0.9939926862716675, -0.09116185456514359, -0.12023735046386719, 1.486083984375, 1.368896484375, 0.01885986328125, 1.494140625, 1.36962890625, 10.0, 1.0, 10.0, 1.3821544647216797
25316, 1.1093336343765259, 0.24152903258800507, 0.2522912919521332, -0.00614473270252347, -0.028903687372803688, -8.605538368225098, -0.022592777386307716, -0.10549157857894897, -0.7402706742286682, -0.8288269639015198, -1.0021692514419556, 0.0558832623064518, 0.06822377015104282, -0.06962433689378145, 4.246532940574992, 9362.0, 30146.0, 35388.0, 9362.0, 8.390083312988281, -0.13330431282520294, -0.5802919864654541, -0.1451178342103958, -0.09240271151065826, -0.03151782602071762, 0.9957137107849121, -0.09116185456514359, -0.12023735046386719, 1.486083984375, 1.368896484375, 0.01885986328125, 1.494140625, 1.36962890625, 10.0, 1.0, 10.0, 1.3821544647216797
25326, 1.10812509059906, 0.24238795042037964, 0.25362449884414673, -0.00614473270252347, -0.028903687372803688, -8.605538368225098, -0.022592777386307716, -0.10549157857894897, -0.7402706742286682, -0.8288277983665466, -1.0021623373031616, 0.05587746948003769, 0.06944631953520518, -0.06357462927434199, 4.244037000188547, 9362.0, 30146.0, 35388.0, 9362.0, 8.390083312988281, 0.020391307771205902, -0.06792209297418594, -0.09772191941738129, -0.09240271151065826, -0.03151782602071762, 0.9957137107849121, -0.09116185456514359, -0.12023735046386719, 1.486083984375, 1.365966796875, 0.017791748046875, 1.48828125, 1.36962890625, 10.0, 1.0, 10.0, 1.3821544647216797
25356, 1.1089204549789429, 0.24139471352100372, 0.25360268354415894, -0.007324752397835255, -0.034414634108543396, -8.642618179321289, -0.024609528481960297, -0.11494606733322144, -0.7428561449050903, -0.8288795948028564, -1.0021694898605347, 0.055812232196331024, 0.08704726261393335, -0.09337408154087257, 4.2233642473655015, 9362.0, 30146.0, 35388.0, 9362.0, 8.390083312988281, -0.017924562096595764, 0.08430863171815872, -0.14480212330818176, -0.09291167557239532, -0.0319695882499218, 0.994227945804596, -0.09116185456514359, -0.12023735046386719, 1.486083984375, 1.363037109375, 0.0169219970703125, 1.494140625, 1.36962890625, 10.0, 1.0, 10.0, 1.3821544647216797
25376, 1.1111763715744019, 0.2384655624628067, 0.2535627484321594, -0.007324752397835255, -0.034414634108543396, -8.642618179321289, -0.024609528481960297, -0.11494606733322144, -0.7428561449050903, -0.828821063041687, -1.0021629333496094, 0.05587734282016754, 0.0708477948170395, -0.07409770027982177, 4.243352126571849, 9362.0, 30146.0, 35388.0, 9362.0, 8.390083312988281, 0.22753313183784485, 0.11095498502254486, -0.04996849596500397, -0.09276154637336731, -0.030992494896054268, 0.9954848289489746, -0.09116185456514359, -0.12023735046386719, 1.486083984375, 1.376953125, 0.0225982666015625, 1.4912109375, 1.36962890625, 10.0, 1.0, 10.0, 1.3821544647216797
25396, 1.1115666627883911, 0.23396073281764984, 0.25330278277397156, -0.008341333828866482, -0.039163630455732346, -8.672377586364746, -0.026217855513095856, -0.12250885367393494, -0.7449766993522644, -0.8288275599479675, -1.0021556615829468, 0.0558793805539608, 0.07438097476286404, -0.06935830492795958, 4.2439270196014816, 9362.0, 30146.0, 35388.0, 9362.0, 8.390083312988281, 0.13242869079113007, 0.14393386244773865, -0.16030262410640717, -0.09636319428682327, -0.030521536245942116, 0.9952795505523682, -0.08315934985876083, -0.08439826965332031, 1.489013671875, 1.352783203125, 0.015350341796875, 1.4912109375, 1.36962890625, 10.0, 1.0, 10.0, 1.3821544647216797
25406, 1.1104722023010254, 0.23370733857154846, 0.25236812233924866, -0.00887362938374281, -0.04165167361497879, -8.687289237976074, -0.027010761201381683, -0.1262960433959961, -0.7461438179016113, -0.8288205862045288, -1.0021535158157349, 0.055882085114717484, 0.06928936260829907, -0.06817362967845497, 4.2467414276606785, 9362.0, 30146.0, 35388.0, 9362.0, 8.390083312988281, -7.032285793684423e-06, 0.09167584031820297, 0.4199833869934082, -0.09636319428682327, -0.030521536245942116, 0.9952795505523682, -0.08315934985876083, -0.08439826965332031, 1.489013671875, 1.341796875, 0.0162811279296875, 1.496337890625, 1.36962890625, 10.0, 1.0, 10.0, 1.3821544647216797
25436, 1.113720178604126, 0.2301941215991974, 0.25387656688690186, -0.009421642869710922, -0.044215478003025055, -8.702223777770996, -0.027790134772658348, -0.1300824135541916, -0.7472827434539795, -0.8288297057151794, -1.0021628141403198, 0.05587248504161835, 0.06822552693139387, -0.06864087947016628, 4.242237197393387, 9362.0, 30146.0, 35388.0, 9362.0, 8.390083312988281, -0.12978875637054443, 0.09060380607843399, -0.37367650866508484, -0.09457287192344666, -0.030507275834679604, 0.997053861618042, -0.08315934985876083, -0.08439826965332031, 1.489013671875, 1.36083984375, 0.016387939453125, 1.494140625, 1.36962890625, 10.0, 1.0, 10.0, 1.3821544647216797
25456, 1.1124690771102905, 0.23264938592910767, 0.2514943778514862, -0.010272672399878502, -0.04820336401462555, -8.724661827087402, -0.028944622725248337, -0.1357777863740921, -0.7486414313316345, -0.8288196921348572, -1.0021507740020752, 0.055870987474918365, 0.07585322237366766, -0.0698278897397131, 4.243509635362003, 9362.0, 30146.0, 35388.0, 9362.0, 8.390083312988281, 0.008342242799699306, 0.10818737745285034, -0.07818159461021423, -0.09216371923685074, -0.03202278912067413, 0.9933931231498718, -0.08315934985876083, -0.08439826965332031, 1.489013671875, 1.3857421875, 0.0280914306640625, 1.494140625, 1.36962890625, 10.0, 1.0, 10.0, 1.3821544647216797
25496, 1.1133934259414673, 0.23158594965934753, 0.2460414618253708, -0.011158360168337822, -0.052361950278282166, -8.747152328491211, -0.030104946345090866, -0.1414656788110733, -0.750457227230072, -0.8288297653198242, -1.002151608467102, 0.05586670711636543, 0.0723094746047626, -0.07186203155220028, 4.236638105366331, 9362.0, 30146.0, 35388.0, 9362.0, 8.390083312988281, 0.09699612110853195, -0.40389806032180786, 0.2366025745868683, -0.09352098405361176, -0.031435541808605194, 0.9942962527275085, -0.07382789254188538, -0.1291980743408203, 1.4853515625, 1.3828125, 0.0261077880859375, 1.494140625, 1.36962890625, 10.0, 1.0, 10.0, 1.3821544647216797
25516, 1.11309015750885, 0.23114167153835297, 0.24606379866600037, -0.011158360168337822, -0.052361950278282166, -8.747152328491211, -0.030104946345090866, -0.1414656788110733, -0.750457227230072, -0.8288291096687317, -1.0021528005599976, 0.05586288124322891, 0.0678781415749345, -0.07475116024048134, 4.245487532767451, 9362.0, 30146.0, 35388.0, 9362.0, 8.390083312988281, 0.05041727423667908, -0.43728986382484436, -0.1953946053981781, -0.09352098405361176, -0.031435541808605194, 0.9942962527275085, -0.07382789254188538, -0.1291980743408203, 1.4853515625, 1.341064453125, 0.01654052734375, 1.493408203125, 1.36962890625, 10.0, 1.0, 10.0, 1.3821544647216797
25536, 1.1126958131790161, 0.23220305144786835, 0.24476704001426697, -0.011158360168337822, -0.052361950278282166, -8.747152328491211, -0.030104946345090866, -0.1414656788110733, -0.750457227230072, -0.8288204669952393, -1.0021486282348633, 0.05586040019989014, 0.06914830999243061, -0.0739538051830948, 4.2448469619122156, 9362.0, 30146.0, 35388.0, 9362.0, 8.390083312988281, -0.08092357218265533, -0.10470551252365112, -0.1239667758345604, -0.09579858183860779, -0.030246788635849953, 0.9961244463920593, -0.07382789254188538, -0.1291980743408203, 1.4853515625, 1.3505859375, 0.0153045654296875, 1.50146484375, 1.36962890625, 10.0, 1.0, 10.0, 1.3821544647216797
25576, 1.1139929294586182, 0.23279890418052673, 0.2452555149793625, -0.014024218544363976, -0.06586303561925888, -8.814878463745117, -0.033579178154468536, -0.1585540920495987, -0.7546353936195374, -0.8288732767105103, -1.0021554231643677, 0.055799148976802826, 0.08898376488275703, -0.09686440522509088, 4.218784636507708, 9362.0, 30146.0, 35388.0, 9362.0, 8.390083312988281, -0.10525975376367569, -0.13090598583221436, -0.1510867476463318, -0.09465036541223526, -0.03259679675102234, 0.995434045791626, -0.07382789254188538, -0.1291980743408203, 1.4853515625, 1.3623046875, 0.0167999267578125, 1.489013671875, 1.36962890625, 10.0, 1.0, 10.0, 1.3821544647216797
25596, 1.114431381225586, 0.2340954840183258, 0.24469484388828278, -0.014024218544363976, -0.06586303561925888, -8.814878463745117, -0.033579178154468536, -0.1585540920495987, -0.7546353936195374, -0.8288228511810303, -1.0021511316299438, 0.055857669562101364, 0.07218662169782614, -0.06594838510181944, 4.245475763317249, 9362.0, 30146.0, 35388.0, 9362.0, 8.370248794555664, 0.0858253762125969, -0.05485409498214722, -0.08770588040351868, -0.09465036541223526, -0.03259679675102234, 0.995434045791626, -0.058925218880176544, -0.021678924560546875, 1.494140625, 1.361572265625, 0.016571044921875, 1.49267578125, 1.36962890625, 10.0, 1.0, 10.0, 1.3821544647216797
25616, 1.1146434545516968, 0.2355712652206421, 0.24597273766994476, -0.015398360788822174, -0.07235710322856903, -8.845104217529297, -0.03513290360569954, -0.16614985466003418, -0.7566713690757751, -0.8288233280181885, -1.0021545886993408, 0.055879201740026474, 0.06769011011741694, -0.07051040182213342, 4.245772818702823, 9362.0, 30146.0, 35388.0, 9362.0, 8.370248794555664, 0.20186252892017365, -0.09332496672868729, 0.0904947966337204, -0.09355805069208145, -0.03180510923266411, 0.9950249791145325, -0.058925218880176544, -0.021678924560546875, 1.494140625, 1.3740234375, 0.0210723876953125, 1.49267578125, 1.36962890625, 10.0, 1.0, 10.0, 1.3821544647216797
25676, 1.1164603233337402, 0.2395492047071457, 0.24728763103485107, -0.017577452585101128, -0.08266857266426086, -8.89058780670166, -0.03751961886882782, -0.17756876349449158, -0.7595586180686951, -0.8288180232048035, -1.0021579265594482, 0.05585990101099014, 0.0712204162011412, -0.06838956410808805, 4.246656532219922, 9362.0, 30146.0, 35388.0, 9362.0, 8.370248794555664, -0.008854720741510391, 0.0659596174955368, 0.004453511908650398, -0.09596170485019684, -0.028364455327391624, 0.9963276386260986, -0.058925218880176544, -0.021678924560546875, 1.494140625, 1.379150390625, 0.0238189697265625, 1.48974609375, 1.36962890625, 10.0, 1.0, 10.0, 1.3821544647216797
25696, 1.117030143737793, 0.23902581632137299, 0.24764759838581085, -0.017577452585101128, -0.08266857266426086, -8.89058780670166, -0.03751961886882782, -0.17756876349449158, -0.7595586180686951, -0.8288178443908691, -1.0021425485610962, 0.05586383864283562, 0.07073786598518586, -0.06985368106771261, 4.246126607402238, 9362.0, 30146.0, 35388.0, 9362.0, 8.390083312988281, 0.08497775346040726, -0.16786795854568481, -0.2022697478532791, -0.09406799077987671, -0.03297543525695801, 0.9966827034950256, -0.0528283566236496, -0.07543754577636719, 1.48974609375, 1.3857421875, 0.0280914306640625, 1.496337890625, 1.36962890625, 10.0, 1.0, 10.0, 1.3821544647216797
25716, 1.1160104274749756, 0.23636655509471893, 0.24750691652297974, -0.017577452585101128, -0.08266857266426086, -8.89058780670166, -0.03751961886882782, -0.17756876349449158, -0.7595586180686951, -0.8288192749023438, -1.0021547079086304, 0.05588577315211296, 0.06996345201332343, -0.0681159419690971, 4.243334420515328, 9362.0, 30146.0, 35388.0, 9362.0, 8.390083312988281, 0.03619350865483284, 0.09329747408628464, -0.008352264761924744, -0.09316974878311157, -0.030624402686953545, 0.9947246313095093, -0.0528283566236496, -0.07543754577636719, 1.48974609375, 1.36669921875, 0.01806640625, 1.490478515625, 1.36962890625, 10.0, 1.0, 10.0, 1.3821544647216797
25726, 1.117544174194336, 0.23618267476558685, 0.2456318438053131, -0.017577452585101128, -0.08266857266426086, -8.89058780670166, -0.03751961886882782, -0.17756876349449158, -0.7595586180686951, -0.8288120031356812, -1.002144694328308, 0.055891331285238266, 0.0687129630859849, -0.07077114760846825, 4.242169584898093, 9362.0, 30146.0, 35388.0, 9362.0, 8.390083312988281, 0.009488172829151154, -0.0475369393825531, 0.05738352984189987, -0.09316974878311157, -0.030624402686953545, 0.9947246313095093, -0.0528283566236496, -0.07543754577636719, 1.48974609375, 1.3447265625, 0.0158538818359375, 1.4912109375, 1.36962890625, 10.0, 1.0, 10.0, 1.3821544647216797
25736, 1.1184241771697998, 0.2348787486553192, 0.24338465929031372, -0.017577452585101128, -0.08266857266426086, -8.89058780670166, -0.03751961886882782, -0.17756876349449158, -0.7595586180686951, -0.8288303017616272, -1.0021628141403198, 0.05587040260434151, 0.06738995153999587, -0.07471541244123614, 4.248613308443455, 9362.0, 30146.0, 35388.0, 9362.0, 8.390083312988281, 0.032785121351480484, 0.4450821876525879, -0.1027950868010521, -0.09448934346437454, -0.03266443684697151, 0.9960178732872009, -0.0528283566236496, -0.07543754577636719, 1.48974609375, 1.402587890625, 0.0425262451171875, 1.4912109375, 1.36962890625, 10.0, 1.0, 10.0, 1.3821544647216797
25756, 1.120172142982483, 0.2321297526359558, 0.24231062829494476, -0.020706942304968834, -0.09748406708240509, -8.951482772827148, -0.04070151969790459, -0.1928173154592514, -0.7630731463432312, -0.828827977180481, -1.0021620988845825, 0.055871088057756424, 0.06738719711837375, -0.06862915438313166, 4.24388628880043, 9362.0, 30146.0, 35388.0, 9362.0, 8.390083312988281, -0.048219893127679825, -0.17394503951072693, 0.10509074479341507, -0.09426512569189072, -0.030654530972242355, 0.994478166103363, -0.0528283566236496, -0.07543754577636719, 1.48974609375, 1.353515625, 0.0154571533203125, 1.48828125, 1.36962890625, 10.0, 1.0, 10.0, 1.3821544647216797
25776, 1.1199078559875488, 0.23710180819034576, 0.2420227825641632, -0.020706942304968834, -0.09748406708240509, -8.951482772827148, -0.04070151969790459, -0.1928173154592514, -0.7630731463432312, -0.8288218379020691, -1.0021660327911377, 0.05588696524500847, 0.0692048656389697, -0.07602950303041212, 4.238181270462194, 9362.0, 30146.0, 35388.0, 9362.0, 8.390083312988281, 0.13293348252773285, 0.04415232315659523, 0.16023239493370056, -0.09508911520242691, -0.03293634578585625, 0.9951179027557373, -0.0528283566236496, -0.07543754577636719, 1.48974609375, 1.3447265625, 0.0158538818359375, 1.49560546875, 1.36962890625, 10.0, 1.0, 10.0, 1.3821544647216797
25796, 1.1205660104751587, 0.2402375042438507, 0.24366751313209534, -0.022366195917129517, -0.10534938424825668, -8.982050895690918, -0.04226839914917946, -0.2004537731409073, -0.7650681138038635, -0.8288238048553467, -1.0021556615829468, 0.05588220804929733, 0.06952978561824864, -0.07277328097487157, 4.235320376380928, 9362.0, 30146.0, 35388.0, 9362.0, 8.390083312988281, 0.17763768136501312, -0.22838596999645233, 0.25920891761779785, -0.09584029018878937, -0.03195294365286827, 0.9979389309883118, -0.07010165601968765, 0.11272048950195312, 1.505126953125, 1.35205078125, 0.015380859375, 1.49560546875, 1.36962890625, 10.0, 1.0, 10.0, 1.3821544647216797
25816, 1.121314287185669, 0.2429104894399643, 0.24347646534442902, -0.022366195917129517, -0.10534938424825668, -8.982050895690918, -0.04226839914917946, -0.2004537731409073, -0.7650681138038635, -0.828811526298523, -1.0021542310714722, 0.05587203428149223, 0.06521235536238487, -0.07068344605971788, 4.23717842965892, 9362.0, 30146.0, 35388.0, 9362.0, 8.390083312988281, -0.0986042246222496, -0.03412951901555061, -0.18206222355365753, -0.0962107926607132, -0.034532543271780014, 0.9926654696464539, -0.07010165601968765, 0.11272048950195312, 1.505126953125, 1.368896484375, 0.01885986328125, 1.49267578125, 1.36962890625, 10.0, 1.0, 10.0, 1.3805569410324097
25836, 1.1217939853668213, 0.24320010840892792, 0.24339812994003296, -0.024089019745588303, -0.1135205328464508, -9.01268482208252, -0.04387638717889786, -0.20809823274612427, -0.766968309879303, -0.8288221955299377, -1.0021512508392334, 0.05586500093340874, 0.06778048721519327, -0.06985059166800056, 4.236877615888803, 9362.0, 30146.0, 35388.0, 9362.0, 8.390083312988281, -0.043778229504823685, 0.42346280813217163, 0.057266075164079666, -0.0962107926607132, -0.034532543271780014, 0.9926654696464539, -0.07010165601968765, 0.11272048950195312, 1.505126953125, 1.342529296875, 0.0161895751953125, 1.491943359375, 1.36962890625, 10.0, 1.0, 10.0, 1.3805569410324097
25856, 1.1221537590026855, 0.24382387101650238, 0.2424301654100418, -0.024089019745588303, -0.1135205328464508, -9.01268482208252, -0.04387638717889786, -0.20809823274612427, -0.766968309879303, -0.8288794755935669, -1.0021530389785767, 0.055802009999752045, 0.08558042245204792, -0.09608524008044128, 4.215676734271938, 9362.0, 30146.0, 35388.0, 9362.0, 8.390083312988281, 0.04195794835686684, -0.09583111107349396, 0.19422081112861633, -0.09513133019208908, -0.03292861953377724, 0.9971570372581482, -0.07010165601968765, 0.11272048950195312, 1.505126953125, 1.3359375, 0.01806640625, 1.493408203125, 1.36962890625, 10.0, 1.0, 10.0, 1.3805569410324097
25876, 1.1212918758392334, 0.24626389145851135, 0.24497146904468536, -0.025876600295305252, -0.12199750542640686, -9.043401718139648, -0.045503851026296616, -0.2157537043094635, -0.7687036395072937, -0.8288325667381287, -1.0021600723266602, 0.055874552577733994, 0.06971593611000293, -0.07035455006734992, 4.237691936250541, 9362.0, 30146.0, 35388.0, 9362.0, 8.390083312988281, 0.013296838849782944, 0.15285779535770416, 0.07019181549549103, -0.09336808323860168, -0.031023850664496422, 0.9951643347740173, -0.07010165601968765, 0.11272048950195312, 1.505126953125, 1.37109375, 0.0197906494140625, 1.493408203125, 1.36962890625, 10.0, 1.0, 10.0, 1.3805569410324097
25936, 1.1182814836502075, 0.24651247262954712, 0.24786938726902008, -0.02726018615067005, -0.12855619192123413, -9.066485404968262, -0.04673570767045021, -0.22148658335208893, -0.770399808883667, -0.8288165330886841, -1.002153992652893, 0.0558672696352005, 0.07220581399411256, -0.0680463724331446, 4.239262124337256, 9362.0, 30146.0, 35388.0, 9362.0, 8.390083312988281, -0.2384018450975418, -0.10117094963788986, -0.3083222210407257, -0.09515378624200821, -0.028235841542482376, 0.9931399822235107, -0.08403567969799042, -0.030637741088867188, 1.493408203125, 1.359375, 0.0160980224609375, 1.494140625, 1.36962890625, 10.0, 1.0, 10.0, 1.3805569410324097
25956, 1.1161595582962036, 0.24666661024093628, 0.25401607155799866, -0.02964843064546585, -0.1398691087961197, -9.105072975158691, -0.048792753368616104, -0.23102711141109467, -0.7731643915176392, -0.8288317322731018, -1.002165675163269, 0.05586344748735428, 0.07219594149343807, -0.07142106831429373, 4.242039646401624, 9362.0, 30146.0, 35388.0, 9362.0, 8.390083312988281, -0.057921141386032104, 0.045943647623062134, 0.3372129201889038, -0.09579635411500931, -0.03198104724287987, 0.9930379986763, -0.08403567969799042, -0.030637741088867188, 1.493408203125, 1.38720703125, 0.0291900634765625, 1.494140625, 1.36962890625, 10.0, 1.0, 10.0, 1.3805569410324097
25976, 1.1167094707489014, 0.24667342007160187, 0.2522994875907898, -0.02964843064546585, -0.1398691087961197, -9.105072975158691, -0.048792753368616104, -0.23102711141109467, -0.7731643915176392, -0.8288764953613281, -1.00216543674469, 0.05580461770296097, 0.09267453965107947, -0.09647701546697363, 4.2135039991900864, 9362.0, 30146.0, 35388.0, 9362.0, 8.390083312988281, -0.14686046540737152, -0.02405138872563839, 0.0804392397403717, -0.09605499356985092, -0.031090155243873596, 0.995841383934021, -0.08403567969799042, -0.030637741088867188, 1.493408203125, 1.36376953125, 0.017181396484375, 1.48974609375, 1.36962890625, 10.0, 1.0, 10.0, 1.3805569410324097
25996, 1.1171636581420898, 0.24336186051368713, 0.2557731568813324, -0.031130675226449966, -0.14688551425933838, -9.1282958984375, -0.0500250943005085, -0.23673099279403687, -0.7750169634819031, -0.8288148045539856, -1.0021603107452393, 0.05587315186858177, 0.06598427322238201, -0.06592456637434907, 4.236228124107394, 9362.0, 30146.0, 35388.0, 9362.0, 8.390083312988281, -0.013972959481179714, 0.28210917115211487, 0.05725698173046112, -0.09605499356985092, -0.031090155243873596, 0.995841383934021, -0.0750291645526886, -0.021678924560546875, 1.494140625, 1.35205078125, 0.015380859375, 1.494873046875, 1.36962890625, 10.0, 1.0, 10.0, 1.3805569410324097
26016, 1.115430235862732, 0.24187694489955902, 0.2535882294178009, -0.03264987841248512, -0.15407304465770721, -9.151573181152344, -0.05125059932470322, -0.24243593215942383, -0.7769801020622253, -0.8288202881813049, -1.0021405220031738, 0.055874064564704895, 0.06776402304842655, -0.0761273078019542, 4.234137358122615, 9362.0, 30146.0, 35388.0, 9362.0, 8.390083312988281, -0.19551172852516174, 0.1825736165046692, -0.1761782169342041, -0.09285345673561096, -0.03430059552192688, 0.9956017732620239, -0.0750291645526886, -0.021678924560546875, 1.494140625, 1.352783203125, 0.015350341796875, 1.494873046875, 1.36962890625, 10.0, 1.0, 10.0, 1.3805569410324097
26036, 1.116150975227356, 0.24420654773712158, 0.24860027432441711, -0.03264987841248512, -0.15407304465770721, -9.151573181152344, -0.05125059932470322, -0.24243593215942383, -0.7769801020622253, -0.828811526298523, -1.0021528005599976, 0.055874839425086975, 0.07048802095407494, -0.0713898035376701, 4.241369538997516, 9362.0, 30146.0, 35388.0, 9362.0, 8.390083312988281, -0.0218098945915699, -0.0965922623872757, 0.05958891287446022, -0.09485218673944473, -0.031089002266526222, 0.997004508972168, -0.0750291645526886, -0.021678924560546875, 1.494140625, 1.364501953125, 0.0173492431640625, 1.493408203125, 1.36962890625, 10.0, 1.0, 10.0, 1.3805569410324097
26096, 1.1166743040084839, 0.24290920794010162, 0.25217458605766296, -0.03633669391274452, -0.17150992155075073, -9.206076622009277, -0.05409068986773491, -0.25575610995292664, -0.7804850935935974, -0.8288180828094482, -1.0021535158157349, 0.055852845311164856, 0.07050708489487785, -0.06949328113785214, 4.238681237277283, 9362.0, 30146.0, 35388.0, 9362.0, 8.390083312988281, -0.09068407118320465, 0.10109726339578629, -0.2490042895078659, -0.0945279523730278, -0.032398153096437454, 0.9927868247032166, -0.06749682873487473, -0.12023735046386719, 1.486083984375, 1.35791015625, 0.015869140625, 1.49560546875, 1.36962890625, 10.0, 1.0, 10.0, 1.3805569410324097
26116, 1.1162984371185303, 0.24540479481220245, 0.2516743540763855, -0.03633669391274452, -0.17150992155075073, -9.206076622009277, -0.05409068986773491, -0.25575610995292664, -0.7804850935935974, -0.8288666605949402, -1.0021501779556274, 0.05579314008355141, 0.08559270444014641, -0.09915175004252319, 4.212371027336218, 9362.0, 30146.0, 35388.0, 9362.0, 8.390083312988281, -0.01803564839065075, -0.0817793682217598, 0.12309441715478897, -0.0945279523730278, -0.032398153096437454, 0.9927868247032166, -0.06749682873487473, -0.12023735046386719, 1.486083984375, 1.3447265625, 0.0158538818359375, 1.494140625, 1.36962890625, 10.0, 1.0, 10.0, 1.3805569410324097
26196, 1.1209237575531006, 0.24841906130313873, 0.2576518952846527, -0.04079434648156166, -0.1925794929265976, -9.26868724822998, -0.05735506862401962, -0.27098917961120605, -0.7846693992614746, -0.8288186192512512, -1.002149224281311, 0.0558587908744812, 0.06941916051328569, -0.06902730393139223, 4.230876401278914, 9362.0, 30146.0, 35388.0, 9362.0, 8.390083312988281, 0.2558763325214386, 0.03698087856173515, 0.12708711624145508, -0.09456741809844971, -0.03059576265513897, 0.9952380657196045, -0.07932794839143753, -0.07543754577636719, 1.48974609375, 1.34033203125, 0.0166168212890625, 1.494873046875, 1.36962890625, 10.0, 1.0, 10.0, 1.3805569410324097
26216, 1.120861530303955, 0.2510583698749542, 0.256743848323822, -0.04312124475836754, -0.203571617603302, -9.300122261047363, -0.058993130922317505, -0.27862146496772766, -0.7870885729789734, -0.8288630843162537, -1.0021543502807617, 0.055796802043914795, 0.08915166260977658, -0.0965397033549209, 4.206352200753285, 9362.0, 30146.0, 35388.0, 9362.0, 8.390083312988281, -0.24617259204387665, -0.11874860525131226, 0.02808176912367344, -0.09396842122077942, -0.03012651763856411, 0.9955491423606873, -0.07932794839143753, -0.07543754577636719, 1.48974609375, 1.33740234375, 0.0175323486328125, 1.49560546875, 1.36962890625, 10.0, 1.0, 10.0, 1.3805569410324097
26236, 1.1220788955688477, 0.25645628571510315, 0.25676512718200684, -0.04312124475836754, -0.203571617603302, -9.300122261047363, -0.058993130922317505, -0.27862146496772766, -0.7870885729789734, -0.8288165330886841, -1.0021544694900513, 0.05587182939052582, 0.07331778987886373, -0.06705734160735233, 4.233062083753419, 9362.0, 30146.0, 35388.0, 9362.0, 8.390083312988281, -0.0898408517241478, 0.09130270779132843, 0.3844546377658844, -0.0925765261054039, -0.028949197381734848, 0.9960034489631653, -0.07932794839143753, -0.07543754577636719, 1.48974609375, 1.387939453125, 0.0297393798828125, 1.4912109375, 1.36962890625, 10.0, 1.0, 10.0, 1.3805569410324097
26256, 1.1239992380142212, 0.2547989785671234, 0.2575269341468811, -0.04312124475836754, -0.203571617603302, -9.300122261047363, -0.058993130922317505, -0.27862146496772766, -0.7870885729789734, -0.8288138508796692, -1.0021493434906006, 0.05587581545114517, 0.07243433130956932, -0.06547991695126143, 4.237795130727502, 9362.0, 30146.0, 35388.0, 9362.0, 8.390083312988281, 0.19347336888313293, -0.032098956406116486, -0.22779983282089233, -0.09324648976325989, -0.028026754036545753, 0.994188129901886, -0.07932794839143753, -0.07543754577636719, 1.48974609375, 1.35205078125, 0.015380859375, 1.496337890625, 1.36962890625, 10.0, 1.0, 10.0, 1.3805569410324097
26276, 1.1243945360183716, 0.25378552079200745, 0.2581833600997925, -0.04735350236296654, -0.22354374825954437, -9.35533332824707, -0.06194692850112915, -0.2920169532299042, -0.7904004454612732, -0.8288210034370422, -1.0021553039550781, 0.05586649850010872, 0.07233700009539779, -0.0674216890315904, 4.240343668216526, 9362.0, 30146.0, 35388.0, 9362.0, 8.390083312988281, -0.027806024998426437, -0.1889961063861847, -0.137939453125, -0.09590818732976913, -0.03164474293589592, 0.9948104619979858, -0.07932794839143753, -0.07543754577636719, 1.48974609375, 1.317626953125, 0.0291900634765625, 1.496337890625, 1.36962890625, 10.0, 1.0, 10.0, 1.378042459487915
26296, 1.1237701177597046, 0.2551787495613098, 0.25626280903816223, -0.0486009456217289, -0.2294224053621292, -9.371152877807617, -0.06279589235782623, -0.29584795236587524, -0.7916301488876343, -0.828819215297699, -1.0021499395370483, 0.05587387830018997, 0.06898626686027681, -0.07115976002714319, 4.237317949646228, 9362.0, 30146.0, 35388.0, 9362.0, 8.390083312988281, -0.1859583705663681, -0.17031049728393555, -0.23090240359306335, -0.093082956969738, -0.029289336875081062, 0.9962973594665527, -0.08872285485267639, -0.2187976837158203, 1.47802734375, 1.35791015625, 0.015869140625, 1.496337890625, 1.36962890625, 10.0, 1.0, 10.0, 1.378042459487915
26316, 1.122031569480896, 0.2572764456272125, 0.25341740250587463, -0.0486009456217289, -0.2294224053621292, -9.371152877807617, -0.06279589235782623, -0.29584795236587524, -0.7916301488876343, -0.8288120031356812, -1.0021507740020752, 0.05586645379662514, 0.07177061401700606, -0.07046116066001673, 4.235690764436642, 9362.0, 30146.0, 35388.0, 9362.0, 8.390083312988281, 0.03333874046802521, 0.07032842934131622, -0.14868955314159393, -0.09548109024763107, -0.03251879662275314, 0.9977104067802429, -0.08872285485267639, -0.2187976837158203, 1.47802734375, 1.355712890625, 0.0155029296875, 1.4912109375, 1.36962890625, 10.0, 1.0, 10.0, 1.378042459487915
26336, 1.121596097946167, 0.2579357922077179, 0.25040605664253235, -0.05114695057272911, -0.24140974879264832, -9.402853012084961, -0.06450808793306351, -0.3035208582878113, -0.7931107878684998, -0.82887202501297, -1.0021425485610962, 0.05580468475818634, 0.08707888473498503, -0.09394381503256, 4.207745829020255, 9362.0, 30146.0, 35388.0, 9362.0, 8.390083312988281, 0.07328080385923386, 0.35332992672920227, -0.11232530325651169, -0.09548109024763107, -0.03251879662275314, 0.9977104067802429, -0.08872285485267639, -0.2187976837158203, 1.47802734375, 1.388671875, 0.03033447265625, 1.486083984375, 1.36962890625, 10.0, 1.0, 10.0, 1.378042459487915
26356, 1.121484398841858, 0.25724080204963684, 0.24956010282039642, -0.05244576558470726, -0.24751846492290497, -9.418722152709961, -0.06537242978811264, -0.3073509633541107, -0.7939016819000244, -0.8288159370422363, -1.0021698474884033, 0.055871713906526566, 0.06952264182085065, -0.06865668862656094, 4.239668691173699, 9362.0, 30146.0, 35388.0, 9362.0, 8.390083312988281, -0.21812152862548828, -0.24654273688793182, -0.08385619521141052, -0.092953160405159, -0.03338196873664856, 0.9946467280387878, -0.08872285485267639, -0.2187976837158203, 1.47802734375, 1.35791015625, 0.015869140625, 1.493408203125, 1.36962890625, 10.0, 1.0, 10.0, 1.378042459487915
