timeTick, roll, pitch, yaw, stateX, stateY, stateZ, stateVX, stateVY, stateVZ, otX0, otY0, otZ0, otRoll0, otPitch0, otYaw0, left wing, pitch motor, yaw motor, right wing, voltage, roll rate, pitch rate, yaw rate, A_x, A_y, A_z, current, i_raw, v_raw, airflow_voltage, airflow_speed, pot_Pitch, voltage_nKF, kFFx, state, State, volt_KF
30966, -0.6130668520927429, 7.967687606811523, -2.2491774559020996, 0, 0, 0, 0, 0, 0, -0.8245036602020264, -1.0047727823257446, 0.05773184075951576, -0.462878212044936, 0.15689487348231523, 1.6260113937790965, 0, 0, 0, 0, 0, 0, 0, 0, 0, 0, 0, 0, 0, 0, 0, 0, 0, 0, 0, 0, 0, 0
30976, -0.612490713596344, 7.966571807861328, -2.2488088607788086, 0.008036434650421143, -0.000937759701628238, -24.24420166015625, 0.17391826212406158, -0.020292900502681732, -1.6398954391479492, -0.8244543671607971, -1.0046316385269165, 0.05773552507162094, -0.519867744317792, 0.20961650465861226, 1.6451624329538521, 9362.0, 30146.0, 35388.0, 9362.0, 0, -0.04976172000169754, 0.2673851549625397, -0.009187541902065277, -0.08539535105228424, -0.04438723623752594, 0.9937095642089844, 0, 0, 0, 1.300048828125, 0.0489654541015625, 0, 0, 0, 0, 0, 0
30986, -0.612506091594696, 7.965505123138428, -2.2489593029022217, 0.009708286263048649, -0.0011328273685649037, -24.260608673095703, 0.16045203804969788, -0.018720591440796852, -1.6414037942886353, -0.8244493007659912, -1.0046244859695435, 0.05772635340690613, -0.5240894046644047, 0.2168092408049631, 1.6365025929615606, 9362.0, 30146.0, 35388.0, 9362.0, 0, -0.1481712907552719, 0.26244136691093445, -0.10744283348321915, -0.08660697937011719, -0.04685648903250694, 0.9929887056350708, 0, 0, 0, 1.332275390625, 0.019561767578125, 1.49853515625, 1.335205078125, 10.0, 1.0, 10.0, 1.3499943017959595
30996, -0.613037109375, 7.963860034942627, -2.248684883117676, 0.01124555990099907, -0.0013121807714924216, -24.27703094482422, 0.14700253307819366, -0.017150137573480606, -1.643019199371338, -0.8244739770889282, -1.0046813488006592, 0.05771839618682861, -0.48796870633016104, 0.16170263193893675, 1.600198885309415, 9362.0, 30146.0, 35388.0, 9362.0, 0, 0.04785223677754402, -0.0005104739684611559, 0.11678282171487808, -0.0854269340634346, -0.045594681054353714, 0.9950932264328003, 0, 0, 0, 1.292724609375, 0.060089111328125, 1.49853515625, 1.3125, 10.0, 1.0, 10.0, 1.3499544858932495
31006, -0.6127891540527344, 7.9649786949157715, -2.248415470123291, 0.012648243457078934, -0.0014758133329451084, -24.293468475341797, 0.1335342675447464, -0.01557643711566925, -1.6444799900054932, -0.8245112299919128, -1.0046656131744385, 0.05764663219451904, -0.5103930211239409, 0.18081249438051827, 1.601106338717176, 9362.0, 30146.0, 35388.0, 9362.0, 0, -0.02703125774860382, -0.2836554944515228, 0.11720737814903259, -0.08362890034914017, -0.045078977942466736, 0.9952771663665771, 0, 0, 0, 1.352783203125, 0.015350341796875, 1.49267578125, 1.368896484375, 10.0, 1.0, 10.0, 1.3500328063964844
31016, -0.6123805046081543, 7.968223571777344, -2.2481210231781006, 0.01391616091132164, -0.001623702235519886, -24.309919357299805, 0.12004926800727844, -0.014001415111124516, -1.6458344459533691, -0.8245105147361755, -1.0046616792678833, 0.05763782188296318, -0.5031728061083971, 0.1921267945708962, 1.5963050744897194, 9362.0, 30146.0, 35388.0, 9362.0, 0, 0.017561087384819984, -0.21304352581501007, -0.3484440743923187, -0.08352639526128769, -0.04518835246562958, 0.995723307132721, 0, 0, 0, 1.31689453125, 0.0298919677734375, 1.49267578125, 1.34765625, 10.0, 1.0, 10.0, 1.3499490022659302
31026, -0.6123912334442139, 7.970590591430664, -2.250044584274292, 0.015049201436340809, -0.001755843753926456, -24.326383590698242, 0.1065589115023613, -0.012426430359482765, -1.647189974784851, -0.824554443359375, -1.004639983177185, 0.05794991925358772, -0.5817803986100426, 0.12130456135903955, 1.5954655986093653, 9362.0, 30146.0, 35388.0, 9362.0, 0, -0.04942282289266586, -0.5788367986679077, 0.18028847873210907, -0.08500338345766068, -0.04951031133532524, 0.9965268969535828, 0, 0, 0, 1.348388671875, 0.0154571533203125, 1.49560546875, 1.367431640625, 10.0, 1.0, 10.0, 1.3499579429626465
31036, -0.6128666400909424, 7.974671363830566, -2.248832941055298, 0.01604728400707245, -0.0018722281092777848, -24.34286117553711, 0.09305752068758011, -0.010850733146071434, -1.6484962701797485, -0.8244855999946594, -1.0047193765640259, 0.0577288381755352, -0.4576908674497422, 0.16542595072525046, 1.5987198803923601, 9362.0, 30146.0, 35388.0, 9362.0, 0, -0.20510312914848328, 0.22130444645881653, 0.10001692175865173, -0.08607575297355652, -0.04566510394215584, 0.9982070922851562, 0, 0, 0, 1.339599609375, 0.0168914794921875, 1.49560546875, 1.352783203125, 10.0, 1.0, 10.0, 1.3500200510025024
31046, -0.6131790280342102, 7.973682880401611, -2.2483842372894287, 0.01691022329032421, -0.0019728406332433224, -24.359352111816406, 0.07953041791915894, -0.009271867573261261, -1.649667739868164, -0.8244463205337524, -1.0046281814575195, 0.057741809636354446, -0.5286039366095814, 0.2056711516657117, 1.634405560316435, 9362.0, 30146.0, 35388.0, 9362.0, 0, -0.02917523868381977, -0.2140880525112152, -0.0041534872725605965, -0.08596647530794144, -0.04470773786306381, 0.9966617226600647, 0, 0, 0, 1.28173828125, 0.0802001953125, 1.49267578125, 1.326416015625, 10.0, 1.0, 10.0, 1.3500080108642578
31056, -0.6130386590957642, 7.975941181182861, -2.2478535175323486, 0.0176379531621933, -0.0020576687529683113, -24.3758544921875, 0.06601546704769135, -0.007693887688219547, -1.6509149074554443, -0.8244726657867432, -1.0046862363815308, 0.057718195021152496, -0.4814552353165634, 0.1576134287144555, 1.5945368403500808, 9362.0, 30146.0, 35388.0, 9362.0, 0, -0.044488999992609024, 0.08625559508800507, 0.0043559144251048565, -0.08272656798362732, -0.04580613225698471, 0.995913028717041, 0, 0, 0, 1.30224609375, 0.0460052490234375, 1.49267578125, 1.349853515625, 10.0, 1.0, 10.0, 1.3500584363937378
31066, -0.6131089329719543, 7.975271701812744, -2.247253656387329, 0.01823057234287262, -0.002126724924892187, -24.392370223999023, 0.05250837281346321, -0.006117505952715874, -1.6522458791732788, -0.8244930505752563, -1.0046589374542236, 0.057658687233924866, -0.5039518177665447, 0.17326426339164414, 1.5904472782040988, 9362.0, 30146.0, 35388.0, 9362.0, 8.370248794555664, -0.1317320466041565, -0.03451941907405853, -0.15035052597522736, -0.08526401221752167, -0.04784659668803215, 0.9971420764923096, -0.0594361312687397, 0.03208160400390625, 1.49853515625, 1.338134765625, 0.01727294921875, 1.493408203125, 1.395263671875, 10.0, 1.0, 10.0, 1.3499282598495483
31076, -0.6136577129364014, 7.974738121032715, -2.2479193210601807, 0.018688075244426727, -0.00218001171015203, -24.408899307250977, 0.03899221867322922, -0.00453969044610858, -1.6535035371780396, -0.824469268321991, -1.004716396331787, 0.05770404636859894, -0.45985617720069166, 0.1679042556828847, 1.5992663853605065, 9362.0, 30146.0, 35388.0, 9362.0, 8.370248794555664, -0.004831057507544756, 0.39353489875793457, 0.08823969215154648, -0.08563335239887238, -0.0483306460082531, 0.9952949285507202, -0.0594361312687397, 0.03208160400390625, 1.49853515625, 1.368896484375, 0.01885986328125, 1.493408203125, 1.330810546875, 10.0, 1.0, 10.0, 1.3499395847320557
31086, -0.6137261390686035, 7.971552848815918, -2.247474431991577, 0.01901051215827465, -0.0022175258491188288, -24.42544174194336, 0.025495214387774467, -0.0029632216319441795, -1.6548917293548584, -0.8245847821235657, -1.0047767162322998, 0.0580119788646698, -0.49404701212599456, 0.05758236513477755, 1.5532203581032578, 9362.0, 30146.0, 35388.0, 9362.0, 8.370248794555664, 0.10029479116201401, 0.15089893341064453, -0.024045225232839584, -0.08323638141155243, -0.04611530900001526, 0.9957752227783203, -0.0594361312687397, 0.03208160400390625, 1.49853515625, 1.3740234375, 0.0210723876953125, 1.494873046875, 1.35205078125, 10.0, 1.0, 10.0, 1.3499277830123901
31096, -0.6127895712852478, 7.97019100189209, -2.24782657623291, 0.019197998568415642, -0.0022392752580344677, -24.441997528076172, 0.012001880444586277, -0.0013865677174180746, -1.6562669277191162, -0.824445366859436, -1.0046831369400024, 0.057786911725997925, -0.5082914183429167, 0.19743222612879663, 1.6384743725960065, 9362.0, 30146.0, 35388.0, 9362.0, 8.370248794555664, -0.03644463047385216, -0.12023185938596725, -0.08684509247541428, -0.08323518931865692, -0.0476304329931736, 0.994591474533081, -0.0594361312687397, 0.03208160400390625, 1.49853515625, 1.390869140625, 0.0319671630859375, 1.494873046875, 1.341796875, 10.0, 1.0, 10.0, 1.3500338792800903
31106, -0.6130033135414124, 7.969788551330566, -2.2485668659210205, 0.01925061270594597, -0.0022452720440924168, -24.458566665649414, -0.0014790963614359498, 0.00018741008534561843, -1.6577140092849731, -0.8244693279266357, -1.0047755241394043, 0.05779870226979256, -0.4360116500743808, 0.14127348373818904, 1.6041786569270484, 9362.0, 30146.0, 35388.0, 9362.0, 8.370248794555664, 0.18166738748550415, -0.02074580080807209, -0.359950453042984, -0.08344236016273499, -0.0492493212223053, 0.9954386353492737, -0.0594361312687397, 0.03208160400390625, 1.49853515625, 1.33154296875, 0.0198516845703125, 1.4970703125, 1.270751953125, 10.0, 1.0, 10.0, 1.349970817565918
31116, -0.6120032072067261, 7.968564510345459, -2.2506847381591797, 0.019168425351381302, -0.002235526917502284, -24.47515106201172, -0.014958485029637814, 0.0017621094593778253, -1.6591672897338867, -0.8245025873184204, -1.0047012567520142, 0.05771913751959801, -0.4960779887994463, 0.16537263966156956, 1.5841220058074377, 9362.0, 30146.0, 35388.0, 9362.0, 8.370248794555664, 0.05860834941267967, 0.4183920621871948, -0.14734579622745514, -0.08496049046516418, -0.04629359766840935, 0.9948005676269531, -0.0594361312687397, 0.03208160400390625, 1.49853515625, 1.360107421875, 0.0162506103515625, 1.4970703125, 1.31982421875, 10.0, 1.0, 10.0, 1.3500213623046875
31126, -0.6107900142669678, 7.963960647583008, -2.2509970664978027, 0.018951455131173134, -0.002210041508078575, -24.491750717163086, -0.02843554876744747, 0.003335055196657777, -1.6606221199035645, -0.8244907259941101, -1.0047791004180908, 0.05778921768069267, -0.44516483166202514, 0.14555456240546505, 1.6041781953535235, 9362.0, 30146.0, 35388.0, 9362.0, 8.370248794555664, 0.004381187260150909, -0.08640722930431366, -0.005654899403452873, -0.08731638640165329, -0.046781182289123535, 0.993608832359314, -0.0594361312687397, 0.03208160400390625, 1.49853515625, 1.2919921875, 0.0613250732421875, 1.493408203125, 1.35498046875, 10.0, 1.0, 10.0, 1.3499491214752197
31136, -0.6098607778549194, 7.962090015411377, -2.250977039337158, 0.01859981194138527, -0.0021688449196517467, -24.508363723754883, -0.04189307987689972, 0.004904251545667648, -1.6621614694595337, -0.8244137763977051, -1.0046941041946411, 0.05785389989614487, -0.49663693897645217, 0.17011570823871125, 1.6458889670810257, 9362.0, 30146.0, 35388.0, 9362.0, 8.370248794555664, -0.07825957983732224, -0.4091064929962158, 0.03965592756867409, -0.08588972687721252, -0.04929005354642868, 0.9951821565628052, -0.0594361312687397, 0.03208160400390625, 1.49853515625, 1.365966796875, 0.017791748046875, 1.493408203125, 1.36962890625, 10.0, 1.0, 10.0, 1.3498262166976929
31146, -0.6101279854774475, 7.964175224304199, -2.2498836517333984, 0.018113551661372185, -0.0021119583398103714, -24.524991989135742, -0.055358801037073135, 0.0064728157594799995, -1.6636195182800293, -0.8244327306747437, -1.0047533512115479, 0.0578664131462574, -0.4673069342750226, 0.17688660985288607, 1.6514160659837238, 9362.0, 30146.0, 35388.0, 9362.0, 8.370248794555664, 0.18582850694656372, 0.26412898302078247, -0.20239004492759705, -0.08358319103717804, -0.04777706786990166, 0.9956686496734619, -0.0594361312687397, 0.03208160400390625, 1.49853515625, 1.33740234375, 0.0175323486328125, 1.49560546875, 1.37255859375, 10.0, 1.0, 10.0, 1.3498355150222778
31156, -0.608975887298584, 7.962455749511719, -2.2513043880462646, 0.01749255508184433, -0.002039377111941576, -24.541635513305664, -0.06884055584669113, 0.00804374273866415, -1.6649881601333618, -0.8244730830192566, -1.0047348737716675, 0.057785362005233765, -0.4722391540732816, 0.14039620027045885, 1.5921343425534382, 9362.0, 30146.0, 35388.0, 9362.0, 8.370248794555664, -0.17385900020599365, 0.023522399365901947, -0.3188944160938263, -0.08219978213310242, -0.04637462645769119, 0.9959375262260437, -0.0594361312687397, 0.03208160400390625, 1.49853515625, 1.326416015625, 0.022705078125, 1.49560546875, 1.361572265625, 10.0, 1.0, 10.0, 1.3496112823486328
31166, -0.6090127229690552, 7.961822986602783, -2.254709243774414, 0.016736751422286034, -0.001951094949617982, -24.558292388916016, -0.08232006430625916, 0.009613490663468838, -1.6663514375686646, -0.8245164155960083, -1.004700779914856, 0.0577034167945385, -0.4967243611768641, 0.16885678966914952, 1.6013115499223542, 9362.0, 30146.0, 35388.0, 9362.0, 8.370248794555664, 0.07845939695835114, 0.2846076488494873, 0.03806672245264053, -0.08372499793767929, -0.048798270523548126, 0.9943792223930359, -0.06029782444238663, -0.07543754577636719, 1.48974609375, 1.393798828125, 0.0344085693359375, 1.49267578125, 1.361572265625, 10.0, 1.0, 10.0, 1.349711537361145
31176, -0.6081812977790833, 7.959370136260986, -2.255711555480957, 0.01584622450172901, -0.0018471188377588987, -24.574962615966797, -0.09578533470630646, 0.01118195615708828, -1.6678080558776855, -0.8244081735610962, -1.0046919584274292, 0.057862065732479095, -0.49406886590683785, 0.1660570915298365, 1.6475041174509184, 9362.0, 30146.0, 35388.0, 9362.0, 8.370248794555664, 0.027735551819205284, 0.2618512213230133, 0.24810437858104706, -0.08460602164268494, -0.047600820660591125, 0.9953394532203674, -0.06029782444238663, -0.07543754577636719, 1.48974609375, 1.32421875, 0.024139404296875, 1.49267578125, 1.3359375, 10.0, 1.0, 10.0, 1.3497767448425293
31186, -0.608116090297699, 7.957869052886963, -2.2547993659973145, 0.014821046032011509, -0.0017274626297876239, -24.59164810180664, -0.10925038903951645, 0.012749083340168, -1.6692373752593994, -0.8244140148162842, -1.004737138748169, 0.05788787826895714, -0.46588670216964095, 0.17699561713038747, 1.6434304919823044, 9362.0, 30146.0, 35388.0, 9362.0, 8.370248794555664, -0.03302773833274841, -0.23696249723434448, -0.1320856809616089, -0.08523193746805191, -0.04713352769613266, 0.9941570162773132, -0.06029782444238663, -0.07543754577636719, 1.48974609375, 1.34033203125, 0.0166168212890625, 1.49267578125, 1.361572265625, 10.0, 1.0, 10.0, 1.3496174812316895
31196, -0.6082385778427124, 7.958230972290039, -2.2556264400482178, 0.01366126723587513, -0.0015921415761113167, -24.608348846435547, -0.12270529568195343, 0.014315321110188961, -1.6707204580307007, -0.824498176574707, -1.0046966075897217, 0.05773121118545532, -0.49640042871851925, 0.1656668916348849, 1.6015793943549783, 9362.0, 30146.0, 35388.0, 9362.0, 8.370248794555664, 0.03653367981314659, 0.03210033103823662, 0.5813546180725098, -0.08225219696760178, -0.04740307480096817, 0.994843065738678, -0.06029782444238663, -0.07543754577636719, 1.48974609375, 1.3740234375, 0.0210723876953125, 1.49267578125, 1.36962890625, 10.0, 1.0, 10.0, 1.3496366739273071
31206, -0.6084858179092407, 7.956760883331299, -2.251162052154541, 0.012366924434900284, -0.0014411546289920807, -24.625062942504883, -0.13616345822811127, 0.015881018713116646, -1.6721861362457275, -0.8244592547416687, -1.0047274827957153, 0.057777781039476395, -0.46869618334656316, 0.13876082025279857, 1.600590187152328, 9362.0, 30146.0, 35388.0, 9362.0, 8.370248794555664, 0.028113868087530136, 0.34230586886405945, 0.1470913589000702, -0.08566484600305557, -0.04673722758889198, 0.9935216903686523, -0.06029782444238663, -0.07543754577636719, 1.48974609375, 1.374755859375, 0.021392822265625, 1.48974609375, 1.30810546875, 10.0, 1.0, 10.0, 1.3496558666229248
31216, -0.6087979674339294, 7.9544243812561035, -2.2497339248657227, 0.010938096791505814, -0.0012745241401717067, -24.64179229736328, -0.14960221946239471, 0.017444748431444168, -1.6737724542617798, -0.8245013356208801, -1.0047025680541992, 0.0577128604054451, -0.4966381664074135, 0.16996039619962744, 1.5892629627005788, 9362.0, 30146.0, 35388.0, 9362.0, 8.370248794555664, 0.10098918527364731, -0.005370889790356159, 0.3370620310306549, -0.08529040217399597, -0.04937497153878212, 0.9933298826217651, -0.06029782444238663, -0.07543754577636719, 1.48974609375, 1.367431640625, 0.0183258056640625, 1.48974609375, 1.31689453125, 10.0, 1.0, 10.0, 1.349755883216858
31226, -0.6090138554573059, 7.954651355743408, -2.2468085289001465, 0.009374910965561867, -0.0010922574438154697, -24.658538818359375, -0.16303497552871704, 0.019007915630936623, -1.6753737926483154, -0.8244287371635437, -1.0047515630722046, 0.05787764489650726, -0.4576758268512411, 0.17884787011308845, 1.6483329376501592, 9362.0, 30146.0, 35388.0, 9362.0, 8.370248794555664, -0.03487211465835571, 0.07088862359523773, -0.08840170502662659, -0.0876116156578064, -0.05017245188355446, 0.9948350787162781, -0.06029782444238663, -0.07543754577636719, 1.48974609375, 1.34912109375, 0.015380859375, 1.49853515625, 1.37548828125, 10.0, 1.0, 10.0, 1.3499388694763184
31236, -0.6104975342750549, 7.952814102172852, -2.246173858642578, 0.00767730176448822, -0.0008943495340645313, -24.67530059814453, -0.1764870136976242, 0.02057352289557457, -1.6768394708633423, -0.8244147300720215, -1.0047407150268555, 0.0578998401761055, -0.4668819995977817, 0.17593363454435007, 1.6517715874321381, 9362.0, 30146.0, 35388.0, 9362.0, 8.370248794555664, 0.1961863785982132, -0.1335984617471695, 0.22494983673095703, -0.08702289313077927, -0.04624423757195473, 0.9950156807899475, -0.06029782444238663, -0.07543754577636719, 1.48974609375, 1.361572265625, 0.016571044921875, 1.49853515625, 1.29345703125, 10.0, 1.0, 10.0, 1.349991798400879
31246, -0.6101568937301636, 7.953947067260742, -2.2444710731506348, 0.005845139268785715, -0.0006807686877436936, -24.692075729370117, -0.1899455338716507, 0.02214224450290203, -1.6782352924346924, -0.8245202898979187, -1.0047205686569214, 0.05767441540956497, -0.5068822693441799, 0.16646263641078463, 1.620693208395623, 9362.0, 30146.0, 35388.0, 9362.0, 8.370248794555664, -0.14283010363578796, -0.033088669180870056, 0.05841997638344765, -0.08641255646944046, -0.04726037010550499, 0.9961984753608704, -0.06029782444238663, -0.07543754577636719, 1.48974609375, 1.35205078125, 0.015380859375, 1.48974609375, 1.37841796875, 10.0, 1.0, 10.0, 1.35002601146698
31256, -0.611215353012085, 7.955077171325684, -2.2443978786468506, 0.0038783401250839233, -0.00045150029473006725, -24.708864212036133, -0.20341429114341736, 0.0237114280462265, -1.6795722246170044, -0.8244516253471375, -1.0047377347946167, 0.05781439319252968, -0.478168024653211, 0.1839143414917146, 1.6795864432042356, 9362.0, 30146.0, 35388.0, 9362.0, 8.370248794555664, 0.09152302891016006, -0.11060088872909546, 0.1118396669626236, -0.08418341726064682, -0.04664301127195358, 0.9966548085212708, -0.06029782444238663, -0.07543754577636719, 1.48974609375, 1.373291015625, 0.0207366943359375, 1.48974609375, 1.37255859375, 10.0, 1.0, 10.0, 1.3500162363052368
31266, -0.6119047403335571, 7.954640865325928, -2.2437782287597656, 0.0017768170218914747, -0.00020652759121730924, -24.725666046142578, -0.21689032018184662, 0.0252829696983099, -1.6808702945709229, -0.8244179487228394, -1.0046478509902954, 0.057791925966739655, -0.5055075562219161, 0.18385853977983402, 1.6310771815944571, 9362.0, 30146.0, 35388.0, 9362.0, 8.390083312988281, 0.06795934587717056, 0.18517132103443146, 0.3399132788181305, -0.08501763641834259, -0.045278094708919525, 0.9941082000732422, -0.05611831694841385, -0.06647872924804688, 1.490478515625, 1.318359375, 0.028656005859375, 1.491943359375, 1.324951171875, 10.0, 1.0, 10.0, 1.3498469591140747
31276, -0.6122941970825195, 7.951915740966797, -2.24225115776062, -0.00045933458022773266, 5.415058694779873e-05, -24.742481231689453, -0.23034004867076874, 0.0268523171544075, -1.6823512315750122, -0.8245061635971069, -1.0046721696853638, 0.057642728090286255, -0.5007231994461953, 0.18193502235291703, 1.5986959486444443, 9362.0, 30146.0, 35388.0, 9362.0, 8.390083312988281, 0.09482090920209885, -0.0096556656062603, 0.04090549796819687, -0.08417316526174545, -0.0462673045694828, 0.9929394721984863, -0.05611831694841385, -0.06647872924804688, 1.490478515625, 1.36962890625, 0.01910400390625, 1.491943359375, 1.32861328125, 10.0, 1.0, 10.0, 1.3498609066009521
31286, -0.6123118996620178, 7.9516825675964355, -2.241255521774292, -0.0028298543766140938, 0.0003305104619357735, -24.759313583374023, -0.24376387894153595, 0.02841942198574543, -1.683984637260437, -0.8244677186012268, -1.004696011543274, 0.05772201716899872, -0.4889507072634252, 0.15398338995450445, 1.597328484993405, 9362.0, 30146.0, 35388.0, 9362.0, 8.390083312988281, -0.29343676567077637, 0.07265473157167435, 0.1459985226392746, -0.08583218604326248, -0.04748762771487236, 0.9962498545646667, -0.05611831694841385, -0.06647872924804688, 1.490478515625, 1.3564453125, 0.0156707763671875, 1.494140625, 1.33447265625, 10.0, 1.0, 10.0, 1.3497753143310547
31296, -0.6137361526489258, 7.950206756591797, -2.2389907836914062, -0.0028298543766140938, 0.0003305104619357735, -24.759313583374023, -0.24376387894153595, 0.02841942198574543, -1.683984637260437, -0.8244467377662659, -1.0046322345733643, 0.05773470550775528, -0.5240105044862843, 0.20673774662159872, 1.6286741429399718, 9362.0, 30146.0, 35388.0, 9362.0, 8.390083312988281, 0.042973585426807404, 0.2596139907836914, 0.18117715418338776, -0.08485376834869385, -0.048728182911872864, 0.9964667558670044, -0.05611831694841385, -0.06647872924804688, 1.490478515625, 1.36962890625, 0.01910400390625, 1.494140625, 1.400390625, 10.0, 1.0, 10.0, 1.349745512008667
31306, -0.6131028532981873, 7.94838809967041, -2.2374489307403564, -0.00797437783330679, 0.0009303370025008917, -24.793020248413086, -0.2706964910030365, 0.031564850360155106, -1.6866185665130615, -0.824436604976654, -1.004646897315979, 0.05772010236978531, -0.520019430741259, 0.20827938385463085, 1.635394014944383, 9362.0, 30146.0, 35388.0, 9362.0, 8.390083312988281, -0.12804938852787018, 0.04191681370139122, 0.019745059311389923, -0.08389664441347122, -0.048005908727645874, 0.9938896298408508, -0.05611831694841385, -0.06647872924804688, 1.490478515625, 1.343994140625, 0.015899658203125, 1.494140625, 1.36083984375, 10.0, 1.0, 10.0, 1.349745512008667
31316, -0.6141182780265808, 7.948177337646484, -2.237579584121704, -0.00797437783330679, 0.0009303370025008917, -24.793020248413086, -0.2706964910030365, 0.031564850360155106, -1.6866185665130615, -0.8244100213050842, -1.004650354385376, 0.057772934436798096, -0.5066856482419069, 0.18172850117582584, 1.6312431771460525, 9362.0, 30146.0, 35388.0, 9362.0, 8.390083312988281, 0.11313728988170624, 0.6087193489074707, 0.1283707171678543, -0.08389664441347122, -0.048005908727645874, 0.9938896298408508, -0.05611831694841385, -0.06647872924804688, 1.490478515625, 1.30810546875, 0.0388031005859375, 1.494140625, 1.36083984375, 10.0, 1.0, 10.0, 1.349745512008667
31326, -0.6134476661682129, 7.94448184967041, -2.238112211227417, -0.00797437783330679, 0.0009303370025008917, -24.793020248413086, -0.2706964910030365, 0.031564850360155106, -1.6866185665130615, -0.8245016932487488, -1.0046684741973877, 0.057635169476270676, -0.5063450010817585, 0.17672546364846653, 1.5961070278655922, 9362.0, 30146.0, 35388.0, 9362.0, 8.390083312988281, -0.05944785848259926, -0.3325660824775696, -0.11200425028800964, -0.08497623354196548, -0.04703952744603157, 0.9951120615005493, -0.05611831694841385, -0.06647872924804688, 1.490478515625, 1.38720703125, 0.0291900634765625, 1.494140625, 1.36083984375, 10.0, 1.0, 10.0, 1.349745512008667
31336, -0.6136720776557922, 7.945893287658691, -2.2393829822540283, -0.00797437783330679, 0.0009303370025008917, -24.793020248413086, -0.2706964910030365, 0.031564850360155106, -1.6866185665130615, -0.8245024085044861, -1.0046706199645996, 0.05765318498015404, -0.5112738638981279, 0.17323985246221696, 1.5886442912359018, 9362.0, 30146.0, 35388.0, 9362.0, 8.390083312988281, -0.23018227517604828, -0.09719809889793396, -0.3194568455219269, -0.08672268688678741, -0.04737577959895134, 0.9954555034637451, -0.05611831694841385, -0.06647872924804688, 1.490478515625, 1.332275390625, 0.019561767578125, 1.494140625, 1.36083984375, 10.0, 1.0, 10.0, 1.349745512008667
31356, -0.6144717931747437, 7.9470672607421875, -2.2436935901641846, -0.00797437783330679, 0.0009303370025008917, -24.793020248413086, -0.2706964910030365, 0.031564850360155106, -1.6866185665130615, -0.8244984745979309, -1.004676103591919, 0.057651132345199585, -0.5125100627805822, 0.16884013814660648, 1.5977678739858163, 9362.0, 30146.0, 35388.0, 9362.0, 8.390083312988281, -0.09983476251363754, -0.1587314009666443, -0.027079230174422264, -0.08672268688678741, -0.04737577959895134, 0.9954555034637451, -0.05611831694841385, -0.06647872924804688, 1.490478515625, 1.405517578125, 0.0454254150390625, 1.493408203125, 1.36083984375, 10.0, 1.0, 10.0, 1.349745512008667
31366, -0.6152010560035706, 7.948049068450928, -2.2447779178619385, -0.02663564123213291, 0.00310712237842381, -24.89447784423828, -0.35136544704437256, 0.041002072393894196, -1.695136547088623, -0.8244435787200928, -1.0046284198760986, 0.05771424248814583, -0.5298736679454744, 0.20137704742873552, 1.6408433535250657, 9362.0, 30146.0, 35388.0, 9362.0, 8.390083312988281, -0.09983476251363754, -0.1587314009666443, -0.027079230174422264, -0.08672268688678741, -0.04737577959895134, 0.9954555034637451, -0.047171272337436676, -0.03959846496582031, 1.49267578125, 1.346923828125, 0.015472412109375, 1.493408203125, 1.36083984375, 10.0, 1.0, 10.0, 1.349745512008667
31386, -0.6145474910736084, 7.950170516967773, -2.250183582305908, -0.03393203020095825, 0.003958713263273239, -24.928407669067383, -0.37827420234680176, 0.04415791109204292, -1.697838306427002, -0.8244632482528687, -1.0047056674957275, 0.057712506502866745, -0.48849587956934953, 0.15227851069136022, 1.596288589522441, 9362.0, 30146.0, 35388.0, 9362.0, 8.390083312988281, -0.02074800431728363, 0.013900315389037132, -0.39679333567619324, -0.0858754888176918, -0.04651452973484993, 0.9938506484031677, -0.047171272337436676, -0.03959846496582031, 1.49267578125, 1.259765625, 0.1334381103515625, 1.493408203125, 1.36083984375, 10.0, 1.0, 10.0, 1.349745512008667
31396, -0.6140291690826416, 7.950634956359863, -2.2529101371765137, -0.03393203020095825, 0.003958713263273239, -24.928407669067383, -0.37827420234680176, 0.04415791109204292, -1.697838306427002, -0.8244938850402832, -1.0046648979187012, 0.057650648057460785, -0.5078167117213485, 0.17336116099187393, 1.5986691734317124, 9362.0, 30146.0, 35388.0, 9362.0, 8.390083312988281, -0.033074066042900085, 0.25603848695755005, -0.3959280252456665, -0.0858754888176918, -0.04651452973484993, 0.9938506484031677, -0.047171272337436676, -0.03959846496582031, 1.49267578125, 1.36962890625, 0.01910400390625, 1.493408203125, 1.36083984375, 10.0, 1.0, 10.0, 1.349745512008667
31416, -0.6129398941993713, 7.950249195098877, -2.2609264850616455, -0.04588530212640762, 0.0053543830290436745, -24.979406356811523, -0.41861557960510254, 0.048888757824897766, -1.7021398544311523, -0.8245012164115906, -1.004664421081543, 0.05764993652701378, -0.5021184638372508, 0.17132555947878814, 1.6009232047415909, 9362.0, 30146.0, 35388.0, 9362.0, 8.390083312988281, 0.26937437057495117, -0.15849384665489197, -0.19421783089637756, -0.0840754434466362, -0.04502630606293678, 0.994143545627594, -0.047171272337436676, -0.03959846496582031, 1.49267578125, 1.3154296875, 0.03118896484375, 1.493408203125, 1.36083984375, 10.0, 1.0, 10.0, 1.349745512008667
31436, -0.610381007194519, 7.9511919021606445, -2.2643938064575195, -0.04588530212640762, 0.0053543830290436745, -24.979406356811523, -0.41861557960510254, 0.048888757824897766, -1.7021398544311523, -0.8244961500167847, -1.0046720504760742, 0.05762731656432152, -0.5058095306107936, 0.1745696847193301, 1.6014830675957141, 9362.0, 30146.0, 35388.0, 9362.0, 8.390083312988281, 0.24959416687488556, -0.12060930579900742, 0.004885094705969095, -0.0840754434466362, -0.04502630606293678, 0.994143545627594, -0.047171272337436676, -0.03959846496582031, 1.49267578125, 1.38134765625, 0.025177001953125, 1.49560546875, 1.36083984375, 10.0, 1.0, 10.0, 1.349745512008667
31466, -0.608394205570221, 7.956751823425293, -2.2627668380737305, -0.06849827617406845, 0.007995651103556156, -25.064685821533203, -0.48595547676086426, 0.05676191672682762, -1.7086775302886963, -0.8245024681091309, -1.0047889947891235, 0.057745467871427536, -0.46717583540162777, 0.14753785058005064, 1.643364358615985, 9362.0, 30146.0, 35388.0, 9362.0, 8.390083312988281, 0.1848580539226532, -0.31727683544158936, -0.044163405895233154, -0.08511214703321457, -0.04443522170186043, 0.9965726137161255, -0.047171272337436676, -0.03959846496582031, 1.49267578125, 1.3388671875, 0.017120361328125, 1.4912109375, 1.36083984375, 10.0, 1.0, 10.0, 1.349745512008667
31476, -0.6069813370704651, 7.95829439163208, -2.262176036834717, -0.06849827617406845, 0.007995651103556156, -25.064685821533203, -0.48595547676086426, 0.05676191672682762, -1.7086775302886963, -0.8245380520820618, -1.0047087669372559, 0.05765029415488243, -0.5181240960434186, 0.16189347144521093, 1.6429872551170666, 9362.0, 30146.0, 35388.0, 9362.0, 8.390083312988281, -0.12127484381198883, -0.027874093502759933, 0.43905872106552124, -0.08545327186584473, -0.0464547835290432, 0.9933682084083557, -0.047171272337436676, -0.03959846496582031, 1.49267578125, 1.314697265625, 0.0319061279296875, 1.4912109375, 1.36083984375, 10.0, 1.0, 10.0, 1.349745512008667
31496, -0.607281506061554, 7.958194255828857, -2.2558746337890625, -0.08368216454982758, 0.009769003838300705, -25.116012573242188, -0.5262960195541382, 0.06145870313048363, -1.7132999897003174, -0.8244681358337402, -1.0047463178634644, 0.05776747316122055, -0.4764653740363456, 0.1446992200451973, 1.5974974995929785, 9362.0, 30146.0, 35388.0, 9362.0, 8.390083312988281, 0.05490146204829216, -0.13277781009674072, 0.3705701529979706, -0.08425147831439972, -0.047917481511831284, 0.9932892918586731, -0.047171272337436676, -0.03959846496582031, 1.49267578125, 1.32568359375, 0.0232086181640625, 1.493408203125, 1.36083984375, 10.0, 1.0, 10.0, 1.349745512008667
31506, -0.6068543791770935, 7.959587097167969, -2.2525877952575684, -0.08368216454982758, 0.009769003838300705, -25.116012573242188, -0.5262960195541382, 0.06145870313048363, -1.7132999897003174, -0.8244094848632812, -1.004705786705017, 0.057852692902088165, -0.4914418739948756, 0.173824449529576, 1.6384538941510056, 9362.0, 30146.0, 35388.0, 9362.0, 8.390083312988281, 0.08237675577402115, -0.3682929277420044, 0.08538688719272614, -0.08732215315103531, -0.04713568091392517, 0.9946880340576172, -0.047171272337436676, -0.03959846496582031, 1.49267578125, 1.34912109375, 0.015380859375, 1.493408203125, 1.36083984375, 10.0, 1.0, 10.0, 1.349745512008667
31516, -0.605760395526886, 7.9622979164123535, -2.2522642612457275, -0.08368216454982758, 0.009769003838300705, -25.116012573242188, -0.5262960195541382, 0.06145870313048363, -1.7132999897003174, -0.8244748711585999, -1.0047367811203003, 0.0577736459672451, -0.47230823682160833, 0.143764796840685, 1.5958655520386598, 9362.0, 30146.0, 35388.0, 9362.0, 8.390083312988281, 0.013316198252141476, -0.07854583859443665, 0.25126713514328003, -0.08567093312740326, -0.04664306715130806, 0.9949939250946045, -0.047171272337436676, -0.03959846496582031, 1.49267578125, 1.402587890625, 0.0425262451171875, 1.493408203125, 1.36083984375, 10.0, 1.0, 10.0, 1.349745512008667
31526, -0.6049314737319946, 7.961309909820557, -2.2510101795196533, -0.08368216454982758, 0.009769003838300705, -25.116012573242188, -0.5262960195541382, 0.06145870313048363, -1.7132999897003174, -0.8245140910148621, -1.0047035217285156, 0.05772155523300171, -0.4945901647896472, 0.1679094150523497, 1.5919933067498349, 9362.0, 30146.0, 35388.0, 9362.0, 8.390083312988281, 0.21228699386119843, 0.26922735571861267, 0.5940257906913757, -0.08224287629127502, -0.046649280935525894, 0.996963381767273, -0.047171272337436676, -0.03959846496582031, 1.49267578125, 1.35205078125, 0.015380859375, 1.493408203125, 1.36083984375, 10.0, 1.0, 10.0, 1.349745512008667
31536, -0.6042555570602417, 7.960031032562256, -2.246612787246704, -0.08368216454982758, 0.009769003838300705, -25.116012573242188, -0.5262960195541382, 0.06145870313048363, -1.7132999897003174, -0.824475884437561, -1.0047354698181152, 0.05777893587946892, -0.4738815307981532, 0.14014374440480992, 1.6070909787702528, 9362.0, 30146.0, 35388.0, 9362.0, 8.390083312988281, -0.11248284578323364, -0.22601135075092316, 0.10795559734106064, -0.08231699466705322, -0.04626578092575073, 0.9956631660461426, -0.047171272337436676, -0.03959846496582031, 1.49267578125, 1.38134765625, 0.025177001953125, 1.493408203125, 1.36083984375, 10.0, 1.0, 10.0, 1.349745512008667
31546, -0.6042612791061401, 7.962083339691162, -2.2456915378570557, -0.1116790920495987, 0.013037241995334625, -25.201866149902344, -0.5936232805252075, 0.0692676231265068, -1.7204973697662354, -0.8245041370391846, -1.004715919494629, 0.05772807076573372, -0.4894430943751233, 0.1730568934736425, 1.592018583357184, 9362.0, 30146.0, 35388.0, 9362.0, 8.390083312988281, 0.1089918240904808, -0.1131850928068161, 0.1608830690383911, -0.0845857709646225, -0.04622965306043625, 0.9932417273521423, -0.047171272337436676, -0.03959846496582031, 1.49267578125, 1.411376953125, 0.05181884765625, 1.493408203125, 1.36083984375, 10.0, 1.0, 10.0, 1.349745512008667
31556, -0.6039512753486633, 7.9626665115356445, -2.2439217567443848, -0.1116790920495987, 0.013037241995334625, -25.201866149902344, -0.5936232805252075, 0.0692676231265068, -1.7204973697662354, -0.8244427442550659, -1.0046727657318115, 0.05778942629694939, -0.5081279244790986, 0.20035635146481923, 1.6394695466338682, 9362.0, 30146.0, 35388.0, 9362.0, 8.390083312988281, -0.009036057628691196, 0.16521042585372925, 0.2535019516944885, -0.0845857709646225, -0.04622965306043625, 0.9932417273521423, -0.047171272337436676, -0.03959846496582031, 1.49267578125, 1.373291015625, 0.0207366943359375, 1.493408203125, 1.36083984375, 10.0, 1.0, 10.0, 1.349745512008667
31566, -0.6046056747436523, 7.962909698486328, -2.2426533699035645, -0.1116790920495987, 0.013037241995334625, -25.201866149902344, -0.5936232805252075, 0.0692676231265068, -1.7204973697662354, -0.8245060443878174, -1.0047153234481812, 0.05770744010806084, -0.49402668159269825, 0.16538342764829395, 1.5977104900312589, 9362.0, 30146.0, 35388.0, 9362.0, 8.370248794555664, -0.009036057628691196, 0.16521042585372925, 0.2535019516944885, -0.0852067694067955, -0.04510786011815071, 0.9960466623306274, -0.047171272337436676, -0.03959846496582031, 1.49267578125, 1.373291015625, 0.0207366943359375, 1.493408203125, 1.36083984375, 10.0, 1.0, 10.0, 1.349745512008667
31576, -0.6057437658309937, 7.963254928588867, -2.241668701171875, -0.1116790920495987, 0.013037241995334625, -25.201866149902344, -0.5936232805252075, 0.0692676231265068, -1.7204973697662354, -0.8245024085044861, -1.0047212839126587, 0.05772792547941208, -0.48865397394748833, 0.170861721654461, 1.5950858561652905, 9362.0, 30146.0, 35388.0, 9362.0, 8.370248794555664, -0.044404517859220505, 0.039020366966724396, 0.19135531783103943, -0.0852067694067955, -0.04510786011815071, 0.9960466623306274, -0.047171272337436676, -0.03959846496582031, 1.49267578125, 1.36669921875, 0.01806640625, 1.493408203125, 1.36083984375, 10.0, 1.0, 10.0, 1.349745512008667
31596, -0.6069632172584534, 7.9618048667907715, -2.2403900623321533, -0.14304357767105103, 0.01669534482061863, -25.28807258605957, -0.6609653234481812, 0.07706084102392197, -1.727751612663269, -0.8245036602020264, -1.0047197341918945, 0.05770369619131088, -0.48760904715062675, 0.16621571095296872, 1.598510707557255, 9362.0, 30146.0, 35388.0, 9362.0, 8.370248794555664, -0.2278488427400589, -0.19100363552570343, -0.24463731050491333, -0.08480001240968704, -0.04768890142440796, 0.9943662881851196, -0.047171272337436676, -0.03959846496582031, 1.49267578125, 1.34765625, 0.0154571533203125, 1.493408203125, 1.36083984375, 10.0, 1.0, 10.0, 1.349745512008667
31616, -0.6070176959037781, 7.9615325927734375, -2.243307590484619, -0.14304357767105103, 0.01669534482061863, -25.28807258605957, -0.6609653234481812, 0.07706084102392197, -1.727751612663269, -0.8244280219078064, -1.0047588348388672, 0.057872481644153595, -0.46451890060194595, 0.17385020199458268, 1.6519231415295792, 9362.0, 30146.0, 35388.0, 9362.0, 8.370248794555664, -0.16806380450725555, 0.09624312072992325, -0.20481109619140625, -0.08652652055025101, -0.044939298182725906, 0.9955655336380005, -0.047171272337436676, -0.03959846496582031, 1.49267578125, 1.38134765625, 0.025177001953125, 1.49267578125, 1.36083984375, 10.0, 1.0, 10.0, 1.349745512008667
31646, -0.610112190246582, 7.961126327514648, -2.2473528385162354, -0.17055925726890564, 0.01990271918475628, -25.3572998046875, -0.714828372001648, 0.08331021666526794, -1.7335681915283203, -0.8245595693588257, -1.0049736499786377, 0.057950668036937714, -0.49821484784825665, 0.06728170225727581, 1.723443603187714, 9362.0, 30146.0, 35388.0, 9362.0, 8.370248794555664, -0.066552072763443, 0.3704017400741577, -0.37208059430122375, -0.08236752450466156, -0.045603569597005844, 0.994442880153656, -0.047171272337436676, -0.03959846496582031, 1.49267578125, 1.32861328125, 0.0214385986328125, 1.496337890625, 1.36083984375, 10.0, 1.0, 10.0, 1.349745512008667
31656, -0.6100547313690186, 7.95903205871582, -2.249922275543213, -0.17055925726890564, 0.01990271918475628, -25.3572998046875, -0.714828372001648, 0.08331021666526794, -1.7335681915283203, -0.8244206309318542, -1.0047560930252075, 0.05787493661046028, -0.4605613133220114, 0.17187301061539983, 1.6584040443501789, 9362.0, 30146.0, 35388.0, 9362.0, 8.370248794555664, 0.046460770070552826, 0.41033998131752014, -0.23323334753513336, -0.08236752450466156, -0.045603569597005844, 0.994442880153656, -0.047171272337436676, -0.03959846496582031, 1.49267578125, 1.4150390625, 0.05596923828125, 1.496337890625, 1.36083984375, 10.0, 1.0, 10.0, 1.349745512008667
31676, -0.6104968786239624, 7.958303928375244, -2.2548630237579346, -0.20022955536842346, 0.02336052991449833, -25.426759719848633, -0.7686947584152222, 0.08958549797534943, -1.7392592430114746, -0.8244568705558777, -1.0047420263290405, 0.057789143174886703, -0.47446414381422747, 0.13738832173166315, 1.5987464025102598, 9362.0, 30146.0, 35388.0, 9362.0, 8.390083312988281, 0.008377350866794586, 0.08097834885120392, -0.349935919046402, -0.08501970022916794, -0.046801693737506866, 0.9958107471466064, -0.06942915916442871, -0.20087814331054688, 1.4794921875, 1.29638671875, 0.0542755126953125, 1.496337890625, 1.36083984375, 10.0, 1.0, 10.0, 1.349745512008667
31696, -0.6104311943054199, 7.958622932434082, -2.2566990852355957, -0.21587297320365906, 0.025183694437146187, -25.461570739746094, -0.7956500053405762, 0.09273070842027664, -1.7419034242630005, -0.8244794607162476, -1.0047835111618042, 0.0577697828412056, -0.44060334986835753, 0.15046063315747915, 1.598609420905665, 9362.0, 30146.0, 35388.0, 9362.0, 8.390083312988281, 0.10534944385290146, -0.14361725747585297, -0.49582570791244507, -0.08511868119239807, -0.04486171901226044, 0.996530294418335, -0.06942915916442871, -0.20087814331054688, 1.4794921875, 1.37548828125, 0.021820068359375, 1.49560546875, 1.36083984375, 10.0, 1.0, 10.0, 1.349745512008667
31716, -0.6091932654380798, 7.959952354431152, -2.2579147815704346, -0.23205554485321045, 0.02706976979970932, -25.496435165405273, -0.8225972056388855, 0.09587527811527252, -1.7446306943893433, -0.8244653344154358, -1.004738211631775, 0.057784728705883026, -0.47621656609354096, 0.1456045041902314, 1.5934416355421672, 9362.0, 30146.0, 35388.0, 9362.0, 8.390083312988281, -0.08737216889858246, -0.05091474950313568, -0.06297753006219864, -0.08432959765195847, -0.04761677607893944, 0.9954668879508972, -0.06942915916442871, -0.20087814331054688, 1.4794921875, 1.34912109375, 0.015380859375, 1.49267578125, 1.36083984375, 10.0, 1.0, 10.0, 1.349745512008667
31736, -0.6091030240058899, 7.960058212280273, -2.255500555038452, -0.24877677857875824, 0.029018670320510864, -25.531356811523438, -0.8495231866836548, 0.0990147665143013, -1.7475206851959229, -0.8244881629943848, -1.0047563314437866, 0.057768628001213074, -0.47870272633090183, 0.14879670181804272, 1.5944026865820733, 9362.0, 30146.0, 35388.0, 9362.0, 8.390083312988281, 0.13013994693756104, 0.21725298464298248, 0.15635576844215393, -0.08419647812843323, -0.04712887108325958, 0.9956367611885071, -0.06942915916442871, -0.20087814331054688, 1.4794921875, 1.4091796875, 0.04937744140625, 1.49267578125, 1.36083984375, 10.0, 1.0, 10.0, 1.349745512008667
31746, -0.6079967617988586, 7.958262920379639, -2.2545106410980225, -0.25733935832977295, 0.030016664415597916, -25.548839569091797, -0.8629931211471558, 0.10058388859033585, -1.748922348022461, -0.824475884437561, -1.0047826766967773, 0.057800326496362686, -0.4392021730341873, 0.15843211171591065, 1.5964251555497329, 9362.0, 30146.0, 35388.0, 9362.0, 8.390083312988281, 0.04948301985859871, -0.01504586823284626, 0.04861525818705559, -0.08356305211782455, -0.047161903232336044, 0.994663417339325, -0.06942915916442871, -0.20087814331054688, 1.4794921875, 1.3388671875, 0.017120361328125, 1.49267578125, 1.36083984375, 10.0, 1.0, 10.0, 1.349745512008667
31776, -0.6056082248687744, 7.956934452056885, -2.2509028911590576, -0.25733935832977295, 0.030016664415597916, -25.548839569091797, -0.8629931211471558, 0.10058388859033585, -1.748922348022461, -0.8243768215179443, -1.0047497749328613, 0.057924043387174606, -0.4948608219955305, 0.1494128585854071, 1.6708305769199567, 9362.0, 30146.0, 35388.0, 9362.0, 8.390083312988281, 0.05864597484469414, 0.2631014883518219, 0.04223287105560303, -0.08328032493591309, -0.046218808740377426, 0.9977993369102478, -0.07738008350133896, -0.1650371551513672, 1.482421875, 1.41650390625, 0.0577545166015625, 1.496337890625, 1.4560546875, 10.0, 1.0, 10.0, 1.349745512008667
31816, -0.6031171083450317, 7.957274913787842, -2.2487614154815674, -0.3210495710372925, 0.03744097054004669, -25.671594619750977, -0.9572693109512329, 0.11152463406324387, -1.7585320472717285, -0.8243876695632935, -1.0047188997268677, 0.05793372169137001, -0.4934248518192613, 0.15581305772451515, 1.6574378801958203, 9362.0, 30146.0, 35388.0, 9362.0, 8.390083312988281, 0.006192118860781193, -0.23921668529510498, 0.08487600088119507, -0.0842885747551918, -0.046629399061203, 0.9962162375450134, -0.07738008350133896, -0.1650371551513672, 1.482421875, 1.3447265625, 0.0158538818359375, 1.49560546875, 1.4560546875, 10.0, 1.0, 10.0, 1.349745512008667
31836, -0.6024511456489563, 7.955772399902344, -2.2480201721191406, -0.34046441316604614, 0.03970262035727501, -25.7067928314209, -0.9842098355293274, 0.11463963985443115, -1.7612804174423218, -0.8244366645812988, -1.0047563314437866, 0.05784505233168602, -0.47287921692432555, 0.12047153846307879, 1.6275461376467262, 9362.0, 30146.0, 35388.0, 9362.0, 8.390083312988281, 0.01761031150817871, 0.0843595340847969, -0.008036688901484013, -0.0823187455534935, -0.04796181991696358, 0.9949151873588562, -0.07738008350133896, -0.1650371551513672, 1.482421875, 1.3564453125, 0.0156707763671875, 1.49560546875, 1.4560546875, 10.0, 1.0, 10.0, 1.349745512008667
31856, -0.6032495498657227, 7.95542049407959, -2.2496955394744873, -0.34046441316604614, 0.03970262035727501, -25.7067928314209, -0.9842098355293274, 0.11463963985443115, -1.7612804174423218, -0.8243879675865173, -1.004758596420288, 0.05790817737579346, -0.45299887767205016, 0.16080417589444096, 1.6611305668407645, 9362.0, 30146.0, 35388.0, 9362.0, 8.390083312988281, 0.021221283823251724, -0.0836045891046524, 0.3023383617401123, -0.0823187455534935, -0.04796181991696358, 0.9949151873588562, -0.07738008350133896, -0.1650371551513672, 1.482421875, 1.40478515625, 0.0446624755859375, 1.50146484375, 1.4560546875, 10.0, 1.0, 10.0, 1.349745512008667
31896, -0.6015390157699585, 7.954459190368652, -2.249284267425537, -0.39135798811912537, 0.045629244297742844, -25.795028686523438, -1.051527738571167, 0.12242579460144043, -1.7682396173477173, -0.8245583176612854, -1.0050042867660522, 0.05814289301633835, -0.542533093655203, -0.006553508455539259, 1.7267517232337897, 9362.0, 30146.0, 35388.0, 9362.0, 8.370248794555664, 0.03719703108072281, -0.14859333634376526, -0.33984318375587463, -0.08261674642562866, -0.04582773149013519, 0.9948195219039917, -0.07738008350133896, -0.1650371551513672, 1.482421875, 1.373291015625, 0.0207366943359375, 1.49853515625, 1.4560546875, 10.0, 1.0, 10.0, 1.349745512008667
31906, -0.6006235480308533, 7.95611047744751, -2.252707004547119, -0.39135798811912537, 0.045629244297742844, -25.795028686523438, -1.051527738571167, 0.12242579460144043, -1.7682396173477173, -0.8244907855987549, -1.0049701929092407, 0.05823885276913643, -0.5583400587996504, 0.02818896927095693, 1.7741215193533197, 9362.0, 30146.0, 35388.0, 9362.0, 8.370248794555664, -0.014439387246966362, -0.22970114648342133, 0.26154443621635437, -0.0844687670469284, -0.046331219375133514, 0.9951856136322021, -0.07738008350133896, -0.1650371551513672, 1.482421875, 1.412841796875, 0.0534515380859375, 1.49853515625, 1.4560546875, 10.0, 1.0, 10.0, 1.349745512008667
31916, -0.6009365320205688, 7.959280490875244, -2.2532365322113037, -0.39135798811912537, 0.045629244297742844, -25.795028686523438, -1.051527738571167, 0.12242579460144043, -1.7682396173477173, -0.8245445489883423, -1.0050064325332642, 0.05814884603023529, -0.5407023558047556, -0.0148392169262479, 1.7312409471663748, 9362.0, 30146.0, 35388.0, 9362.0, 8.370248794555664, -0.10053503513336182, 0.0428181067109108, -0.1686619520187378, -0.08769820630550385, -0.04428235813975334, 0.9949566125869751, -0.07738008350133896, -0.1650371551513672, 1.482421875, 1.388671875, 0.03033447265625, 1.49853515625, 1.4560546875, 10.0, 1.0, 10.0, 1.349745512008667
31936, -0.6016243100166321, 7.9602837562561035, -2.2563371658325195, -0.4344950318336487, 0.05065057799220085, -25.86587905883789, -1.1053414344787598, 0.12864160537719727, -1.774133324623108, -0.8245495557785034, -1.0049983263015747, 0.05813165754079819, -0.5434284826148092, -0.008137332644196249, 1.7346640320255446, 9362.0, 30146.0, 35388.0, 9362.0, 8.370248794555664, -0.03255016729235649, 0.10171116888523102, 0.14892157912254333, -0.08415419608354568, -0.04447605460882187, 0.9973362684249878, -0.07738008350133896, -0.1650371551513672, 1.482421875, 1.421630859375, 0.0640716552734375, 1.49560546875, 1.4560546875, 10.0, 1.0, 10.0, 1.349745512008667
31956, -0.6033982038497925, 7.959719181060791, -2.2558257579803467, -0.4682624042034149, 0.05457998812198639, -25.919158935546875, -1.1458117961883545, 0.13331924378871918, -1.7778935432434082, -0.824540913105011, -1.0049939155578613, 0.05815810337662697, -0.5435674536688715, -0.012138695769607466, 1.7277874248379592, 9362.0, 30146.0, 35388.0, 9362.0, 8.370248794555664, -0.05307474359869957, -0.19594064354896545, -0.041462406516075134, -0.08415419608354568, -0.04447605460882187, 0.9973362684249878, -0.07738008350133896, -0.1650371551513672, 1.482421875, 1.46337890625, 0.1270751953125, 1.49560546875, 1.4560546875, 10.0, 1.0, 10.0, 1.349745512008667
31966, -0.6026123762130737, 7.955328464508057, -2.2550103664398193, -0.4682624042034149, 0.05457998812198639, -25.919158935546875, -1.1458117961883545, 0.13331924378871918, -1.7778935432434082, -0.8245452046394348, -1.004990816116333, 0.05815785378217697, -0.5406068885903524, -0.014769557272757083, 1.7329136026579084, 9362.0, 30146.0, 35388.0, 9362.0, 8.390083312988281, -0.05307474359869957, -0.19594064354896545, -0.041462406516075134, -0.0847165435552597, -0.04789777845144272, 0.9943520426750183, -0.07738008350133896, -0.1650371551513672, 1.482421875, 1.46337890625, 0.1270751953125, 1.49560546875, 1.4560546875, 10.0, 1.0, 10.0, 1.349745512008667
31976, -0.6040986180305481, 7.956438064575195, -2.2537283897399902, -0.49144822359085083, 0.057277582585811615, -25.954744338989258, -1.1727559566497803, 0.13643771409988403, -1.78061044216156, -0.8245409727096558, -1.0049601793289185, 0.0581388920545578, -0.5762298582775502, -0.022290201807862786, 1.727942158822229, 9362.0, 30146.0, 35388.0, 9362.0, 8.390083312988281, -0.05307474359869957, -0.19594064354896545, -0.041462406516075134, -0.08508288115262985, -0.044031500816345215, 0.9930633902549744, -0.07738008350133896, -0.1650371551513672, 1.482421875, 1.376953125, 0.0225982666015625, 1.49560546875, 1.4560546875, 10.0, 1.0, 10.0, 1.349745512008667
31986, -0.6045747995376587, 7.956892490386963, -2.2520453929901123, -0.49144822359085083, 0.057277582585811615, -25.954744338989258, -1.1727559566497803, 0.13643771409988403, -1.78061044216156, -0.8245396614074707, -1.0049927234649658, 0.05812607705593109, -0.546553105982076, -0.009118540070318204, 1.7295316941813574, 9362.0, 30146.0, 35388.0, 9362.0, 8.390083312988281, -0.1326465755701065, -0.22015154361724854, 0.20319992303848267, -0.08652191609144211, -0.04644095152616501, 0.9950644969940186, -0.07738008350133896, -0.1650371551513672, 1.482421875, 1.39306640625, 0.0337982177734375, 1.49560546875, 1.4560546875, 10.0, 1.0, 10.0, 1.349745512008667
31996, -0.605678141117096, 7.958248138427734, -2.2503020763397217, -0.49144822359085083, 0.057277582585811615, -25.954744338989258, -1.1727559566497803, 0.13643771409988403, -1.78061044216156, -0.8245319128036499, -1.0049526691436768, 0.05812441557645798, -0.5740267276472152, -0.01795251436806211, 1.7196727058435535, 9362.0, 30146.0, 35388.0, 9362.0, 8.390083312988281, 0.11270008236169815, 0.08742546290159225, 0.22732806205749512, -0.08699025958776474, -0.04786737263202667, 0.996628999710083, -0.07738008350133896, -0.1650371551513672, 1.482421875, 1.37841796875, 0.023406982421875, 1.49560546875, 1.4560546875, 10.0, 1.0, 10.0, 1.349745512008667
32006, -0.6058548092842102, 7.958383083343506, -2.2482070922851562, -0.49144822359085083, 0.057277582585811615, -25.954744338989258, -1.1727559566497803, 0.13643771409988403, -1.78061044216156, -0.8244509696960449, -1.004991054534912, 0.0582071915268898, -0.5672666178495331, 0.03373506625882783, 1.8242870662280988, 9362.0, 30146.0, 35388.0, 9362.0, 8.390083312988281, 0.16121041774749756, 0.08411252498626709, 0.22236467897891998, -0.08699025958776474, -0.04786737263202667, 0.996628999710083, -0.07738008350133896, -0.1650371551513672, 1.482421875, 1.4091796875, 0.04937744140625, 1.49560546875, 1.4560546875, 10.0, 1.0, 10.0, 1.349745512008667
32016, -0.605995237827301, 7.958768844604492, -2.2469289302825928, -0.49144822359085083, 0.057277582585811615, -25.954744338989258, -1.1727559566497803, 0.13643771409988403, -1.78061044216156, -0.8245401978492737, -1.0049878358840942, 0.05815295875072479, -0.5484919906662639, -0.014932217580252427, 1.7256825862649403, 9362.0, 30146.0, 35388.0, 9362.0, 8.390083312988281, -0.010477472096681595, 0.2510930001735687, -0.11645130068063736, -0.08698692172765732, -0.05061215162277222, 0.9935792684555054, -0.07738008350133896, -0.1650371551513672, 1.482421875, 1.414306640625, 0.05517578125, 1.49560546875, 1.4560546875, 10.0, 1.0, 10.0, 1.349745512008667
32026, -0.606284499168396, 7.956121444702148, -2.247391700744629, -0.5517674684524536, 0.06429434567689896, -26.043964385986328, -1.2400238513946533, 0.14423570036888123, -1.7880799770355225, -0.8245435357093811, -1.0050013065338135, 0.05815822631120682, -0.544789434659404, -0.01692033905649737, 1.7313543358275325, 9362.0, 30146.0, 35388.0, 9362.0, 8.390083312988281, 0.0573551245033741, -0.03005494363605976, 0.2984778583049774, -0.08223464339971542, -0.046992383897304535, 0.9948039650917053, -0.07738008350133896, -0.1650371551513672, 1.482421875, 1.3447265625, 0.0158538818359375, 1.49560546875, 1.4560546875, 10.0, 1.0, 10.0, 1.349745512008667
32036, -0.6062708497047424, 7.955873966217041, -2.2445082664489746, -0.5517674684524536, 0.06429434567689896, -26.043964385986328, -1.2400238513946533, 0.14423570036888123, -1.7880799770355225, -0.8245384693145752, -1.0049445629119873, 0.05812985077500343, -0.5774829954949888, -0.014705070492510686, 1.7273060623402057, 9362.0, 30146.0, 35388.0, 9362.0, 8.390083312988281, 0.03252632915973663, -0.11935648322105408, -0.1653166115283966, -0.08350548148155212, -0.0456654354929924, 0.9968929290771484, -0.07738008350133896, -0.1650371551513672, 1.482421875, 1.41357421875, 0.0542449951171875, 1.49560546875, 1.4560546875, 10.0, 1.0, 10.0, 1.349745512008667
32046, -0.6055624485015869, 7.95604133605957, -2.244047164916992, -0.5517674684524536, 0.06429434567689896, -26.043964385986328, -1.2400238513946533, 0.14423570036888123, -1.7880799770355225, -0.8244888186454773, -1.0049008131027222, 0.05820281431078911, -0.5951698906322134, 0.007454859131854619, 1.7745816575231752, 9362.0, 30146.0, 35388.0, 9362.0, 8.390083312988281, 0.07949991524219513, -0.048160720616579056, 0.010635200887918472, -0.08470446616411209, -0.04679325222969055, 0.9971188306808472, -0.07738008350133896, -0.1650371551513672, 1.482421875, 1.338134765625, 0.01727294921875, 1.49560546875, 1.4560546875, 10.0, 1.0, 10.0, 1.349745512008667
32056, -0.6046357154846191, 7.955433368682861, -2.242304563522339, -0.5517674684524536, 0.06429434567689896, -26.043964385986328, -1.2400238513946533, 0.14423570036888123, -1.7880799770355225, -0.8245431184768677, -1.0049887895584106, 0.05812335014343262, -0.5454899572025472, -0.008362229018359812, 1.7289341784733063, 9362.0, 30146.0, 35388.0, 9362.0, 8.390083312988281, -0.013704790733754635, 0.1317979246377945, 0.08177221566438675, -0.08598363399505615, -0.04519586265087128, 0.9966742396354675, -0.07738008350133896, -0.1650371551513672, 1.482421875, 1.44873046875, 0.102813720703125, 1.49560546875, 1.4560546875, 10.0, 1.0, 10.0, 1.349745512008667
32066, -0.6044225096702576, 7.9549784660339355, -2.2418816089630127, -0.5517674684524536, 0.06429434567689896, -26.043964385986328, -1.2400238513946533, 0.14423570036888123, -1.7880799770355225, -0.8245447278022766, -1.0049965381622314, 0.05812983214855194, -0.5434380250304758, -0.015900696287445726, 1.7287781268352003, 9362.0, 30146.0, 35388.0, 9362.0, 8.390083312988281, -0.013704790733754635, 0.1317979246377945, 0.08177221566438675, -0.08598363399505615, -0.04519586265087128, 0.9966742396354675, -0.049303874373435974, -0.01271820068359375, 1.494873046875, 1.44873046875, 0.102813720703125, 1.49560546875, 1.4560546875, 10.0, 1.0, 10.0, 1.349745512008667
32076, -0.6049025654792786, 7.955570697784424, -2.2412681579589844, -0.5517674684524536, 0.06429434567689896, -26.043964385986328, -1.2400238513946533, 0.14423570036888123, -1.7880799770355225, -0.8245461583137512, -1.0049840211868286, 0.05813024193048477, -0.5405861604706432, -0.013114976925635347, 1.7251816031200693, 9362.0, 30146.0, 35388.0, 9362.0, 8.390083312988281, -0.1864139586687088, 0.0014024378033354878, -0.04015519097447395, -0.08373046666383743, -0.047025926411151886, 0.9966903924942017, -0.049303874373435974, -0.01271820068359375, 1.494873046875, 1.37255859375, 0.02044677734375, 1.49560546875, 1.4560546875, 10.0, 1.0, 10.0, 1.349745512008667
32096, -0.6040281057357788, 7.956392288208008, -2.2422902584075928, -0.5517674684524536, 0.06429434567689896, -26.043964385986328, -1.2400238513946533, 0.14423570036888123, -1.7880799770355225, -0.8245396018028259, -1.0049877166748047, 0.05814634636044502, -0.5470201231222217, -0.009024261793911137, 1.7286325741446817, 9362.0, 30146.0, 35388.0, 9362.0, 8.390083312988281, 0.0036889594048261642, -0.004260999150574207, -0.24064604938030243, -0.0853392705321312, -0.04442974925041199, 0.9977170825004578, -0.049303874373435974, -0.01271820068359375, 1.494873046875, 1.40478515625, 0.0446624755859375, 1.48681640625, 1.4560546875, 10.0, 1.0, 10.0, 1.349745512008667
32106, -0.6041644811630249, 7.955918312072754, -2.2430992126464844, -0.6552811861038208, 0.07633284479379654, -26.18743324279785, -1.3478755950927734, 0.15672753751277924, -1.7982542514801025, -0.8245563507080078, -1.0050058364868164, 0.05813738703727722, -0.545950704861835, -0.011189455179760444, 1.7274966325813643, 9362.0, 30146.0, 35388.0, 9362.0, 8.390083312988281, -0.025635085999965668, -0.31024470925331116, -0.03477392718195915, -0.08585140854120255, -0.046646058559417725, 0.9935187101364136, -0.049303874373435974, -0.01271820068359375, 1.494873046875, 1.40478515625, 0.0446624755859375, 1.5, 1.4560546875, 10.0, 1.0, 10.0, 1.349745512008667
32136, -0.6038046479225159, 7.958146572113037, -2.246584415435791, -0.6963225603103638, 0.08110466599464417, -26.2414493560791, -1.3882405757904053, 0.16139639914035797, -1.802712082862854, -0.8245500922203064, -1.0049995183944702, 0.05814160779118538, -0.5485119073244255, -0.008044284046548, 1.7323317920494026, 9362.0, 30146.0, 35388.0, 9362.0, 8.390083312988281, -0.010312716476619244, 0.3200494349002838, 0.14067988097667694, -0.08504071086645126, -0.04557080939412117, 0.9973785281181335, -0.049303874373435974, -0.01271820068359375, 1.494873046875, 1.42236328125, 0.0649566650390625, 1.4970703125, 1.4560546875, 10.0, 1.0, 10.0, 1.349745512008667
32146, -0.6042762994766235, 7.956085681915283, -2.2454090118408203, -0.6963225603103638, 0.08110466599464417, -26.2414493560791, -1.3882405757904053, 0.16139639914035797, -1.802712082862854, -0.8245584964752197, -1.005000114440918, 0.05814658850431442, -0.5423159434776349, -0.013541744865307237, 1.7331825753422, 9362.0, 30146.0, 35388.0, 9362.0, 8.390083312988281, -0.15436531603336334, -0.06848227232694626, -0.17153893411159515, -0.08565478026866913, -0.04774961248040199, 0.9955286979675293, -0.049303874373435974, -0.01271820068359375, 1.494873046875, 1.447265625, 0.1004791259765625, 1.4970703125, 1.4560546875, 10.0, 1.0, 10.0, 1.349745512008667
32156, -0.6044143438339233, 7.957316875457764, -2.2484445571899414, -0.6963225603103638, 0.08110466599464417, -26.2414493560791, -1.3882405757904053, 0.16139639914035797, -1.802712082862854, -0.8244879841804504, -1.0049718618392944, 0.05822824314236641, -0.5696151507499513, 0.015752447728885954, 1.7759372182152002, 9362.0, 30146.0, 35388.0, 9362.0, 8.390083312988281, 0.032470233738422394, -0.27551236748695374, 0.07357387244701385, -0.08565478026866913, -0.04774961248040199, 0.9955286979675293, -0.049303874373435974, -0.01271820068359375, 1.494873046875, 1.43408203125, 0.080810546875, 1.4970703125, 1.4560546875, 10.0, 1.0, 10.0, 1.349745512008667
32176, -0.6035408973693848, 7.9607720375061035, -2.2521681785583496, -0.738576352596283, 0.08601675182580948, -26.295589447021484, -1.4286514520645142, 0.1660749912261963, -1.8068163394927979, -0.824552059173584, -1.0049875974655151, 0.05813271924853325, -0.5432675686193656, -0.008540992114291157, 1.7340613149559563, 9362.0, 30146.0, 35388.0, 9362.0, 8.390083312988281, 0.0009547860827296972, 0.14429518580436707, 0.24242869019508362, -0.08443146198987961, -0.04776325821876526, 0.9961870908737183, -0.0875900387763977, -0.24567794799804688, 1.475830078125, 1.43408203125, 0.080810546875, 1.49560546875, 1.4560546875, 10.0, 1.0, 10.0, 1.349745512008667
32206, -0.6014995574951172, 7.958786964416504, -2.252004861831665, -0.7967988848686218, 0.09278430789709091, -26.36798095703125, -1.4824875593185425, 0.17230264842510223, -1.8127285242080688, -0.8245537281036377, -1.0049989223480225, 0.05814380571246147, -0.5392870039933585, -0.01112108060965511, 1.7287357533716428, 9362.0, 30146.0, 35388.0, 9362.0, 8.390083312988281, 0.02866051346063614, -0.056906118988990784, 0.12098939716815948, -0.08437708765268326, -0.043652039021253586, 0.9933539628982544, -0.0875900387763977, -0.24567794799804688, 1.475830078125, 1.43408203125, 0.080810546875, 1.493408203125, 1.4560546875, 10.0, 1.0, 10.0, 1.349745512008667
