timeTick, roll, pitch, yaw, stateX, stateY, stateZ, stateVX, stateVY, stateVZ, otX0, otY0, otZ0, otRoll0, otPitch0, otYaw0, left wing, pitch motor, yaw motor, right wing, voltage, roll rate, pitch rate, yaw rate, A_x, A_y, A_z, current, i_raw, v_raw, airflow_voltage, airflow_speed, pot_Pitch, voltage_nKF, kFFx, state, State, volt_KF
22978, -1.204612374305725, -3.4017536640167236, -0.026262665167450905, 0, 0, 0, 0, 0, 0, 0, 0, 0, 0, 0, 0, 0, 0, 0, 0, 0, 0, 0, 0, 0, 0, 0, 0, 0, 0, 0, 0, 0, 0, 0, 0, 0, 0
22988, -1.206819772720337, -3.4040560722351074, -0.026640260592103004, 0.0, 0.0, 24.63884735107422, 0.0, 0.0, 0.0621795654296875, 0, 0, 0, 0, 0, 0, 9362.0, 30146.0, 35388.0, 9362.0, 0, -0.08446444571018219, -0.2843182682991028, -0.0663926973938942, -0.0766267478466034, -0.026848187670111656, 0.9970477819442749, 0, 0, 0, 0, 0, 0, 0, 0, 0, 0, 0
22998, -1.2088488340377808, -3.4086155891418457, -0.02480962686240673, 0.0, 0.0, 24.640501022338867, 0.0, 0.0, 0.16536712646484375, 0, 0, 0, 0, 0, 0, 9362.0, 30146.0, 35388.0, 9362.0, 0, -0.14031553268432617, 0.18955707550048828, 0.029313109815120697, -0.07640044391155243, -0.02567143179476261, 0.9975363612174988, 0, 0, 0, 1.524169921875, 0.2455596923828125, 0, 1.487548828125, 10.0, 1.0, 10.0, 1.4570279121398926
23008, -1.2109465599060059, -3.41123628616333, -0.023972488939762115, 0.0, 0.0, 24.64198875427246, 0.0, 0.0, 0.148773193359375, 0, 0, 0, 0, 0, 0, 9362.0, 30146.0, 35388.0, 9362.0, 0, -0.16522099077701569, -0.07800913602113724, 0.12677587568759918, -0.07698351889848709, -0.028160493820905685, 0.9957380890846252, 0, 0, 0, 1.51318359375, 0.2224273681640625, 1.496337890625, 1.48388671875, 10.0, 1.0, 10.0, 1.4572259187698364
23018, -1.2124465703964233, -3.4149861335754395, -0.024400921538472176, 0.0, 0.0, 24.640594482421875, 0.0, 0.0, -0.13942718505859375, 0, 0, 0, 0, 0, 0, 9362.0, 30146.0, 35388.0, 9362.0, 0, 0.2228388786315918, -0.08573471009731293, 0.24417826533317566, -0.0795726627111435, -0.027650192379951477, 0.9970146417617798, 0, 0, 0, 1.475830078125, 0.1492767333984375, 1.496337890625, 1.456787109375, 10.0, 1.0, 10.0, 1.4572914838790894
23028, -1.2152211666107178, -3.4180405139923096, -0.02612798847258091, 0.0, 0.0, 24.639339447021484, 0.0, 0.0, -0.1255035400390625, 0, 0, 0, 0, 0, 0, 9362.0, 30146.0, 35388.0, 9362.0, 0, -0.29115262627601624, -0.019788529723882675, -0.20631246268749237, -0.07888898253440857, -0.029361771419644356, 0.9979251027107239, 0, 0, 0, 1.489013671875, 0.174041748046875, 1.494140625, 1.481689453125, 10.0, 1.0, 10.0, 1.4574031829833984
23038, -1.2183481454849243, -3.423985004425049, -0.026358963921666145, 0.0, 0.0, 24.643131256103516, 0.0, 0.0, 0.379180908203125, 0, 0, 0, 0, 0, 0, 9362.0, 30146.0, 35388.0, 9362.0, 0, -0.023169655352830887, 0.312511682510376, 0.02419782616198063, -0.07754237949848175, -0.03140860050916672, 0.9952114224433899, 0, 0, 0, 1.45751953125, 0.117095947265625, 1.494140625, 1.4970703125, 10.0, 1.0, 10.0, 1.457403540611267
23048, -1.2206701040267944, -3.4301979541778564, -0.024634551256895065, 0.0, 0.0, 24.646543502807617, 0.0, 0.0, 0.34122467041015625, 0, 0, 0, 0, 0, 0, 9362.0, 30146.0, 35388.0, 9362.0, 0, -0.10862337052822113, 0.5969115495681763, 0.35065656900405884, -0.07619112730026245, -0.03010653890669346, 0.9950661659240723, 0, 0, 0, 1.474365234375, 0.14654541015625, 1.496337890625, 1.484619140625, 10.0, 1.0, 10.0, 1.4574631452560425
23058, -1.2231539487838745, -3.433981418609619, -0.02649686112999916, 0.0, 0.0, 24.646333694458008, 0.0, 0.0, -0.0209808349609375, 0, 0, 0, 0, 0, 0, 9362.0, 30146.0, 35388.0, 9362.0, 0, 0.054004427045583725, 0.21355192363262177, -0.04054100066423416, -0.07449477165937424, -0.02751976065337658, 0.9957274794578552, 0, 0, 0, 1.51611328125, 0.2286224365234375, 1.496337890625, 1.45166015625, 10.0, 1.0, 10.0, 1.4576692581176758
23068, -1.224955677986145, -3.434598445892334, -0.026642389595508575, 0.0, 0.0, 24.64614486694336, 0.0, 0.0, -0.01888275146484375, 0, 0, 0, 0, 0, 0, 9362.0, 30146.0, 35388.0, 9362.0, 0, -0.1239381805062294, -0.2223454862833023, 0.062316570430994034, -0.07453399151563644, -0.026175526902079582, 0.9954977631568909, 0, 0, 0, 1.496337890625, 0.1883087158203125, 1.49853515625, 1.50732421875, 10.0, 1.0, 10.0, 1.4578050374984741
23078, -1.2264095544815063, -3.438746452331543, -0.02871154434978962, 0.0, 0.0, 24.648162841796875, 0.0, 0.0, 0.2017974853515625, 0, 0, 0, 0, 0, 0, 9362.0, 30146.0, 35388.0, 9362.0, 7.9140496253967285, 0.22109051048755646, 0.0916864424943924, -0.31607043743133545, -0.0762106329202652, -0.027865424752235413, 0.9965591430664062, -0.050039343535900116, 0.12168121337890625, 1.505859375, 1.48095703125, 0.1587677001953125, 1.49853515625, 1.49853515625, 10.0, 1.0, 10.0, 1.4578862190246582
23088, -1.22700834274292, -3.4431281089782715, -0.02862784080207348, 0.0, 0.0, 24.649978637695312, 0.0, 0.0, 0.18157958984375, 0, 0, 0, 0, 0, 0, 9362.0, 30146.0, 35388.0, 9362.0, 7.9140496253967285, 0.12167119234800339, 0.207429900765419, -0.11295746266841888, -0.07680509239435196, -0.026641912758350372, 0.9963037371635437, -0.050039343535900116, 0.12168121337890625, 1.505859375, 1.477294921875, 0.1519775390625, 1.49560546875, 1.482421875, 10.0, 1.0, 10.0, 1.4579542875289917
23098, -1.2260946035385132, -3.448234796524048, -0.03067792020738125, 0.0, 0.0, 24.645597457885742, 0.0, 0.0, -0.43811798095703125, 0, 0, 0, 0, 0, 0, 9362.0, 30146.0, 35388.0, 9362.0, 7.9140496253967285, 0.35053130984306335, 0.05194840207695961, -0.1351483166217804, -0.07701686769723892, -0.028036005795001984, 0.9963813424110413, -0.050039343535900116, 0.12168121337890625, 1.505859375, 1.49267578125, 0.1811065673828125, 1.49560546875, 1.51611328125, 10.0, 1.0, 10.0, 1.458076000213623
23108, -1.2261639833450317, -3.4532625675201416, -0.0296214297413826, 0.0, 0.0, 24.64165496826172, 0.0, 0.0, -0.39424896240234375, 0, 0, 0, 0, 0, 0, 9362.0, 30146.0, 35388.0, 9362.0, 7.9140496253967285, 0.19430235028266907, 0.1887141913175583, 0.13941334187984467, -0.07863670587539673, -0.028867755085229874, 0.9953773021697998, -0.050039343535900116, 0.12168121337890625, 1.505859375, 1.524169921875, 0.2455596923828125, 1.49853515625, 1.51025390625, 10.0, 1.0, 10.0, 1.4583075046539307
23118, -1.2255645990371704, -3.459463119506836, -0.030072655528783798, 0.0, 0.0, 24.62881088256836, 0.0, 0.0, -1.2844085693359375, 0, 0, 0, 0, 0, 0, 9362.0, 30146.0, 35388.0, 9362.0, 7.9140496253967285, 0.17952044308185577, 0.08051849156618118, -0.08970434963703156, -0.07979683578014374, -0.028314411640167236, 0.9961790442466736, -0.050039343535900116, 0.12168121337890625, 1.505859375, 1.5146484375, 0.225494384765625, 1.49853515625, 1.50732421875, 10.0, 1.0, 10.0, 1.4585046768188477
23128, -1.2270257472991943, -3.4629828929901123, -0.030490964651107788, 0.0, 0.0, 24.617250442504883, 0.0, 0.0, -1.1560440063476562, 0, 0, 0, 0, 0, 0, 9362.0, 30146.0, 35388.0, 9362.0, 7.9140496253967285, 0.023346036672592163, 0.10471348464488983, 0.07001610100269318, -0.07713130116462708, -0.02775566466152668, 0.9962603449821472, -0.050039343535900116, 0.12168121337890625, 1.505859375, 1.5, 0.19561767578125, 1.494140625, 1.51025390625, 10.0, 1.0, 10.0, 1.458649754524231
23138, -1.2285245656967163, -3.468886613845825, -0.029694434255361557, 0.0, 0.0, 24.60411262512207, 0.0, 0.0, -1.31378173828125, 0, 0, 0, 0, 0, 0, 9362.0, 30146.0, 35388.0, 9362.0, 7.9140496253967285, 0.017384985461831093, 0.13937529921531677, 0.05624506250023842, -0.07775182276964188, -0.02936973236501217, 0.9974462985992432, -0.050039343535900116, 0.12168121337890625, 1.505859375, 1.51025390625, 0.2164154052734375, 1.494140625, 1.49560546875, 10.0, 1.0, 10.0, 1.4588301181793213
23148, -1.2310044765472412, -3.4714276790618896, -0.03136371821165085, 0.0, 0.0, 24.592288970947266, 0.0, 0.0, -1.1823654174804688, 0, 0, 0, 0, 0, 0, 9362.0, 30146.0, 35388.0, 9362.0, 7.9140496253967285, -0.1691838502883911, -0.19676603376865387, -0.13320714235305786, -0.07955741882324219, -0.028972649946808815, 0.9961637854576111, -0.050039343535900116, 0.12168121337890625, 1.505859375, 1.50732421875, 0.2104644775390625, 1.4970703125, 1.491943359375, 10.0, 1.0, 10.0, 1.458999514579773
23158, -1.2338447570800781, -3.477574348449707, -0.033414632081985474, 0.0, 0.0, 24.57946014404297, 0.0, 0.0, -1.2828826904296875, 0, 0, 0, 0, 0, 0, 9362.0, 30146.0, 35388.0, 9362.0, 7.9140496253967285, -0.11382129043340683, 0.26540297269821167, -0.0069125196896493435, -0.07901301980018616, -0.027937132865190506, 0.9957600235939026, -0.050039343535900116, 0.12168121337890625, 1.505859375, 1.516845703125, 0.23004150390625, 1.4970703125, 1.464111328125, 10.0, 1.0, 10.0, 1.459201455116272
23168, -1.2351139783859253, -3.4812121391296387, -0.03361327946186066, 0.0, 0.0, 24.567914962768555, 0.0, 0.0, -1.1545181274414062, 0, 0, 0, 0, 0, 0, 9362.0, 30146.0, 35388.0, 9362.0, 7.9140496253967285, -0.09870041906833649, 0.14177736639976501, 0.0011137542314827442, -0.07839035987854004, -0.025491641834378242, 0.9957804083824158, -0.050039343535900116, 0.12168121337890625, 1.505859375, 1.50146484375, 0.1985626220703125, 1.497802734375, 1.48974609375, 10.0, 1.0, 10.0, 1.4593489170074463
23178, -1.2392473220825195, -3.484785556793213, -0.03312232717871666, 0.0, 0.0, 24.5651798248291, 0.0, 0.0, -0.2735137939453125, 0, 0, 0, 0, 0, 0, 9362.0, 30146.0, 35388.0, 9362.0, 7.933885097503662, -0.17419737577438354, -0.10036198794841766, -0.047629982233047485, -0.07823081314563751, -0.02836834080517292, 0.9943600296974182, -0.056916244328022, 0.04104042053222656, 1.499267578125, 1.45458984375, 0.11224365234375, 1.497802734375, 1.477294921875, 10.0, 1.0, 10.0, 1.4593323469161987
23188, -1.2406383752822876, -3.488271713256836, -0.0344562791287899, 0.0, 0.0, 24.56271743774414, 0.0, 0.0, -0.24623870849609375, 0, 0, 0, 0, 0, 0, 9362.0, 30146.0, 35388.0, 9362.0, 7.933885097503662, 0.11236895620822906, 0.128105029463768, -0.21134524047374725, -0.07723289728164673, -0.02743505872786045, 0.9911547899246216, -0.056916244328022, 0.04104042053222656, 1.499267578125, 1.47216796875, 0.142547607421875, 1.49560546875, 1.48828125, 10.0, 1.0, 10.0, 1.4593770503997803
23198, -1.2432583570480347, -3.4947292804718018, -0.033471785485744476, 0.0, 0.0, 24.56378173828125, 0.0, 0.0, 0.1064300537109375, 0, 0, 0, 0, 0, 0, 9362.0, 30146.0, 35388.0, 9362.0, 7.933885097503662, 0.02156999707221985, -0.02743578515946865, -0.0006753300549462438, -0.07832606136798859, -0.02650865726172924, 0.9961814880371094, -0.056916244328022, 0.04104042053222656, 1.499267578125, 1.45458984375, 0.11224365234375, 1.49560546875, 1.456787109375, 10.0, 1.0, 10.0, 1.4593603610992432
23208, -1.2451465129852295, -3.498999834060669, -0.032750871032476425, 0.0, 0.0, 24.564739227294922, 0.0, 0.0, 0.0957489013671875, 0, 0, 0, 0, 0, 0, 9362.0, 30146.0, 35388.0, 9362.0, 7.933885097503662, -0.03501003235578537, 0.14138519763946533, 0.15408466756343842, -0.07687877118587494, -0.029402347281575203, 1.0038983821868896, -0.056916244328022, 0.04104042053222656, 1.499267578125, 1.477294921875, 0.1519775390625, 1.496337890625, 1.4853515625, 10.0, 1.0, 10.0, 1.4594227075576782
23218, -1.2481083869934082, -3.504854917526245, -0.03129371255636215, 0.0, 0.0, 24.568336486816406, 0.0, 0.0, 0.3597259521484375, 0, 0, 0, 0, 0, 0, 9362.0, 30146.0, 35388.0, 9362.0, 7.933885097503662, -0.07500282675027847, 0.10744098573923111, 0.11604265868663788, -0.07931109517812729, -0.029439885169267654, 1.0029780864715576, -0.056916244328022, 0.04104042053222656, 1.499267578125, 1.5087890625, 0.21337890625, 1.496337890625, 1.51171875, 10.0, 1.0, 10.0, 1.4595943689346313
23228, -1.2501473426818848, -3.5101795196533203, -0.03162026405334473, 0.0, 0.0, 24.57157325744629, 0.0, 0.0, 0.32367706298828125, 0, 0, 0, 0, 0, 0, 9362.0, 30146.0, 35388.0, 9362.0, 7.933885097503662, -0.11961618065834045, 0.3697095513343811, -0.0022531815338879824, -0.0788755789399147, -0.030952347442507744, 0.9941154718399048, -0.056916244328022, 0.04104042053222656, 1.499267578125, 1.50439453125, 0.2044219970703125, 1.49560546875, 1.47216796875, 10.0, 1.0, 10.0, 1.4597500562667847
23238, -1.2518937587738037, -3.514273166656494, -0.029452769085764885, 0.0, 0.0, 24.57831382751465, 0.0, 0.0, 0.6740570068359375, 0, 0, 0, 0, 0, 0, 9362.0, 30146.0, 35388.0, 9362.0, 7.933885097503662, -0.006128660868853331, -0.07676661014556885, 0.0924873799085617, -0.07953453063964844, -0.0300423763692379, 0.9867179989814758, -0.056916244328022, 0.04104042053222656, 1.499267578125, 1.475830078125, 0.1492767333984375, 1.49560546875, 1.46630859375, 10.0, 1.0, 10.0, 1.459805965423584
23248, -1.2532377243041992, -3.515131950378418, -0.029691576957702637, 0.0, 0.0, 24.584381103515625, 0.0, 0.0, 0.6067276000976562, 0, 0, 0, 0, 0, 0, 9362.0, 30146.0, 35388.0, 9362.0, 7.933885097503662, -0.04583679512143135, -0.3502712547779083, -0.13381704688072205, -0.07714787870645523, -0.028693273663520813, 0.9962915778160095, -0.056916244328022, 0.04104042053222656, 1.499267578125, 1.49560546875, 0.1868743896484375, 1.48974609375, 1.482421875, 10.0, 1.0, 10.0, 1.459930181503296
23258, -1.2534635066986084, -3.5192761421203613, -0.02857065387070179, 0.0, 0.0, 24.578357696533203, 0.0, 0.0, -0.6023406982421875, 0, 0, 0, 0, 0, 0, 9362.0, 30146.0, 35388.0, 9362.0, 7.933885097503662, 0.012072614394128323, -0.06412522494792938, 0.10260544717311859, -0.07826609909534454, -0.030250774696469307, 1.0042035579681396, -0.056916244328022, 0.04104042053222656, 1.499267578125, 1.486083984375, 0.16845703125, 1.48974609375, 1.45166015625, 10.0, 1.0, 10.0, 1.460020899772644
23268, -1.2536346912384033, -3.5212562084198, -0.02809516154229641, 0.0, 0.0, 24.57293701171875, 0.0, 0.0, -0.5420684814453125, 0, 0, 0, 0, 0, 0, 9362.0, 30146.0, 35388.0, 9362.0, 7.933885097503662, 0.03529000282287598, -0.05781666561961174, 0.051427438855171204, -0.07900263369083405, -0.028278280049562454, 0.9985010623931885, -0.056916244328022, 0.04104042053222656, 1.499267578125, 1.4736328125, 0.1452178955078125, 1.497802734375, 1.470703125, 10.0, 1.0, 10.0, 1.4600681066513062
23278, -1.2512785196304321, -3.525259256362915, -0.025950193405151367, 0.0, 0.0, 24.564777374267578, 0.0, 0.0, -0.8159637451171875, 0, 0, 0, 0, 0, 0, 9362.0, 30146.0, 35388.0, 9362.0, 7.9140496253967285, 0.43298131227493286, -0.048715054988861084, -0.010431438684463501, -0.07868083566427231, -0.02790735475718975, 0.9855161905288696, -0.06736963987350464, -0.021678924560546875, 1.494140625, 1.51611328125, 0.2286224365234375, 1.497802734375, 1.505859375, 10.0, 1.0, 10.0, 1.4602622985839844
23288, -1.25003182888031, -3.525416851043701, -0.0275211650878191, 0.0, 0.0, 24.55743408203125, 0.0, 0.0, -0.7343292236328125, 0, 0, 0, 0, 0, 0, 9362.0, 30146.0, 35388.0, 9362.0, 7.9140496253967285, 0.29725104570388794, -0.5613141655921936, -0.2958017587661743, -0.07939346134662628, -0.027864927425980568, 0.9874569773674011, -0.06736963987350464, -0.021678924560546875, 1.494140625, 1.475830078125, 0.1492767333984375, 1.49560546875, 1.48681640625, 10.0, 1.0, 10.0, 1.4603161811828613
23298, -1.2472306489944458, -3.5291006565093994, -0.029025601223111153, 0.0, 0.0, 24.556293487548828, 0.0, 0.0, -0.1140594482421875, 0, 0, 0, 0, 0, 0, 9362.0, 30146.0, 35388.0, 9362.0, 7.9140496253967285, 0.5132360458374023, -0.22800105810165405, -0.19890601933002472, -0.081207774579525, -0.029532859101891518, 0.9965690970420837, -0.06736963987350464, -0.021678924560546875, 1.494140625, 1.469970703125, 0.1386566162109375, 1.49560546875, 1.48974609375, 10.0, 1.0, 10.0, 1.4603495597839355
23308, -1.2454777956008911, -3.5335636138916016, -0.029561862349510193, 0.0, 0.0, 24.555267333984375, 0.0, 0.0, -0.1026153564453125, 0, 0, 0, 0, 0, 0, 9362.0, 30146.0, 35388.0, 9362.0, 7.9140496253967285, 0.3193720281124115, 0.23141677677631378, -0.05373349413275719, -0.07723844051361084, -0.027321184054017067, 0.9973919987678528, -0.06736963987350464, -0.021678924560546875, 1.494140625, 1.48681640625, 0.1698150634765625, 1.493408203125, 1.50732421875, 10.0, 1.0, 10.0, 1.4604411125183105
23318, -1.2399406433105469, -3.5418272018432617, -0.030675426125526428, 0.0, 0.0, 24.55434226989746, 0.0, 0.0, -0.09250640869140625, 0, 0, 0, 0, 0, 0, 9362.0, 30146.0, 35388.0, 9362.0, 7.9140496253967285, 0.49039509892463684, 0.337185800075531, -0.0553920604288578, -0.07716101408004761, -0.02694268710911274, 1.0116698741912842, -0.06736963987350464, -0.021678924560546875, 1.494140625, 1.516845703125, 0.23004150390625, 1.493408203125, 1.484619140625, 10.0, 1.0, 10.0, 1.4606361389160156
23328, -1.238455057144165, -3.547788381576538, -0.03241753205657005, 0.0, 0.0, 24.553510665893555, 0.0, 0.0, -0.083160400390625, 0, 0, 0, 0, 0, 0, 9362.0, 30146.0, 35388.0, 9362.0, 7.9140496253967285, 0.3309403955936432, 0.45139625668525696, -0.25632011890411377, -0.07737135142087936, -0.029113497585058212, 1.0060032606124878, -0.06736963987350464, -0.021678924560546875, 1.494140625, 1.478759765625, 0.1546478271484375, 1.49267578125, 1.47509765625, 10.0, 1.0, 10.0, 1.4606987237930298
23338, -1.237828016281128, -3.558088779449463, -0.031930599361658096, 0.0, 0.0, 24.555496215820312, 0.0, 0.0, 0.19855499267578125, 0, 0, 0, 0, 0, 0, 9362.0, 30146.0, 35388.0, 9362.0, 7.9140496253967285, 0.09190748631954193, 0.644746720790863, 0.1498291939496994, -0.07737135142087936, -0.029113497585058212, 1.0060032606124878, -0.06736963987350464, -0.021678924560546875, 1.494140625, 1.46044921875, 0.12200927734375, 1.49267578125, 1.494873046875, 10.0, 1.0, 10.0, 1.460697889328003
23348, -1.2403090000152588, -3.563324213027954, -0.03398074209690094, 0.0, 0.0, 24.555496215820312, 0.0, 0.0, 0.19855499267578125, 0, 0, 0, 0, 0, 0, 9362.0, 30146.0, 35388.0, 9362.0, 7.9140496253967285, -0.140424907207489, 0.30599942803382874, -0.19664333760738373, -0.07737135142087936, -0.029113497585058212, 1.0060032606124878, -0.06736963987350464, -0.021678924560546875, 1.494140625, 1.51318359375, 0.2224273681640625, 1.496337890625, 1.494873046875, 10.0, 1.0, 10.0, 1.460697889328003
23358, -1.2444367408752441, -3.567061424255371, -0.036152299493551254, 0.0, 0.0, 24.562171936035156, 0.0, 0.0, 0.48885345458984375, 0, 0, 0, 0, 0, 0, 9362.0, 30146.0, 35388.0, 9362.0, 7.9140496253967285, -0.29353606700897217, -0.06796227395534515, -0.1741408109664917, -0.07737135142087936, -0.029113497585058212, 1.0060032606124878, -0.06736963987350464, -0.021678924560546875, 1.494140625, 1.51171875, 0.21942138671875, 1.496337890625, 1.494873046875, 10.0, 1.0, 10.0, 1.460697889328003
23368, -1.2495042085647583, -3.5715465545654297, -0.037669047713279724, 0.0, 0.0, 24.562171936035156, 0.0, 0.0, 0.48885345458984375, 0, 0, 0, 0, 0, 0, 9362.0, 30146.0, 35388.0, 9362.0, 7.9140496253967285, -0.49192920327186584, 0.27212846279144287, -0.05976013094186783, -0.07737135142087936, -0.029113497585058212, 1.0060032606124878, -0.06736963987350464, -0.021678924560546875, 1.494140625, 1.477294921875, 0.1519775390625, 1.49267578125, 1.494873046875, 10.0, 1.0, 10.0, 1.460697889328003
23378, -1.256279468536377, -3.575136184692383, -0.04089691489934921, 0.0, 0.0, 24.573266983032227, 0.0, 0.0, 0.6694793701171875, 0, 0, 0, 0, 0, 0, 9362.0, 30146.0, 35388.0, 9362.0, 7.9140496253967285, -0.3980444371700287, -0.2410098761320114, -0.25141122937202454, -0.07737135142087936, -0.029113497585058212, 1.0060032606124878, -0.053043633699417114, -0.14711761474609375, 1.48388671875, 1.5, 0.19561767578125, 1.49267578125, 1.494873046875, 10.0, 1.0, 10.0, 1.460697889328003
23388, -1.2616826295852661, -3.5768895149230957, -0.042832981795072556, 0.0, 0.0, 24.573266983032227, 0.0, 0.0, 0.6694793701171875, 0, 0, 0, 0, 0, 0, 9362.0, 30146.0, 35388.0, 9362.0, 7.9140496253967285, -0.6056026816368103, -0.33611011505126953, -0.32978564500808716, -0.07737135142087936, -0.029113497585058212, 1.0060032606124878, -0.053043633699417114, -0.14711761474609375, 1.48388671875, 1.5, 0.19561767578125, 1.4970703125, 1.494873046875, 10.0, 1.0, 10.0, 1.460697889328003
23398, -1.2660712003707886, -3.581550121307373, -0.0422155037522316, 0.0, 0.0, 24.586355209350586, 0.0, 0.0, 0.7062911987304688, 0, 0, 0, 0, 0, 0, 9362.0, 30146.0, 35388.0, 9362.0, 7.9140496253967285, -0.25045046210289, -0.11040759831666946, 0.1175796166062355, -0.07737135142087936, -0.029113497585058212, 1.0060032606124878, -0.053043633699417114, -0.14711761474609375, 1.48388671875, 1.4970703125, 0.18975830078125, 1.4970703125, 1.494873046875, 10.0, 1.0, 10.0, 1.460697889328003
23408, -1.2681604623794556, -3.5811426639556885, -0.042819660156965256, 0.0, 0.0, 24.586355209350586, 0.0, 0.0, 0.7062911987304688, 0, 0, 0, 0, 0, 0, 9362.0, 30146.0, 35388.0, 9362.0, 7.9140496253967285, -0.25045046210289, -0.11040759831666946, 0.1175796166062355, -0.07820861041545868, -0.03098890744149685, 1.0076274871826172, -0.053043633699417114, -0.14711761474609375, 1.48388671875, 1.50439453125, 0.2044219970703125, 1.4970703125, 1.494873046875, 10.0, 1.0, 10.0, 1.461635708808899
23418, -1.270702600479126, -3.5876872539520264, -0.04180308058857918, 0.0, 0.0, 24.59296226501465, 0.0, 0.0, 0.025177001953125, 0, 0, 0, 0, 0, 0, 9362.0, 30146.0, 35388.0, 9362.0, 7.9140496253967285, -0.25045046210289, -0.11040759831666946, 0.1175796166062355, -0.07806739956140518, -0.02796458825469017, 0.9972012042999268, -0.053043633699417114, -0.14711761474609375, 1.48388671875, 1.45458984375, 0.11224365234375, 1.4970703125, 1.494873046875, 10.0, 1.0, 10.0, 1.4616115093231201
23428, -1.270800232887268, -3.5880463123321533, -0.044259194284677505, 0.0, 0.0, 24.593189239501953, 0.0, 0.0, 0.02269744873046875, 0, 0, 0, 0, 0, 0, 9362.0, 30146.0, 35388.0, 9362.0, 7.9140496253967285, -0.25045046210289, -0.11040759831666946, 0.1175796166062355, -0.07830344885587692, -0.02869228832423687, 0.9826669692993164, -0.053043633699417114, -0.14711761474609375, 1.48388671875, 1.4736328125, 0.1452178955078125, 1.4970703125, 1.494873046875, 10.0, 1.0, 10.0, 1.4616527557373047
23438, -1.270653486251831, -3.5961971282958984, -0.0423249676823616, 0.0, 0.0, 24.58409881591797, 0.0, 0.0, -0.9090423583984375, 0, 0, 0, 0, 0, 0, 9362.0, 30146.0, 35388.0, 9362.0, 7.9140496253967285, -0.25045046210289, -0.11040759831666946, 0.1175796166062355, -0.07908905297517776, -0.029751120135188103, 0.9930286407470703, -0.053043633699417114, -0.14711761474609375, 1.48388671875, 1.48974609375, 0.1755218505859375, 1.4970703125, 1.494873046875, 10.0, 1.0, 10.0, 1.4616527557373047
23448, -1.2712171077728271, -3.5964558124542236, -0.041786883026361465, 0.0, 0.0, 24.58409881591797, 0.0, 0.0, -0.9090423583984375, 0, 0, 0, 0, 0, 0, 9362.0, 30146.0, 35388.0, 9362.0, 7.9140496253967285, -0.25045046210289, -0.11040759831666946, 0.1175796166062355, -0.07721557468175888, -0.031086629256606102, 1.0073322057724, -0.053043633699417114, -0.14711761474609375, 1.48388671875, 1.490478515625, 0.1768646240234375, 1.491943359375, 1.494873046875, 10.0, 1.0, 10.0, 1.4618477821350098
23458, -1.2735967636108398, -3.603365182876587, -0.03846476972103119, 0.0, 0.0, 24.58409881591797, 0.0, 0.0, -0.9090423583984375, 0, 0, 0, 0, 0, 0, 9362.0, 30146.0, 35388.0, 9362.0, 7.9140496253967285, -0.25045046210289, -0.11040759831666946, 0.1175796166062355, -0.07891887426376343, -0.02827826887369156, 1.0022169351577759, -0.053043633699417114, -0.14711761474609375, 1.48388671875, 1.497802734375, 0.19122314453125, 1.491943359375, 1.494873046875, 10.0, 1.0, 10.0, 1.4619711637496948
23468, -1.2745875120162964, -3.6074094772338867, -0.03748074173927307, 0.0, 0.0, 24.559846878051758, 0.0, 0.0, -0.7612228393554688, 0, 0, 0, 0, 0, 0, 9362.0, 30146.0, 35388.0, 9362.0, 7.9140496253967285, -0.25045046210289, -0.11040759831666946, 0.1175796166062355, -0.07884099334478378, -0.0309076476842165, 0.9889392256736755, -0.053043633699417114, -0.14711761474609375, 1.48388671875, 1.470703125, 0.1399383544921875, 1.491943359375, 1.494873046875, 10.0, 1.0, 10.0, 1.462001085281372
23478, -1.2755846977233887, -3.6126463413238525, -0.03409361094236374, 0.0, 0.0, 24.551902770996094, 0.0, 0.0, -0.7944107055664062, 0, 0, 0, 0, 0, 0, 9362.0, 30146.0, 35388.0, 9362.0, 7.9140496253967285, -0.25045046210289, -0.11040759831666946, 0.1175796166062355, -0.07752572745084763, -0.027197005227208138, 0.9875792860984802, -0.053043633699417114, -0.14711761474609375, 1.48388671875, 1.482421875, 0.161529541015625, 1.491943359375, 1.494873046875, 10.0, 1.0, 10.0, 1.462001085281372
23488, -1.275028109550476, -3.6173477172851562, -0.03401191160082817, 0.0, 0.0, 24.551902770996094, 0.0, 0.0, -0.7944107055664062, 0, 0, 0, 0, 0, 0, 9362.0, 30146.0, 35388.0, 9362.0, 7.9140496253967285, -0.25045046210289, -0.11040759831666946, 0.1175796166062355, -0.0782303735613823, -0.0269555002450943, 0.997840940952301, -0.053043633699417114, -0.14711761474609375, 1.48388671875, 1.482421875, 0.161529541015625, 1.497802734375, 1.494873046875, 10.0, 1.0, 10.0, 1.462001085281372
23498, -1.2764763832092285, -3.618664503097534, -0.030635308474302292, 0.0, 0.0, 24.539958953857422, 0.0, 0.0, -0.4795074462890625, 0, 0, 0, 0, 0, 0, 9362.0, 30146.0, 35388.0, 9362.0, 7.9140496253967285, -0.25045046210289, -0.11040759831666946, 0.1175796166062355, -0.0782303735613823, -0.0269555002450943, 0.997840940952301, -0.053043633699417114, -0.14711761474609375, 1.48388671875, 1.4677734375, 0.1347198486328125, 1.497802734375, 1.494873046875, 10.0, 1.0, 10.0, 1.462207555770874
23508, -1.2761931419372559, -3.621259927749634, -0.030345797538757324, 0.0, 0.0, 24.53564453125, 0.0, 0.0, -0.4314422607421875, 0, 0, 0, 0, 0, 0, 9362.0, 30146.0, 35388.0, 9362.0, 7.9140496253967285, -0.25045046210289, -0.11040759831666946, 0.1175796166062355, -0.07707127928733826, -0.028071627020835876, 0.9967393279075623, -0.053043633699417114, -0.14711761474609375, 1.48388671875, 1.45166015625, 0.107452392578125, 1.497802734375, 1.494873046875, 10.0, 1.0, 10.0, 1.4621714353561401
23518, -1.274459719657898, -3.622941732406616, -0.03060290776193142, 0.0, 0.0, 24.531213760375977, 0.0, 0.0, -0.44307708740234375, 0, 0, 0, 0, 0, 0, 9362.0, 30146.0, 35388.0, 9362.0, 7.9140496253967285, -0.25045046210289, -0.11040759831666946, 0.1175796166062355, -0.07897191494703293, -0.029456157237291336, 0.9908095002174377, -0.053043633699417114, -0.14711761474609375, 1.48388671875, 1.46923828125, 0.137359619140625, 1.497802734375, 1.494873046875, 10.0, 1.0, 10.0, 1.4621714353561401
23528, -1.2729754447937012, -3.624107599258423, -0.029878078028559685, 0.0, 0.0, 24.5272274017334, 0.0, 0.0, -0.3986358642578125, 0, 0, 0, 0, 0, 0, 9362.0, 30146.0, 35388.0, 9362.0, 7.9140496253967285, -0.25045046210289, -0.11040759831666946, 0.1175796166062355, -0.07803920656442642, -0.028297003358602524, 0.9935700297355652, -0.053043633699417114, -0.14711761474609375, 1.48388671875, 1.49267578125, 0.1811065673828125, 1.497802734375, 1.494873046875, 10.0, 1.0, 10.0, 1.4622998237609863
23548, -1.2706775665283203, -3.628039836883545, -0.030069727450609207, 0.0, 0.0, 24.519371032714844, 0.0, 0.0, -0.37212371826171875, 0, 0, 0, 0, 0, 0, 9362.0, 30146.0, 35388.0, 9362.0, 7.9140496253967285, -0.25045046210289, -0.11040759831666946, 0.1175796166062355, -0.0772152915596962, -0.02866268716752529, 0.9957722425460815, -0.053043633699417114, -0.14711761474609375, 1.48388671875, 1.4677734375, 0.1347198486328125, 1.497802734375, 1.494873046875, 10.0, 1.0, 10.0, 1.462384581565857
23558, -1.2691450119018555, -3.631584405899048, -0.032687027007341385, 0.0, 0.0, 24.5236759185791, 0.0, 0.0, 0.43048858642578125, 0, 0, 0, 0, 0, 0, 9362.0, 30146.0, 35388.0, 9362.0, 7.9140496253967285, 0.2287524789571762, 0.1214696615934372, -0.13450349867343903, -0.0772152915596962, -0.02866268716752529, 0.9957722425460815, -0.053043633699417114, -0.14711761474609375, 1.48388671875, 1.48681640625, 0.1698150634765625, 1.497802734375, 1.494873046875, 10.0, 1.0, 10.0, 1.4624680280685425
23568, -1.269706130027771, -3.634049415588379, -0.036185361444950104, 0.0, 0.0, 24.5236759185791, 0.0, 0.0, 0.43048858642578125, 0, 0, 0, 0, 0, 0, 9362.0, 30146.0, 35388.0, 9362.0, 7.9140496253967285, 0.08274991065263748, 0.11198525875806808, -0.42381617426872253, -0.0772152915596962, -0.02866268716752529, 0.9957722425460815, -0.053043633699417114, -0.14711761474609375, 1.48388671875, 1.50146484375, 0.1985626220703125, 1.49560546875, 1.494873046875, 10.0, 1.0, 10.0, 1.4624680280685425
23578, -1.271743893623352, -3.638201951980591, -0.03759152069687843, 0.0, 0.0, 24.528852462768555, 0.0, 0.0, 0.1300811767578125, 0, 0, 0, 0, 0, 0, 9362.0, 30146.0, 35388.0, 9362.0, 7.9140496253967285, -0.0704709067940712, 0.2903319299221039, -0.07993771135807037, -0.0772152915596962, -0.02866268716752529, 0.9957722425460815, -0.05029766261577606, -0.021678924560546875, 1.494140625, 1.493408203125, 0.1825714111328125, 1.49560546875, 1.494873046875, 10.0, 1.0, 10.0, 1.4624680280685425
23588, -1.2732876539230347, -3.645139694213867, -0.03805568069219589, 0.0, 0.0, 24.5300235748291, 0.0, 0.0, 0.1171112060546875, 0, 0, 0, 0, 0, 0, 9362.0, 30146.0, 35388.0, 9362.0, 7.9140496253967285, -0.1376079022884369, 0.6762726902961731, -0.09196512401103973, -0.0772152915596962, -0.02866268716752529, 0.9957722425460815, -0.05029766261577606, -0.021678924560546875, 1.494140625, 1.493408203125, 0.1825714111328125, 1.49560546875, 1.494873046875, 10.0, 1.0, 10.0, 1.4624680280685425
23598, -1.2754454612731934, -3.653616189956665, -0.040022581815719604, 0.0, 0.0, 24.536544799804688, 0.0, 0.0, 0.6521224975585938, 0, 0, 0, 0, 0, 0, 9362.0, 30146.0, 35388.0, 9362.0, 7.9140496253967285, 0.0486871711909771, 0.5500895977020264, -0.17540432512760162, -0.0772152915596962, -0.02866268716752529, 0.9957722425460815, -0.05029766261577606, -0.021678924560546875, 1.494140625, 1.475830078125, 0.1492767333984375, 1.49560546875, 1.494873046875, 10.0, 1.0, 10.0, 1.4624680280685425
23608, -1.2798892259597778, -3.6549160480499268, -0.04099464789032936, 0.0, 0.0, 24.54241371154785, 0.0, 0.0, 0.5868911743164062, 0, 0, 0, 0, 0, 0, 9362.0, 30146.0, 35388.0, 9362.0, 7.9140496253967285, 0.0486871711909771, 0.5500895977020264, -0.17540432512760162, -0.0783957988023758, -0.030528347939252853, 0.9936124682426453, -0.05029766261577606, -0.021678924560546875, 1.494140625, 1.48681640625, 0.1698150634765625, 1.49560546875, 1.494873046875, 10.0, 1.0, 10.0, 1.4628573656082153
23618, -1.2859385013580322, -3.6576409339904785, -0.043039120733737946, 0.0, 0.0, 24.54332160949707, 0.0, 0.0, 0.090789794921875, 0, 0, 0, 0, 0, 0, 9362.0, 30146.0, 35388.0, 9362.0, 7.9140496253967285, -0.24062135815620422, 0.08665498346090317, -0.06672761589288712, -0.0783957988023758, -0.030528347939252853, 0.9936124682426453, -0.05029766261577606, -0.021678924560546875, 1.494140625, 1.50439453125, 0.2044219970703125, 1.49560546875, 1.494873046875, 10.0, 1.0, 10.0, 1.4628573656082153
23628, -1.290206789970398, -3.6589198112487793, -0.04315432906150818, 0.0, 0.0, 24.54332160949707, 0.0, 0.0, 0.090789794921875, 0, 0, 0, 0, 0, 0, 9362.0, 30146.0, 35388.0, 9362.0, 7.9140496253967285, -0.322575181722641, -0.019663220271468163, 0.05345985293388367, -0.0783957988023758, -0.030528347939252853, 0.9936124682426453, -0.05029766261577606, -0.021678924560546875, 1.494140625, 1.50732421875, 0.2104644775390625, 1.493408203125, 1.494873046875, 10.0, 1.0, 10.0, 1.4631495475769043
23638, -1.2948246002197266, -3.6648483276367188, -0.04388444498181343, 0.0, 0.0, 24.540498733520508, 0.0, 0.0, -0.363922119140625, 0, 0, 0, 0, 0, 0, 9362.0, 30146.0, 35388.0, 9362.0, 7.9140496253967285, -0.322575181722641, -0.019663220271468163, 0.05345985293388367, -0.0783957988023758, -0.030528347939252853, 0.9936124682426453, -0.05029766261577606, -0.021678924560546875, 1.494140625, 1.475830078125, 0.1492767333984375, 1.493408203125, 1.494873046875, 10.0, 1.0, 10.0, 1.4631927013397217
23648, -1.296410083770752, -3.667649269104004, -0.04565988481044769, 0.0, 0.0, 24.53722381591797, 0.0, 0.0, -0.32749176025390625, 0, 0, 0, 0, 0, 0, 9362.0, 30146.0, 35388.0, 9362.0, 7.9140496253967285, -0.322575181722641, -0.019663220271468163, 0.05345985293388367, -0.0783957988023758, -0.030528347939252853, 0.9936124682426453, -0.05029766261577606, -0.021678924560546875, 1.494140625, 1.47216796875, 0.142547607421875, 1.49267578125, 1.494873046875, 10.0, 1.0, 10.0, 1.4632232189178467
23658, -1.2970551252365112, -3.6780643463134766, -0.04503827542066574, 0.0, 0.0, 24.53755760192871, 0.0, 0.0, 0.03337860107421875, 0, 0, 0, 0, 0, 0, 9362.0, 30146.0, 35388.0, 9362.0, 7.9140496253967285, -0.322575181722641, -0.019663220271468163, 0.05345985293388367, -0.0783957988023758, -0.030528347939252853, 0.9936124682426453, -0.05029766261577606, -0.021678924560546875, 1.494140625, 1.4619140625, 0.1246185302734375, 1.49267578125, 1.494873046875, 10.0, 1.0, 10.0, 1.4632188081741333
23668, -1.2953763008117676, -3.682110548019409, -0.044780146330595016, 0.0, 0.0, 24.537857055664062, 0.0, 0.0, 0.02994537353515625, 0, 0, 0, 0, 0, 0, 9362.0, 30146.0, 35388.0, 9362.0, 7.9140496253967285, 0.317009836435318, 0.09511522203683853, 0.018593959510326385, -0.0783957988023758, -0.030528347939252853, 0.9936124682426453, -0.05029766261577606, -0.021678924560546875, 1.494140625, 1.455322265625, 0.1134796142578125, 1.49267578125, 1.494873046875, 10.0, 1.0, 10.0, 1.4632188081741333
23678, -1.2920018434524536, -3.6911087036132812, -0.043664541095495224, 0.0, 0.0, 24.540313720703125, 0.0, 0.0, 0.24566650390625, 0, 0, 0, 0, 0, 0, 9362.0, 30146.0, 35388.0, 9362.0, 7.9140496253967285, 0.5367808938026428, 0.2922816872596741, 0.28432294726371765, -0.0783957988023758, -0.030528347939252853, 0.9936124682426453, -0.04187007248401642, 0.10376167297363281, 1.50439453125, 1.48681640625, 0.1698150634765625, 1.49267578125, 1.494873046875, 10.0, 1.0, 10.0, 1.4632188081741333
23688, -1.2910950183868408, -3.6939809322357178, -0.04289973899722099, 0.0, 0.0, 24.540313720703125, 0.0, 0.0, 0.24566650390625, 0, 0, 0, 0, 0, 0, 9362.0, 30146.0, 35388.0, 9362.0, 7.9140496253967285, 0.2816377282142639, -0.01617930829524994, 0.23434625566005707, -0.0783957988023758, -0.030528347939252853, 0.9936124682426453, -0.04187007248401642, 0.10376167297363281, 1.50439453125, 1.48681640625, 0.1698150634765625, 1.499267578125, 1.494873046875, 10.0, 1.0, 10.0, 1.4632188081741333
23698, -1.2913239002227783, -3.6966235637664795, -0.0425935760140419, 0.0, 0.0, 24.541780471801758, 0.0, 0.0, -0.0743865966796875, 0, 0, 0, 0, 0, 0, 9362.0, 30146.0, 35388.0, 9362.0, 7.9140496253967285, 0.20014266669750214, -0.044811706990003586, 0.07762676477432251, -0.0783957988023758, -0.030528347939252853, 0.9936124682426453, -0.04187007248401642, 0.10376167297363281, 1.50439453125, 1.494140625, 0.183990478515625, 1.499267578125, 1.494873046875, 10.0, 1.0, 10.0, 1.4632188081741333
23708, -1.2932935953140259, -3.6988186836242676, -0.04167543724179268, 0.0, 0.0, 24.54111099243164, 0.0, 0.0, -0.06694793701171875, 0, 0, 0, 0, 0, 0, 9362.0, 30146.0, 35388.0, 9362.0, 7.9140496253967285, 0.20014266669750214, -0.044811706990003586, 0.07762676477432251, -0.07571549713611603, -0.031149283051490784, 1.00325608253479, -0.04187007248401642, 0.10376167297363281, 1.50439453125, 1.5029296875, 0.201446533203125, 1.499267578125, 1.494873046875, 10.0, 1.0, 10.0, 1.4636988639831543
23718, -1.2981986999511719, -3.7031116485595703, -0.03833277150988579, 0.0, 0.0, 24.547616958618164, 0.0, 0.0, 0.6505966186523438, 0, 0, 0, 0, 0, 0, 9362.0, 30146.0, 35388.0, 9362.0, 7.9140496253967285, 0.20014266669750214, -0.044811706990003586, 0.07762676477432251, -0.07876739650964737, -0.02904529497027397, 0.9966050982475281, -0.04187007248401642, 0.10376167297363281, 1.50439453125, 1.4736328125, 0.1452178955078125, 1.499267578125, 1.494873046875, 10.0, 1.0, 10.0, 1.4637324810028076
23728, -1.3016303777694702, -3.7019779682159424, -0.037489715963602066, 0.0, 0.0, 24.547616958618164, 0.0, 0.0, 0.6505966186523438, 0, 0, 0, 0, 0, 0, 9362.0, 30146.0, 35388.0, 9362.0, 7.9140496253967285, 0.20014266669750214, -0.044811706990003586, 0.07762676477432251, -0.07998529821634293, -0.02823973447084427, 0.9917248487472534, -0.04187007248401642, 0.10376167297363281, 1.50439453125, 1.49267578125, 0.1811065673828125, 1.49853515625, 1.494873046875, 10.0, 1.0, 10.0, 1.4637324810028076
23738, -1.3075863122940063, -3.699732542037964, -0.034851476550102234, 0.0, 0.0, 24.55600929260254, 0.0, 0.0, 0.2536773681640625, 0, 0, 0, 0, 0, 0, 9362.0, 30146.0, 35388.0, 9362.0, 7.9140496253967285, 0.20014266669750214, -0.044811706990003586, 0.07762676477432251, -0.07746948301792145, -0.0276776272803545, 0.9936923980712891, -0.04187007248401642, 0.10376167297363281, 1.50439453125, 1.4619140625, 0.1246185302734375, 1.49853515625, 1.494873046875, 10.0, 1.0, 10.0, 1.4638240337371826
23748, -1.308692455291748, -3.700310468673706, -0.032579027116298676, 0.0, 0.0, 24.558292388916016, 0.0, 0.0, 0.22830963134765625, 0, 0, 0, 0, 0, 0, 9362.0, 30146.0, 35388.0, 9362.0, 7.9140496253967285, 0.043658409267663956, -0.09361787885427475, 0.39016497135162354, -0.07746948301792145, -0.0276776272803545, 0.9936923980712891, -0.04187007248401642, 0.10376167297363281, 1.50439453125, 1.49267578125, 0.1811065673828125, 1.49853515625, 1.494873046875, 10.0, 1.0, 10.0, 1.4638240337371826
23758, -1.310560703277588, -3.698349714279175, -0.03186161071062088, 0.0, 0.0, 24.560894012451172, 0.0, 0.0, 0.260162353515625, 0, 0, 0, 0, 0, 0, 9362.0, 30146.0, 35388.0, 9362.0, 7.9140496253967285, -0.12089390307664871, -0.5312216877937317, -0.13459187746047974, -0.07746948301792145, -0.0276776272803545, 0.9936923980712891, -0.04187007248401642, 0.10376167297363281, 1.50439453125, 1.481689453125, 0.1600799560546875, 1.49853515625, 1.494873046875, 10.0, 1.0, 10.0, 1.4638240337371826
23768, -1.3121671676635742, -3.69657301902771, -0.030677564442157745, 0.0, 0.0, 24.563234329223633, 0.0, 0.0, 0.23403167724609375, 0, 0, 0, 0, 0, 0, 9362.0, 30146.0, 35388.0, 9362.0, 7.9140496253967285, -0.1410837471485138, -0.641250729560852, 0.027378760278224945, -0.07746948301792145, -0.0276776272803545, 0.9936923980712891, -0.04187007248401642, 0.10376167297363281, 1.50439453125, 1.490478515625, 0.1768646240234375, 1.49853515625, 1.494873046875, 10.0, 1.0, 10.0, 1.464071273803711
23778, -1.3089202642440796, -3.701328992843628, -0.029888806864619255, 0.0, 0.0, 24.565340042114258, 0.0, 0.0, 0.2105712890625, 0, 0, 0, 0, 0, 0, 9362.0, 30146.0, 35388.0, 9362.0, 7.9140496253967285, -0.1410837471485138, -0.641250729560852, 0.027378760278224945, -0.07821013033390045, -0.026757754385471344, 0.9967209100723267, -0.054436758160591125, -0.2187976837158203, 1.47802734375, 1.49267578125, 0.1811065673828125, 1.49853515625, 1.494873046875, 10.0, 1.0, 10.0, 1.464071273803711
23788, -1.3071117401123047, -3.705442428588867, -0.028632938861846924, 0.0, 0.0, 24.567235946655273, 0.0, 0.0, 0.1895904541015625, 0, 0, 0, 0, 0, 0, 9362.0, 30146.0, 35388.0, 9362.0, 7.9140496253967285, -0.1410837471485138, -0.641250729560852, 0.027378760278224945, -0.07563440501689911, -0.02820560708642006, 0.9984965920448303, -0.054436758160591125, -0.2187976837158203, 1.47802734375, 1.49267578125, 0.1811065673828125, 1.49853515625, 1.494873046875, 10.0, 1.0, 10.0, 1.4642444849014282
23798, -1.3080335855484009, -3.7104148864746094, -0.027989918366074562, 0.0, 0.0, 24.567235946655273, 0.0, 0.0, 0.1895904541015625, 0, 0, 0, 0, 0, 0, 9362.0, 30146.0, 35388.0, 9362.0, 7.9140496253967285, 0.11908432841300964, 0.08658385276794434, 0.1208270937204361, -0.0777825191617012, -0.03029199317097664, 0.9966724514961243, -0.054436758160591125, -0.2187976837158203, 1.47802734375, 1.41650390625, 0.0577545166015625, 1.49853515625, 1.494873046875, 10.0, 1.0, 10.0, 1.4642444849014282
23808, -1.3096661567687988, -3.714340925216675, -0.027346305549144745, 0.0, 0.0, 24.55697250366211, 0.0, 0.0, -0.48618316650390625, 0, 0, 0, 0, 0, 0, 9362.0, 30146.0, 35388.0, 9362.0, 7.9140496253967285, -0.032250359654426575, 0.07829681783914566, 0.11870138347148895, -0.0777825191617012, -0.03029199317097664, 0.9966724514961243, -0.054436758160591125, -0.2187976837158203, 1.47802734375, 1.46923828125, 0.137359619140625, 1.49853515625, 1.494873046875, 10.0, 1.0, 10.0, 1.4642444849014282
23818, -1.3133323192596436, -3.7206673622131348, -0.030126189813017845, 0.0, 0.0, 24.55095672607422, 0.0, 0.0, -0.6015777587890625, 0, 0, 0, 0, 0, 0, 9362.0, 30146.0, 35388.0, 9362.0, 7.9140496253967285, -0.09952203929424286, 0.2780006229877472, -0.22887760400772095, -0.0777825191617012, -0.03029199317097664, 0.9966724514961243, -0.054436758160591125, -0.2187976837158203, 1.47802734375, 1.472900390625, 0.1439361572265625, 1.49853515625, 1.494873046875, 10.0, 1.0, 10.0, 1.4642444849014282
23828, -1.3174020051956177, -3.7257750034332275, -0.03009156510233879, 0.0, 0.0, 24.55095672607422, 0.0, 0.0, -0.6015777587890625, 0, 0, 0, 0, 0, 0, 9362.0, 30146.0, 35388.0, 9362.0, 7.9140496253967285, -0.09952203929424286, 0.2780006229877472, -0.22887760400772095, -0.07710350304841995, -0.030761051923036575, 0.9961169362068176, -0.054436758160591125, -0.2187976837158203, 1.47802734375, 1.493408203125, 0.1825714111328125, 1.490478515625, 1.494873046875, 10.0, 1.0, 10.0, 1.4642444849014282
23838, -1.321638584136963, -3.7295451164245605, -0.030075842514634132, 0.0, 0.0, 24.54941749572754, 0.0, 0.0, 0.3875732421875, 0, 0, 0, 0, 0, 0, 9362.0, 30146.0, 35388.0, 9362.0, 7.9140496253967285, -0.0704444870352745, -0.14696401357650757, 0.0751989409327507, -0.07710350304841995, -0.030761051923036575, 0.9961169362068176, -0.054436758160591125, -0.2187976837158203, 1.47802734375, 1.47216796875, 0.142547607421875, 1.490478515625, 1.494873046875, 10.0, 1.0, 10.0, 1.4642444849014282
23848, -1.3237299919128418, -3.731281042098999, -0.033576849848032, 0.0, 0.0, 24.54941749572754, 0.0, 0.0, 0.3875732421875, 0, 0, 0, 0, 0, 0, 9362.0, 30146.0, 35388.0, 9362.0, 7.9140496253967285, -0.1547221690416336, -0.07979684323072433, -0.5291399955749512, -0.07710350304841995, -0.030761051923036575, 0.9961169362068176, -0.054436758160591125, -0.2187976837158203, 1.47802734375, 1.50146484375, 0.1985626220703125, 1.494873046875, 1.494873046875, 10.0, 1.0, 10.0, 1.4642444849014282
23858, -1.3249107599258423, -3.7298245429992676, -0.035385727882385254, 0.0, 0.0, 24.557138442993164, 0.0, 0.0, 0.42324066162109375, 0, 0, 0, 0, 0, 0, 9362.0, 30146.0, 35388.0, 9362.0, 7.9140496253967285, -0.1547221690416336, -0.07979684323072433, -0.5291399955749512, -0.07627342641353607, -0.026625797152519226, 0.9960023164749146, -0.054436758160591125, -0.2187976837158203, 1.47802734375, 1.493408203125, 0.1825714111328125, 1.494873046875, 1.494873046875, 10.0, 1.0, 10.0, 1.464478850364685
23868, -1.3239374160766602, -3.7341368198394775, -0.03465590998530388, 0.0, 0.0, 24.56094741821289, 0.0, 0.0, 0.38089752197265625, 0, 0, 0, 0, 0, 0, 9362.0, 30146.0, 35388.0, 9362.0, 7.9140496253967285, -0.1547221690416336, -0.07979684323072433, -0.5291399955749512, -0.07627342641353607, -0.026625797152519226, 0.9960023164749146, -0.054436758160591125, -0.2187976837158203, 1.47802734375, 1.4560546875, 0.1147003173828125, 1.494873046875, 1.494873046875, 10.0, 1.0, 10.0, 1.464450478553772
23878, -1.3213406801223755, -3.7386393547058105, -0.036513861268758774, 0.0, 0.0, 24.566017150878906, 0.0, 0.0, 0.5069732666015625, 0, 0, 0, 0, 0, 0, 9362.0, 30146.0, 35388.0, 9362.0, 7.9140496253967285, 0.21709677577018738, 0.10755245387554169, -0.0968853086233139, -0.07627342641353607, -0.026625797152519226, 0.9960023164749146, -0.05587994307279587, -0.030637741088867188, 1.493408203125, 1.512451171875, 0.2209625244140625, 1.494873046875, 1.494873046875, 10.0, 1.0, 10.0, 1.464450478553772
23888, -1.3193951845169067, -3.7430036067962646, -0.03780015930533409, 0.0, 0.0, 24.570579528808594, 0.0, 0.0, 0.45623779296875, 0, 0, 0, 0, 0, 0, 9362.0, 30146.0, 35388.0, 9362.0, 7.9140496253967285, 0.21709677577018738, 0.10755245387554169, -0.0968853086233139, -0.07801303267478943, -0.02836810052394867, 0.9961467385292053, -0.05587994307279587, -0.030637741088867188, 1.493408203125, 1.512451171875, 0.2209625244140625, 1.49560546875, 1.494873046875, 10.0, 1.0, 10.0, 1.464755654335022
23898, -1.3154805898666382, -3.747591495513916, -0.0377374067902565, 0.0, 0.0, 24.5714054107666, 0.0, 0.0, 0.08258819580078125, 0, 0, 0, 0, 0, 0, 9362.0, 30146.0, 35388.0, 9362.0, 7.9140496253967285, 0.21709677577018738, 0.10755245387554169, -0.0968853086233139, -0.07801303267478943, -0.02836810052394867, 0.9961467385292053, -0.05587994307279587, -0.030637741088867188, 1.493408203125, 1.4501953125, 0.1050872802734375, 1.49560546875, 1.494873046875, 10.0, 1.0, 10.0, 1.4647066593170166
23908, -1.3162988424301147, -3.7528820037841797, -0.03949800878763199, 0.0, 0.0, 24.572147369384766, 0.0, 0.0, 0.07419586181640625, 0, 0, 0, 0, 0, 0, 9362.0, 30146.0, 35388.0, 9362.0, 7.9140496253967285, 0.08582655340433121, 0.37008553743362427, -0.2401668280363083, -0.07801303267478943, -0.02836810052394867, 0.9961467385292053, -0.05587994307279587, -0.030637741088867188, 1.493408203125, 1.48095703125, 0.1587677001953125, 1.496337890625, 1.494873046875, 10.0, 1.0, 10.0, 1.4647066593170166
23918, -1.316763162612915, -3.7589190006256104, -0.04060569033026695, 0.0, 0.0, 24.561880111694336, 0.0, 0.0, -1.0267257690429688, 0, 0, 0, 0, 0, 0, 9362.0, 30146.0, 35388.0, 9362.0, 7.9140496253967285, 0.08268733322620392, 0.0704299807548523, -0.03069392777979374, -0.07801303267478943, -0.02836810052394867, 0.9961467385292053, -0.05587994307279587, -0.030637741088867188, 1.493408203125, 1.491943359375, 0.179656982421875, 1.496337890625, 1.494873046875, 10.0, 1.0, 10.0, 1.4647066593170166
23928, -1.3185341358184814, -3.7658770084381104, -0.040738362818956375, 0.0, 0.0, 24.561880111694336, 0.0, 0.0, -1.0267257690429688, 0, 0, 0, 0, 0, 0, 9362.0, 30146.0, 35388.0, 9362.0, 7.9140496253967285, -0.07487493753433228, 0.5943717956542969, -0.02526533417403698, -0.07801303267478943, -0.02836810052394867, 0.9961467385292053, -0.05587994307279587, -0.030637741088867188, 1.493408203125, 1.472900390625, 0.1439361572265625, 1.496337890625, 1.494873046875, 10.0, 1.0, 10.0, 1.4647066593170166
23938, -1.3218350410461426, -3.769564390182495, -0.04038308560848236, 0.0, 0.0, 24.561880111694336, 0.0, 0.0, -1.0267257690429688, 0, 0, 0, 0, 0, 0, 9362.0, 30146.0, 35388.0, 9362.0, 7.9140496253967285, -0.07487493753433228, 0.5943717956542969, -0.02526533417403698, -0.07672371715307236, -0.028846921399235725, 0.9976985454559326, -0.05587994307279587, -0.030637741088867188, 1.493408203125, 1.50146484375, 0.1985626220703125, 1.496337890625, 1.494873046875, 10.0, 1.0, 10.0, 1.465002417564392
23948, -1.3254027366638184, -3.772904634475708, -0.038215965032577515, 0.0, 0.0, 24.561880111694336, 0.0, 0.0, -1.0267257690429688, 0, 0, 0, 0, 0, 0, 9362.0, 30146.0, 35388.0, 9362.0, 7.9140496253967285, -0.4305221736431122, 0.030488155782222748, 0.3351799547672272, -0.07672371715307236, -0.028846921399235725, 0.9976985454559326, -0.05587994307279587, -0.030637741088867188, 1.493408203125, 1.50146484375, 0.1985626220703125, 1.496337890625, 1.494873046875, 10.0, 1.0, 10.0, 1.465002417564392
23958, -1.3285585641860962, -3.7765886783599854, -0.03742199018597603, 0.0, 0.0, 24.544214248657227, 0.0, 0.0, -0.405120849609375, 0, 0, 0, 0, 0, 0, 9362.0, 30146.0, 35388.0, 9362.0, 7.9140496253967285, -0.4305221736431122, 0.030488155782222748, 0.3351799547672272, -0.07809996604919434, -0.02672155760228634, 0.9957242608070374, -0.05587994307279587, -0.030637741088867188, 1.493408203125, 1.47509765625, 0.147857666015625, 1.496337890625, 1.494873046875, 10.0, 1.0, 10.0, 1.4650602340698242
23968, -1.3281053304672241, -3.7790822982788086, -0.03471427038311958, 0.0, 0.0, 24.544214248657227, 0.0, 0.0, -0.405120849609375, 0, 0, 0, 0, 0, 0, 9362.0, 30146.0, 35388.0, 9362.0, 7.9140496253967285, 0.14130137860774994, -0.006278418004512787, 0.26100578904151917, -0.07809996604919434, -0.02672155760228634, 0.9957242608070374, -0.05587994307279587, -0.030637741088867188, 1.493408203125, 1.467041015625, 0.1334686279296875, 1.49267578125, 1.494873046875, 10.0, 1.0, 10.0, 1.465066909790039
23978, -1.327743649482727, -3.781425714492798, -0.03143910691142082, 0.0, 0.0, 24.542205810546875, 0.0, 0.0, 0.16384124755859375, 0, 0, 0, 0, 0, 0, 9362.0, 30146.0, 35388.0, 9362.0, 7.933885097503662, 0.14130137860774994, -0.006278418004512787, 0.26100578904151917, -0.07836218178272247, -0.027417728677392006, 0.9955368638038635, -0.049655020236968994, 0.08584022521972656, 1.5029296875, 1.48974609375, 0.1755218505859375, 1.49267578125, 1.494873046875, 10.0, 1.0, 10.0, 1.465066909790039
23988, -1.3276700973510742, -3.784212827682495, -0.029884662479162216, 0.0, 0.0, 24.543682098388672, 0.0, 0.0, 0.1476287841796875, 0, 0, 0, 0, 0, 0, 9362.0, 30146.0, 35388.0, 9362.0, 7.933885097503662, 0.1862225979566574, 0.03351251035928726, 0.2338104099035263, -0.07836218178272247, -0.027417728677392006, 0.9955368638038635, -0.049655020236968994, 0.08584022521972656, 1.5029296875, 1.48974609375, 0.1755218505859375, 1.49267578125, 1.494873046875, 10.0, 1.0, 10.0, 1.465066909790039
24008, -1.3267282247543335, -3.7908029556274414, -0.030347397550940514, 0.0, 0.0, 24.551025390625, 0.0, 0.0, 0.7343292236328125, 0, 0, 0, 0, 0, 0, 9362.0, 30146.0, 35388.0, 9362.0, 7.933885097503662, 0.18727687001228333, -0.008649379014968872, -0.07969014346599579, -0.07836218178272247, -0.027417728677392006, 0.9955368638038635, -0.049655020236968994, 0.08584022521972656, 1.5029296875, 1.494873046875, 0.185455322265625, 1.499267578125, 1.494873046875, 10.0, 1.0, 10.0, 1.465066909790039
24018, -1.3268829584121704, -3.7959048748016357, -0.027311084792017937, 0.0, 0.0, 24.55975341796875, 0.0, 0.0, 0.21190643310546875, 0, 0, 0, 0, 0, 0, 9362.0, 30146.0, 35388.0, 9362.0, 7.933885097503662, 0.12015090137720108, 0.004365365952253342, 0.19435136020183563, -0.07836218178272247, -0.027417728677392006, 0.9955368638038635, -0.049655020236968994, 0.08584022521972656, 1.5029296875, 1.48974609375, 0.1755218505859375, 1.499267578125, 1.494873046875, 10.0, 1.0, 10.0, 1.465066909790039
24028, -1.3285102844238281, -3.7985689640045166, -0.026154406368732452, 0.0, 0.0, 24.561660766601562, 0.0, 0.0, 0.19073486328125, 0, 0, 0, 0, 0, 0, 9362.0, 30146.0, 35388.0, 9362.0, 7.933885097503662, 0.12015090137720108, 0.004365365952253342, 0.19435136020183563, -0.07993702590465546, -0.02834782563149929, 0.9997968077659607, -0.049655020236968994, 0.08584022521972656, 1.5029296875, 1.490478515625, 0.1768646240234375, 1.499267578125, 1.494873046875, 10.0, 1.0, 10.0, 1.4654814004898071
24038, -1.3316887617111206, -3.8047475814819336, -0.025282414630055428, 0.0, 0.0, 24.561660766601562, 0.0, 0.0, 0.19073486328125, 0, 0, 0, 0, 0, 0, 9362.0, 30146.0, 35388.0, 9362.0, 7.933885097503662, -0.12447493523359299, 0.1575964242219925, 0.04744476079940796, -0.07993702590465546, -0.02834782563149929, 0.9997968077659607, -0.049655020236968994, 0.08584022521972656, 1.5029296875, 1.467041015625, 0.1334686279296875, 1.499267578125, 1.494873046875, 10.0, 1.0, 10.0, 1.4654814004898071
24048, -1.3331995010375977, -3.806558132171631, -0.024165639653801918, 0.0, 0.0, 24.581544876098633, 0.0, 0.0, 0.9418487548828125, 0, 0, 0, 0, 0, 0, 9362.0, 30146.0, 35388.0, 9362.0, 7.933885097503662, -0.12447493523359299, 0.1575964242219925, 0.04744476079940796, -0.0778018981218338, -0.027892841026186943, 0.9950868487358093, -0.049655020236968994, 0.08584022521972656, 1.5029296875, 1.480224609375, 0.157379150390625, 1.49560546875, 1.494873046875, 10.0, 1.0, 10.0, 1.4655358791351318
24058, -1.3364043235778809, -3.8071517944335938, -0.02446921169757843, 0.0, 0.0, 24.58619499206543, 0.0, 0.0, 0.4650115966796875, 0, 0, 0, 0, 0, 0, 9362.0, 30146.0, 35388.0, 9362.0, 7.933885097503662, -0.12447493523359299, 0.1575964242219925, 0.04744476079940796, -0.07876745611429214, -0.0272047258913517, 0.9959511160850525, -0.049655020236968994, 0.08584022521972656, 1.5029296875, 1.480224609375, 0.157379150390625, 1.49560546875, 1.494873046875, 10.0, 1.0, 10.0, 1.4655873775482178
24068, -1.338876724243164, -3.805577278137207, -0.025946838781237602, 0.0, 0.0, 24.58619499206543, 0.0, 0.0, 0.4650115966796875, 0, 0, 0, 0, 0, 0, 9362.0, 30146.0, 35388.0, 9362.0, 7.933885097503662, -0.1638621687889099, -0.5823712348937988, -0.11669810861349106, -0.07876745611429214, -0.0272047258913517, 0.9959511160850525, -0.049655020236968994, 0.08584022521972656, 1.5029296875, 1.480224609375, 0.157379150390625, 1.49560546875, 1.494873046875, 10.0, 1.0, 10.0, 1.4655873775482178
24088, -1.342947244644165, -3.809502363204956, -0.027112990617752075, 0.0, 0.0, 24.5996150970459, 0.0, 0.0, 0.9235382080078125, 0, 0, 0, 0, 0, 0, 9362.0, 30146.0, 35388.0, 9362.0, 7.933885097503662, -0.07664325088262558, -0.08202796429395676, 0.09878508746623993, -0.07821931689977646, -0.028772428631782532, 0.9943491220474243, -0.049360547214746475, -0.03959846496582031, 1.49267578125, 1.505126953125, 0.205902099609375, 1.49560546875, 1.494873046875, 10.0, 1.0, 10.0, 1.4655873775482178
24098, -1.3455060720443726, -3.813167095184326, -0.02989356964826584, 0.0, 0.0, 24.613218307495117, 0.0, 0.0, 0.5292892456054688, 0, 0, 0, 0, 0, 0, 9362.0, 30146.0, 35388.0, 9362.0, 7.933885097503662, -0.07664325088262558, -0.08202796429395676, 0.09878508746623993, -0.07821931689977646, -0.028772428631782532, 0.9943491220474243, -0.049360547214746475, -0.03959846496582031, 1.49267578125, 1.481689453125, 0.1600799560546875, 1.49560546875, 1.494873046875, 10.0, 1.0, 10.0, 1.4660491943359375
24108, -1.3453327417373657, -3.8154056072235107, -0.032003454864025116, 0.0, 0.0, 24.613218307495117, 0.0, 0.0, 0.5292892456054688, 0, 0, 0, 0, 0, 0, 9362.0, 30146.0, 35388.0, 9362.0, 7.933885097503662, 0.20269016921520233, 0.05014417693018913, -0.2975185811519623, -0.07821931689977646, -0.028772428631782532, 0.9943491220474243, -0.049360547214746475, -0.03959846496582031, 1.49267578125, 1.483154296875, 0.162841796875, 1.496337890625, 1.494873046875, 10.0, 1.0, 10.0, 1.4660491943359375
24118, -1.345281720161438, -3.819828510284424, -0.032791320234537125, 0.0, 0.0, 24.62554931640625, 0.0, 0.0, 0.7568359375, 0, 0, 0, 0, 0, 0, 9362.0, 30146.0, 35388.0, 9362.0, 7.933885097503662, -0.20234499871730804, -0.31261762976646423, -0.1841999888420105, -0.07821931689977646, -0.028772428631782532, 0.9943491220474243, -0.049360547214746475, -0.03959846496582031, 1.49267578125, 1.496337890625, 0.1883087158203125, 1.496337890625, 1.494873046875, 10.0, 1.0, 10.0, 1.4660491943359375
24128, -1.3447976112365723, -3.826103925704956, -0.03373725712299347, 0.0, 0.0, 24.62554931640625, 0.0, 0.0, 0.7568359375, 0, 0, 0, 0, 0, 0, 9362.0, 30146.0, 35388.0, 9362.0, 7.933885097503662, -0.20234499871730804, -0.31261762976646423, -0.1841999888420105, -0.08011012524366379, -0.0262460857629776, 0.9968420267105103, -0.049360547214746475, -0.03959846496582031, 1.49267578125, 1.490478515625, 0.1768646240234375, 1.49560546875, 1.494873046875, 10.0, 1.0, 10.0, 1.4662880897521973
24138, -1.3440757989883423, -3.8320698738098145, -0.03576768562197685, 0.0, 0.0, 24.639583587646484, 0.0, 0.0, 0.7223129272460938, 0, 0, 0, 0, 0, 0, 9362.0, 30146.0, 35388.0, 9362.0, 7.933885097503662, 0.07510119676589966, 0.12101862579584122, -0.3219592273235321, -0.08011012524366379, -0.0262460857629776, 0.9968420267105103, -0.049360547214746475, -0.03959846496582031, 1.49267578125, 1.47802734375, 0.1532745361328125, 1.49560546875, 1.494873046875, 10.0, 1.0, 10.0, 1.4662880897521973
24148, -1.342889666557312, -3.834552526473999, -0.03885514661669731, 0.0, 0.0, 24.639583587646484, 0.0, 0.0, 0.7223129272460938, 0, 0, 0, 0, 0, 0, 9362.0, 30146.0, 35388.0, 9362.0, 7.933885097503662, 0.1766483038663864, 0.09446607530117035, -0.38957247138023376, -0.08011012524366379, -0.0262460857629776, 0.9968420267105103, -0.049360547214746475, -0.03959846496582031, 1.49267578125, 1.494873046875, 0.185455322265625, 1.4970703125, 1.494873046875, 10.0, 1.0, 10.0, 1.4662880897521973
24158, -1.3403435945510864, -3.8357839584350586, -0.040963076055049896, 0.0, 0.0, 24.64482879638672, 0.0, 0.0, -0.12569427490234375, 0, 0, 0, 0, 0, 0, 9362.0, 30146.0, 35388.0, 9362.0, 7.933885097503662, 0.23562490940093994, -0.020776793360710144, 0.15567490458488464, -0.08011012524366379, -0.0262460857629776, 0.9968420267105103, -0.049360547214746475, -0.03959846496582031, 1.49267578125, 1.49267578125, 0.1811065673828125, 1.4970703125, 1.494873046875, 10.0, 1.0, 10.0, 1.4662880897521973
24168, -1.339910626411438, -3.8360188007354736, -0.04319114610552788, 0.0, 0.0, 24.64482879638672, 0.0, 0.0, -0.12569427490234375, 0, 0, 0, 0, 0, 0, 9362.0, 30146.0, 35388.0, 9362.0, 7.933885097503662, 0.23562490940093994, -0.020776793360710144, 0.15567490458488464, -0.08011012524366379, -0.0262460857629776, 0.9968420267105103, -0.049360547214746475, -0.03959846496582031, 1.49267578125, 1.51318359375, 0.2224273681640625, 1.49560546875, 1.494873046875, 10.0, 1.0, 10.0, 1.4666650295257568
24178, -1.3390487432479858, -3.840890884399414, -0.04226437583565712, 0.0, 0.0, 24.646507263183594, 0.0, 0.0, 0.28095245361328125, 0, 0, 0, 0, 0, 0, 9362.0, 30146.0, 35388.0, 9362.0, 7.9140496253967285, 0.23562490940093994, -0.020776793360710144, 0.15567490458488464, -0.0784812644124031, -0.029053352773189545, 0.9963815212249756, -0.04189330339431763, -0.03959846496582031, 1.49267578125, 1.44140625, 0.0914459228515625, 1.49560546875, 1.494873046875, 10.0, 1.0, 10.0, 1.4666650295257568
24188, -1.3397934436798096, -3.8410184383392334, -0.0424003005027771, 0.0, 0.0, 24.64903450012207, 0.0, 0.0, 0.25272369384765625, 0, 0, 0, 0, 0, 0, 9362.0, 30146.0, 35388.0, 9362.0, 7.9140496253967285, 0.23562490940093994, -0.020776793360710144, 0.15567490458488464, -0.0784812644124031, -0.029053352773189545, 0.9963815212249756, -0.04189330339431763, -0.03959846496582031, 1.49267578125, 1.44140625, 0.0914459228515625, 1.49560546875, 1.494873046875, 10.0, 1.0, 10.0, 1.4666434526443481
24198, -1.3407522439956665, -3.8428163528442383, -0.04281112551689148, 0.0, 0.0, 24.6507625579834, 0.0, 0.0, 0.1728057861328125, 0, 0, 0, 0, 0, 0, 9362.0, 30146.0, 35388.0, 9362.0, 7.9140496253967285, 0.23562490940093994, -0.020776793360710144, 0.15567490458488464, -0.07754659652709961, -0.028084177523851395, 0.9966535568237305, -0.04189330339431763, -0.03959846496582031, 1.49267578125, 1.475830078125, 0.1492767333984375, 1.49560546875, 1.494873046875, 10.0, 1.0, 10.0, 1.4666739702224731
24208, -1.3415859937667847, -3.8455309867858887, -0.04346747323870659, 0.0, 0.0, 24.6507625579834, 0.0, 0.0, 0.1728057861328125, 0, 0, 0, 0, 0, 0, 9362.0, 30146.0, 35388.0, 9362.0, 7.9140496253967285, -0.1059526801109314, 0.16170184314250946, -0.040789078921079636, -0.07754659652709961, -0.028084177523851395, 0.9966535568237305, -0.04189330339431763, -0.03959846496582031, 1.49267578125, 1.45751953125, 0.117095947265625, 1.49560546875, 1.494873046875, 10.0, 1.0, 10.0, 1.4666739702224731
24228, -1.342337965965271, -3.8471014499664307, -0.043274667114019394, 0.0, 0.0, 24.66192054748535, 0.0, 0.0, 0.9601593017578125, 0, 0, 0, 0, 0, 0, 9362.0, 30146.0, 35388.0, 9362.0, 7.9140496253967285, -0.1059526801109314, 0.16170184314250946, -0.040789078921079636, -0.07905621081590652, -0.026790140196681023, 0.9930124282836914, -0.04189330339431763, -0.03959846496582031, 1.49267578125, 1.46923828125, 0.137359619140625, 1.49560546875, 1.494873046875, 10.0, 1.0, 10.0, 1.4667069911956787
24238, -1.3452847003936768, -3.8515002727508545, -0.041134219616651535, 0.0, 0.0, 24.679981231689453, 0.0, 0.0, 0.9418487548828125, 0, 0, 0, 0, 0, 0, 9362.0, 30146.0, 35388.0, 9362.0, 7.9140496253967285, -0.11347246915102005, 0.19254601001739502, 0.2309165596961975, -0.07905621081590652, -0.026790140196681023, 0.9930124282836914, -0.04189330339431763, -0.03959846496582031, 1.49267578125, 1.46923828125, 0.137359619140625, 1.49560546875, 1.494873046875, 10.0, 1.0, 10.0, 1.4667069911956787
