timeTick, roll, pitch, yaw, stateX, stateY, stateZ, stateVX, stateVY, stateVZ, otX0, otY0, otZ0, otRoll0, otPitch0, otYaw0, left wing, pitch motor, yaw motor, right wing, voltage, roll rate, pitch rate, yaw rate, A_x, A_y, A_z, current, i_raw, v_raw, airflow_voltage, airflow_speed, pot_Pitch, voltage_nKF, kFFx, state, State, volt_KF
27562, 1.328152060508728, -11.342034339904785, 7.733956813812256, 0, 0, 0, 0, 0, 0, -0.8280318379402161, -0.9845789074897766, 0.058054521679878235, 0.4042592295417912, 0.0097808672008739, 8.633660765906697, 0, 0, 0, 0, 0, 0, 0, 0, 0, 0, 0, 0, 0, 0, 0, 0, 0, 0, 0, 0, 0, 0
27572, 1.3271126747131348, -11.343175888061523, 7.7370476722717285, -0.00766227301210165, -0.00013538519851863384, -18.654436111450195, -0.22634722292423248, -0.004002024885267019, -1.4156770706176758, -0.8280314803123474, -0.9845837354660034, 0.05806432291865349, 0.40812382086580723, 0.010539494187952414, 8.642542078524034, 9362.0, 30146.0, 35388.0, 9362.0, 0, -0.08606604486703873, 0.35053205490112305, 0.0019138113129884005, -0.09085540473461151, -0.021759221330285072, 0.9952561259269714, 0, 0, 0, 0, 0, 0, 0, 0, 0, 0, 0
27582, 1.3268619775772095, -11.34560775756836, 7.73769998550415, -0.009829078800976276, -0.0001737005077302456, -18.668603897094727, -0.20701396465301514, -0.003659972921013832, -1.4180395603179932, -0.8280149102210999, -0.9846246838569641, 0.058063805103302, 0.39394077345306167, 0.01339608197199027, 8.666892247942164, 9362.0, 30146.0, 35388.0, 9362.0, 0, 0.18529582023620605, 0.23968252539634705, -0.23380884528160095, -0.08986830711364746, -0.021818101406097412, 0.9954171180725098, 0, 0, 0, 1.382080078125, 0.0256195068359375, 0, 1.390869140625, 0, 0, 0, 0
27592, 1.3269702196121216, -11.346258163452148, 7.7364702224731445, -0.011802583001554012, -0.00020858072093687952, -18.682796478271484, -0.18768708407878876, -0.0033158587757498026, -1.4204421043395996, -0.8280470371246338, -0.9846833944320679, 0.05808703973889351, 0.39878742635147896, -0.011298053519283258, 8.719302624251926, 9362.0, 30146.0, 35388.0, 9362.0, 0, 0.08617612719535828, 0.1822570264339447, -0.11659657210111618, -0.08863591402769089, -0.021165382117033005, 0.9933775067329407, 0, 0, 0, 1.393798828125, 0.0344085693359375, 1.493408203125, 1.390869140625, 10.0, 1.0, 10.0, 1.3868378400802612
27602, 1.3270751237869263, -11.347275733947754, 7.735256195068359, -0.013582766056060791, -0.00024001325073186308, -18.697011947631836, -0.16834963858127594, -0.002971070120111108, -1.422812819480896, -0.8280289173126221, -0.9845830202102661, 0.058071840554475784, 0.4064895127026268, 0.01305003935343052, 8.637845893169176, 9362.0, 30146.0, 35388.0, 9362.0, 0, -0.12616366147994995, -0.00293177948333323, -0.04881785809993744, -0.09161876142024994, -0.023685794323682785, 0.9954093098640442, 0, 0, 0, 1.420166015625, 0.0621337890625, 1.493408203125, 1.361572265625, 10.0, 1.0, 10.0, 1.3868505954742432
27612, 1.3251534700393677, -11.347265243530273, 7.735119819641113, -0.015169758349657059, -0.0002680035540834069, -18.711252212524414, -0.14904892444610596, -0.002627408364787698, -1.4253712892532349, -0.8280172944068909, -0.9845683574676514, 0.05806063488125801, 0.4085683389145024, 0.011892628384458703, 8.63367990760795, 9362.0, 30146.0, 35388.0, 9362.0, 0, 0.34462010860443115, 0.149651899933815, 0.23250442743301392, -0.0905866026878357, -0.02391769364476204, 0.9959049224853516, 0, 0, 0, 1.396728515625, 0.0370025634765625, 1.48974609375, 1.37255859375, 10.0, 1.0, 10.0, 1.3867707252502441
27622, 1.3269168138504028, -11.347660064697266, 7.736525058746338, -0.01656358875334263, -0.0002925564185716212, -18.72551727294922, -0.12971732020378113, -0.0022831615060567856, -1.42778480052948, -0.82802814245224, -0.9845839738845825, 0.0580763965845108, 0.40483768784289803, 0.018861019509927246, 8.640960855428295, 9362.0, 30146.0, 35388.0, 9362.0, 0, -0.13010357320308685, 0.29111483693122864, 0.06388255953788757, -0.08859642595052719, -0.025176839902997017, 0.9948548078536987, 0, 0, 0, 1.405517578125, 0.0454254150390625, 1.48974609375, 1.399658203125, 10.0, 1.0, 10.0, 1.386725902557373
27632, 1.3265228271484375, -11.350029945373535, 7.737537384033203, -0.017764054238796234, -0.00031364988535642624, -18.73980712890625, -0.11037581413984299, -0.0019351091468706727, -1.430147647857666, -0.8280236721038818, -0.9846305251121521, 0.058035217225551605, 0.38840042658623153, 0.016062936945814954, 8.663642023017484, 9362.0, 30146.0, 35388.0, 9362.0, 0, 0.05266889929771423, -0.11238978803157806, 0.15281645953655243, -0.09232452511787415, -0.024387696757912636, 0.9959110021591187, 0, 0, 0, 1.39599609375, 0.0362701416015625, 1.48974609375, 1.365966796875, 10.0, 1.0, 10.0, 1.386766791343689
27642, 1.3271034955978394, -11.350719451904297, 7.73925256729126, -0.018771130591630936, -0.0003312754852231592, -18.754119873046875, -0.09103958308696747, -0.0015896725235506892, -1.432542085647583, -0.8280239701271057, -0.9845685958862305, 0.058077357709407806, 0.40450804747049823, 0.014571538244751991, 8.64057955885639, 9362.0, 30146.0, 35388.0, 9362.0, 0, -0.17032040655612946, -0.2605885863304138, -0.04441775754094124, -0.09040409326553345, -0.022458504885435104, 0.9964373111724854, 0, 0, 0, 1.40478515625, 0.0446624755859375, 1.48974609375, 1.376953125, 10.0, 1.0, 10.0, 1.3867011070251465
27652, 1.3267992734909058, -11.350430488586426, 7.7400665283203125, -0.019584767520427704, -0.00034543799120001495, -18.768457412719727, -0.0716879740357399, -0.0012422646395862103, -1.434880018234253, -0.8280299305915833, -0.9845796823501587, 0.05804384499788284, 0.4051245928656757, 0.017048926097800177, 8.633649075518663, 9362.0, 30146.0, 35388.0, 9362.0, 0, -0.025648415088653564, -0.12243637442588806, 0.25058844685554504, -0.09030038863420486, -0.0231118556112051, 0.9949209690093994, 0, 0, 0, 1.388671875, 0.03033447265625, 1.49560546875, 1.358642578125, 10.0, 1.0, 10.0, 1.3866703510284424
27662, 1.327239990234375, -11.349809646606445, 7.74147367477417, -0.020204804837703705, -0.0003561262565199286, -18.782817840576172, -0.05231965705752373, -0.000895105127710849, -1.4371415376663208, -0.8280468583106995, -0.984686017036438, 0.058086276054382324, 0.39004601914471637, -0.006397617918878495, 8.711168941283843, 9362.0, 30146.0, 35388.0, 9362.0, 8.152067184448242, 0.06440593302249908, -0.10958582907915115, -0.1461525708436966, -0.09005746990442276, -0.021377714350819588, 0.9965842962265015, -0.06944367289543152, -0.11127853393554688, 1.48681640625, 1.3681640625, 0.0185394287109375, 1.49560546875, 1.361572265625, 10.0, 1.0, 10.0, 1.3865818977355957
27672, 1.327480673789978, -11.34875774383545, 7.739575386047363, -0.020631317049264908, -0.0003633420856203884, -18.79720115661621, -0.03298260644078255, -0.0005475919460877776, -1.4395549297332764, -0.8280524611473083, -0.9846922159194946, 0.05807208642363548, 0.391013411524347, -0.0013962273628749244, 8.714039978084859, 9362.0, 30146.0, 35388.0, 9362.0, 8.152067184448242, -0.09915275871753693, -0.3468332588672638, 0.020670387893915176, -0.08950960636138916, -0.020272353664040565, 0.9989175796508789, -0.06944367289543152, -0.11127853393554688, 1.48681640625, 1.3916015625, 0.0325927734375, 1.49267578125, 1.377685546875, 10.0, 1.0, 10.0, 1.386502981185913
27682, 1.3269225358963013, -11.347585678100586, 7.739821434020996, -0.020864341408014297, -0.0003670826554298401, -18.811607360839844, -0.013622162863612175, -0.0002011635951930657, -1.4418479204177856, -0.8280154466629028, -0.984623372554779, 0.058059532195329666, 0.3906123470968977, 0.021228099671390055, 8.66718350313376, 9362.0, 30146.0, 35388.0, 9362.0, 8.152067184448242, 0.09225009381771088, 0.010631087236106396, 0.30847036838531494, -0.09046823531389236, -0.021971536800265312, 0.9978952407836914, -0.06944367289543152, -0.11127853393554688, 1.48681640625, 1.3740234375, 0.0210723876953125, 1.49267578125, 1.412841796875, 10.0, 1.0, 10.0, 1.3864750862121582
27692, 1.3277511596679688, -11.347853660583496, 7.742592811584473, -0.020903561264276505, -0.0003673616156447679, -18.82603645324707, 0.005778325721621513, 0.00014547412865795195, -1.4439336061477661, -0.8280330300331116, -0.9846833348274231, 0.05805957689881325, 0.4206777358187456, 0.03152060694839065, 8.668115452742722, 9362.0, 30146.0, 35388.0, 9362.0, 8.152067184448242, 0.15520675480365753, 0.14485220611095428, 0.16614122688770294, -0.0899810791015625, -0.023419305682182312, 0.9964349865913391, -0.06944367289543152, -0.11127853393554688, 1.48681640625, 1.36376953125, 0.017181396484375, 1.49267578125, 1.34033203125, 10.0, 1.0, 10.0, 1.3865582942962646
27702, 1.3289164304733276, -11.349148750305176, 7.744449615478516, -0.020748848095536232, -0.0003641714865807444, -18.840486526489258, 0.025164153426885605, 0.0004934618482366204, -1.446081280708313, -0.8280537128448486, -0.9845659732818604, 0.05800573527812958, 0.39970762329015386, 0.03753542469610238, 8.62308418415357, 9362.0, 30146.0, 35388.0, 9362.0, 8.152067184448242, -0.16844280064105988, 0.3402934968471527, -0.10855451971292496, -0.09184706956148148, -0.023511424660682678, 0.9967021346092224, -0.06944367289543152, -0.11127853393554688, 1.48681640625, 1.401123046875, 0.041015625, 1.49267578125, 1.40478515625, 10.0, 1.0, 10.0, 1.3864123821258545
27712, 1.3276594877243042, -11.35140323638916, 7.744560718536377, -0.020400395616889, -0.0003575056616682559, -18.85495948791504, 0.044526297599077225, 0.0008402813691645861, -1.4483498334884644, -0.8280752897262573, -0.9845404624938965, 0.0578867606818676, 0.43372178955031343, 0.08494396215107258, 8.596695829310026, 9362.0, 30146.0, 35388.0, 9362.0, 8.152067184448242, 0.056992847472429276, 0.18358369171619415, 0.19586199522018433, -0.09142231941223145, -0.02115360088646412, 0.9950994253158569, -0.06944367289543152, -0.11127853393554688, 1.48681640625, 1.39306640625, 0.0337982177734375, 1.4970703125, 1.376953125, 10.0, 1.0, 10.0, 1.3864704370498657
27722, 1.3284122943878174, -11.352547645568848, 7.746504783630371, -0.01985829696059227, -0.00034737668465822935, -18.86945343017578, 0.06389349699020386, 0.0011855815537273884, -1.4506056308746338, -0.828088104724884, -0.9845744371414185, 0.05785524100065231, 0.4010782335572808, 0.09907530070026382, 8.628958711212102, 9362.0, 30146.0, 35388.0, 9362.0, 8.152067184448242, -0.30055350065231323, 0.055960625410079956, 0.16024792194366455, -0.09138686209917068, -0.02271859347820282, 0.997167706489563, -0.06944367289543152, -0.11127853393554688, 1.48681640625, 1.393798828125, 0.0344085693359375, 1.4970703125, 1.39599609375, 10.0, 1.0, 10.0, 1.386440396308899
27732, 1.3265799283981323, -11.353110313415527, 7.746999263763428, -0.019122634083032608, -0.00033378362422809005, -18.88397216796875, 0.08323891460895538, 0.0015336599899455905, -1.4529868364334106, -0.828120231628418, -0.9845496416091919, 0.05785488709807396, 0.4187429017873514, 0.09351749006754062, 8.603593053808758, 9362.0, 30146.0, 35388.0, 9362.0, 8.152067184448242, 0.19778911769390106, 0.3688935339450836, 0.07541389763355255, -0.09272707998752594, -0.021620742976665497, 0.9955490231513977, -0.06944367289543152, -0.11127853393554688, 1.48681640625, 1.3447265625, 0.0158538818359375, 1.49267578125, 1.41357421875, 10.0, 1.0, 10.0, 1.3864705562591553
27742, 1.3277262449264526, -11.355340003967285, 7.74737548828125, -0.018193384632468224, -0.00031670936732552946, -18.898513793945312, 0.10261113196611404, 0.0018814149079844356, -1.4552462100982666, -0.8281006813049316, -0.9845234155654907, 0.0578535832464695, 0.413961004058335, 0.09038806530904253, 8.59983173191161, 9362.0, 30146.0, 35388.0, 9362.0, 8.152067184448242, 0.11783745139837265, -0.1149103194475174, -0.2877679169178009, -0.0945546105504036, -0.02023938111960888, 0.9962210655212402, -0.06944367289543152, -0.11127853393554688, 1.48681640625, 1.37841796875, 0.023406982421875, 1.49267578125, 1.399658203125, 10.0, 1.0, 10.0, 1.3865561485290527
27752, 1.3276349306106567, -11.354116439819336, 7.745659351348877, -0.0170704685151577, -0.0002961416612379253, -18.91307830810547, 0.12197185307741165, 0.0022322179283946753, -1.457565426826477, -0.8281078934669495, -0.9845038056373596, 0.057815857231616974, 0.4091764995808701, 0.10881331128123861, 8.586661813324916, 9362.0, 30146.0, 35388.0, 9362.0, 8.152067184448242, -0.07043153792619705, 0.01823336072266102, -0.09238728880882263, -0.09227298945188522, -0.02119319885969162, 0.998610258102417, -0.06944367289543152, -0.11127853393554688, 1.48681640625, 1.38427734375, 0.027099609375, 1.4970703125, 1.36083984375, 10.0, 1.0, 10.0, 1.3865975141525269
27762, 1.3267714977264404, -11.354826927185059, 7.7454304695129395, -0.015753963962197304, -0.00027207317180000246, -18.92766571044922, 0.14132896065711975, 0.002580914180725813, -1.4599220752716064, -0.8281006217002869, -0.9845236539840698, 0.057845763862133026, 0.4131032381654586, 0.09835088444805251, 8.597909911298771, 9362.0, 30146.0, 35388.0, 9362.0, 8.152067184448242, 0.19881150126457214, 0.08994725346565247, -0.006206922698765993, -0.09041254967451096, -0.023710841313004494, 0.9978113770484924, -0.07445794343948364, -0.030637741088867188, 1.493408203125, 1.345458984375, 0.0156707763671875, 1.4970703125, 1.411376953125, 10.0, 1.0, 10.0, 1.3865162134170532
27772, 1.3280611038208008, -11.356188774108887, 7.74578332901001, -0.014243682846426964, -0.0002445173158776015, -18.942276000976562, 0.16072729229927063, 0.002930206013843417, -1.4620646238327026, -0.8281182646751404, -0.9845091104507446, 0.05782099440693855, 0.4137019870436401, 0.09412570517361019, 8.592620139751393, 9362.0, 30146.0, 35388.0, 9362.0, 8.152067184448242, -0.22311057150363922, -0.07297582179307938, 0.10540136694908142, -0.08951792865991592, -0.02331352047622204, 0.9966901540756226, -0.07445794343948364, -0.030637741088867188, 1.493408203125, 1.37548828125, 0.021820068359375, 1.490478515625, 1.39599609375, 10.0, 1.0, 10.0, 1.3865946531295776
27782, 1.3273576498031616, -11.35547161102295, 7.746423721313477, -0.012539434246718884, -0.00021346118592191488, -18.956907272338867, 0.18012240529060364, 0.00328108505345881, -1.4642282724380493, -0.8281103372573853, -0.9845138192176819, 0.057847168296575546, 0.4099087294458947, 0.09722369916900675, 8.599167277618136, 9362.0, 30146.0, 35388.0, 9362.0, 8.152067184448242, -0.03320467844605446, 0.12400490790605545, 0.0010270655620843172, -0.08911807090044022, -0.023752305656671524, 0.9970486164093018, -0.07445794343948364, -0.030637741088867188, 1.493408203125, 1.41064453125, 0.0509490966796875, 1.490478515625, 1.39599609375, 10.0, 1.0, 10.0, 1.3866243362426758
27792, 1.3269785642623901, -11.356197357177734, 7.746401309967041, -0.010641315951943398, -0.00017890676099341363, -18.971561431884766, 0.19950126111507416, 0.0036300497595220804, -1.4664852619171143, -0.8281120657920837, -0.9845075607299805, 0.057846926152706146, 0.4106673454897881, 0.09977888095804133, 8.592547488451997, 9362.0, 30146.0, 35388.0, 9362.0, 8.152067184448242, -0.3350823223590851, 0.1152680441737175, -0.01019247341901064, -0.08950745314359665, -0.025428324937820435, 0.9966387152671814, -0.07445794343948364, -0.030637741088867188, 1.493408203125, 1.39306640625, 0.0337982177734375, 1.502197265625, 1.376220703125, 10.0, 1.0, 10.0, 1.3866539001464844
27802, 1.3248399496078491, -11.35735034942627, 7.746368885040283, -0.008549370802938938, -0.00014085564180277288, -18.986236572265625, 0.21888776123523712, 0.003980174660682678, -1.4686976671218872, -0.8281018733978271, -0.9845036864280701, 0.05786023288965225, 0.411662618140608, 0.10434254204113813, 8.593500257598588, 9362.0, 30146.0, 35388.0, 9362.0, 8.152067184448242, -0.06803406029939651, 0.3420170843601227, 0.16856427490711212, -0.09053501486778259, -0.022805912420153618, 0.996968686580658, -0.07445794343948364, -0.030637741088867188, 1.493408203125, 1.390869140625, 0.0319671630859375, 1.502197265625, 1.38427734375, 10.0, 1.0, 10.0, 1.3866209983825684
27812, 1.3254865407943726, -11.36118221282959, 7.747873306274414, -0.006263588555157185, -9.929985390044749e-05, -19.000934600830078, 0.23826856911182404, 0.004331022966653109, -1.470943570137024, -0.8281152248382568, -0.9845083951950073, 0.057845741510391235, 0.4106151750465662, 0.09799976888777451, 8.601376945042508, 9362.0, 30146.0, 35388.0, 9362.0, 8.152067184448242, -0.07093486189842224, -0.09227601438760757, -0.12978996336460114, -0.09049464017152786, -0.022020837292075157, 0.9980382919311523, -0.07445794343948364, -0.030637741088867188, 1.493408203125, 1.389404296875, 0.03082275390625, 1.490478515625, 1.400390625, 10.0, 1.0, 10.0, 1.3866136074066162
27822, 1.3247359991073608, -11.362268447875977, 7.74693489074707, -0.0037839922588318586, -5.4216339776758105e-05, -19.015655517578125, 0.2576506733894348, 0.004686159081757069, -1.473191499710083, -0.8281148672103882, -0.9845074415206909, 0.057856567203998566, 0.41102442142126827, 0.09786485858677452, 8.602669219602374, 9362.0, 30146.0, 35388.0, 9362.0, 8.152067184448242, 0.0833296999335289, -0.05332021787762642, -0.019073791801929474, -0.08880006521940231, -0.0232715904712677, 0.9951896667480469, -0.07445794343948364, -0.030637741088867188, 1.493408203125, 1.36376953125, 0.017181396484375, 1.490478515625, 1.34619140625, 10.0, 1.0, 10.0, 1.3866571187973022
27832, 1.323602557182312, -11.361392974853516, 7.745710849761963, -0.0011104193981736898, -5.5777600209694356e-06, -19.030397415161133, 0.27706378698349, 0.005041242577135563, -1.4753187894821167, -0.8281122446060181, -0.9844964146614075, 0.05784585326910019, 0.4124244882316634, 0.10280626909192847, 8.602648358477236, 9362.0, 30146.0, 35388.0, 9362.0, 8.152067184448242, 0.025542473420500755, 0.28472843766212463, -0.20914803445339203, -0.0891055092215538, -0.023551449179649353, 0.9935049414634705, -0.07445794343948364, -0.030637741088867188, 1.493408203125, 1.40185546875, 0.0417938232421875, 1.49267578125, 1.332275390625, 10.0, 1.0, 10.0, 1.3865293264389038
27842, 1.3241347074508667, -11.362154960632324, 7.743699073791504, 0.001757048536092043, 4.661310958908871e-05, -19.045162200927734, 0.296429842710495, 0.00539656775072217, -1.4776872396469116, -0.8281123042106628, -0.9845083355903625, 0.05785747990012169, 0.40994585585543714, 0.09972918317043877, 8.596213611175674, 9362.0, 30146.0, 35388.0, 9362.0, 8.152067184448242, 0.11042322218418121, 0.058783046901226044, 0.007745650596916676, -0.087640181183815, -0.020771455019712448, 0.9950054287910461, -0.07445794343948364, -0.030637741088867188, 1.493408203125, 1.37841796875, 0.023406982421875, 1.49267578125, 1.3447265625, 10.0, 1.0, 10.0, 1.3863580226898193
27852, 1.3250404596328735, -11.362908363342285, 7.742956638336182, 0.004818032030016184, 0.00010236132948193699, -19.059951782226562, 0.3157667815685272, 0.005752363707870245, -1.480190634727478, -0.8281182646751404, -0.9845030307769775, 0.057853471487760544, 0.4035927160081497, 0.09538842431550165, 8.599781050101194, 9362.0, 30146.0, 35388.0, 9362.0, 8.152067184448242, 0.08210242539644241, -0.05828280746936798, -0.32558104395866394, -0.09034030884504318, -0.021411102265119553, 0.996127724647522, -0.07445794343948364, -0.030637741088867188, 1.493408203125, 1.373291015625, 0.0207366943359375, 1.497802734375, 1.392333984375, 10.0, 1.0, 10.0, 1.3862265348434448
27862, 1.3250378370285034, -11.362422943115234, 7.741325855255127, 0.008072473108768463, 0.0001616619119886309, -19.074766159057617, 0.33512142300605774, 0.006107474211603403, -1.482614278793335, -0.828107476234436, -0.9845027327537537, 0.05786346271634102, 0.41602093863724116, 0.09807761121717817, 8.596819606328639, 9362.0, 30146.0, 35388.0, 9362.0, 8.152067184448242, 0.09018994867801666, 0.2006455957889557, -0.14850032329559326, -0.09248906373977661, -0.019978193566203117, 0.9987081289291382, -0.041543055325746536, -0.01271820068359375, 1.494873046875, 1.379150390625, 0.0238189697265625, 1.497802734375, 1.385009765625, 10.0, 1.0, 10.0, 1.386245846748352
27872, 1.3248050212860107, -11.362211227416992, 7.740477085113525, 0.011520524509251118, 0.00022450658434536308, -19.089603424072266, 0.3544888496398926, 0.006460930220782757, -1.4849814176559448, -0.828113317489624, -0.984501302242279, 0.05785348638892174, 0.41193864311187345, 0.09570724617319115, 8.593844757217246, 9362.0, 30146.0, 35388.0, 9362.0, 8.152067184448242, 0.25396013259887695, 0.1419999599456787, 0.13226358592510223, -0.09370177984237671, -0.020819813013076782, 0.999241054058075, -0.041543055325746536, -0.01271820068359375, 1.494873046875, 1.39306640625, 0.0337982177734375, 1.493408203125, 1.405517578125, 10.0, 1.0, 10.0, 1.3862419128417969
27912, 1.3261525630950928, -11.361321449279785, 7.741578578948975, 0.027253156527876854, 0.0005112075014039874, -19.149171829223633, 0.4320986568927765, 0.007869872264564037, -1.4937297105789185, -0.8281235694885254, -0.9844975471496582, 0.05786033347249031, 0.41546771323107357, 0.092659187045939, 8.598829706740522, 9362.0, 30146.0, 35388.0, 9362.0, 8.152067184448242, -0.1168927401304245, 0.15346203744411469, 0.19537928700447083, -0.09259777516126633, -0.02444498799741268, 0.9959489107131958, -0.041543055325746536, -0.01271820068359375, 1.494873046875, 1.38134765625, 0.025177001953125, 1.4970703125, 1.39306640625, 10.0, 1.0, 10.0, 1.3862419128417969
27942, 1.3271701335906982, -11.359299659729004, 7.742956638336182, 0.027253156527876854, 0.0005112075014039874, -19.149171829223633, 0.4320986568927765, 0.007869872264564037, -1.4937297105789185, -0.8281118273735046, -0.984498143196106, 0.057860005646944046, 0.4104347133486234, 0.0989553504701064, 8.592365886036394, 9362.0, 30146.0, 35388.0, 9362.0, 8.152067184448242, 0.06685765087604523, 0.14505702257156372, 0.08935327082872391, -0.09035123884677887, -0.019576039165258408, 0.9948729276657104, -0.041543055325746536, -0.01271820068359375, 1.494873046875, 1.3623046875, 0.0167999267578125, 1.49560546875, 1.41943359375, 10.0, 1.0, 10.0, 1.3862419128417969
27962, 1.3286464214324951, -11.358757019042969, 7.741795539855957, 0.046086281538009644, 0.0008541031857021153, -19.209110260009766, 0.5095034837722778, 0.00927391555160284, -1.5034509897232056, -0.8281128406524658, -0.98448646068573, 0.057851072400808334, 0.41277462508671137, 0.09254489980327207, 8.604095677528713, 9362.0, 30146.0, 35388.0, 9362.0, 8.152067184448242, 0.14842428267002106, 0.029308300465345383, -0.279205858707428, -0.09035123884677887, -0.019576039165258408, 0.9948729276657104, -0.041543055325746536, -0.01271820068359375, 1.494873046875, 1.37841796875, 0.023406982421875, 1.49560546875, 1.41943359375, 10.0, 1.0, 10.0, 1.3862419128417969
28022, 1.327026128768921, -11.356780052185059, 7.74211311340332, 0.0680159255862236, 0.0012529157102108002, -19.26943588256836, 0.5870307087898254, 0.010663596913218498, -1.5125137567520142, -0.8281080722808838, -0.9845145344734192, 0.05786648392677307, 0.4089667602904266, 0.09433461307762059, 8.594172991933668, 9362.0, 30146.0, 35388.0, 9362.0, 8.152067184448242, 0.011382310651242733, 0.07827187329530716, 0.10638673603534698, -0.08855075389146805, -0.020883746445178986, 0.9979338049888611, -0.041543055325746536, -0.01271820068359375, 1.494873046875, 1.35791015625, 0.015869140625, 1.49267578125, 1.40478515625, 10.0, 1.0, 10.0, 1.3862419128417969
28032, 1.3268680572509766, -11.357324600219727, 7.742660045623779, 0.09304647892713547, 0.0017072687624022365, -19.330121994018555, 0.6645455956459045, 0.0120572280138731, -1.521571159362793, -0.8281156420707703, -0.9845220446586609, 0.05785847082734108, 0.41186886406015866, 0.09989539338283748, 8.59835627389524, 9362.0, 30146.0, 35388.0, 9362.0, 8.152067184448242, -0.02484266832470894, -0.08098270744085312, -0.10974244028329849, -0.08855075389146805, -0.020883746445178986, 0.9979338049888611, -0.041543055325746536, -0.01271820068359375, 1.494873046875, 1.35791015625, 0.015869140625, 1.494140625, 1.3623046875, 10.0, 1.0, 10.0, 1.3862419128417969
28042, 1.3263139724731445, -11.356232643127441, 7.742209434509277, 0.09304647892713547, 0.0017072687624022365, -19.330121994018555, 0.6645455956459045, 0.0120572280138731, -1.521571159362793, -0.8281124830245972, -0.984513521194458, 0.05784723162651062, 0.4143519621182763, 0.09691051636829684, 8.593438372095608, 9362.0, 30146.0, 35388.0, 9362.0, 8.152067184448242, 0.030200820416212082, 0.4545217454433441, 0.19640159606933594, -0.08855075389146805, -0.020883746445178986, 0.9979338049888611, -0.041543055325746536, -0.01271820068359375, 1.494873046875, 1.35791015625, 0.015869140625, 1.494140625, 1.3623046875, 10.0, 1.0, 10.0, 1.3862419128417969
28122, 1.3263391256332397, -11.365303993225098, 7.745381832122803, 0.1211792379617691, 0.0022175684571266174, -19.391164779663086, 0.7420944571495056, 0.013459444977343082, -1.5304814577102661, -0.828106164932251, -0.9845091104507446, 0.0578710213303566, 0.4143399693204579, 0.0910938496970175, 8.59539731800806, 9362.0, 30146.0, 35388.0, 9362.0, 8.152067184448242, 0.07121049612760544, -0.04711247980594635, -0.07757652550935745, -0.08879996091127396, -0.02053731493651867, 0.9954965710639954, -0.06560717523097992, 0.04104042053222656, 1.499267578125, 1.38134765625, 0.025177001953125, 1.493408203125, 1.401123046875, 10.0, 1.0, 10.0, 1.3862419128417969
28132, 1.3271650075912476, -11.363714218139648, 7.744839668273926, 0.16919218003749847, 0.0030890307389199734, -19.483415603637695, 0.8583666086196899, 0.015588568523526192, -1.5444101095199585, -0.8281110525131226, -0.9845079779624939, 0.057863786816596985, 0.4078272360028666, 0.09467133018986829, 8.59614302330845, 9362.0, 30146.0, 35388.0, 9362.0, 8.152067184448242, 0.048560626804828644, 0.39968177676200867, -0.03946566954255104, -0.08879996091127396, -0.02053731493651867, 0.9954965710639954, -0.06560717523097992, 0.04104042053222656, 1.499267578125, 1.38134765625, 0.025177001953125, 1.493408203125, 1.401123046875, 10.0, 1.0, 10.0, 1.3862419128417969
28162, 1.3267337083816528, -11.366658210754395, 7.744382381439209, 0.1778726577758789, 0.003246681299060583, -19.498870849609375, 0.877728283405304, 0.015941359102725983, -1.5468274354934692, -0.8281131386756897, -0.9845050573348999, 0.05785505473613739, 0.41443091511792846, 0.09441535968440462, 8.606018724089504, 9362.0, 30146.0, 35388.0, 9362.0, 8.152067184448242, 0.02536887675523758, -0.035923171788454056, -0.08645913749933243, -0.09033913165330887, -0.022562941536307335, 0.9943618178367615, -0.06560717523097992, 0.04104042053222656, 1.499267578125, 1.361572265625, 0.016571044921875, 1.493408203125, 1.36376953125, 10.0, 1.0, 10.0, 1.3862419128417969
28182, 1.3274080753326416, -11.370959281921387, 7.743712902069092, 0.1778726577758789, 0.003246681299060583, -19.498870849609375, 0.877728283405304, 0.015941359102725983, -1.5468274354934692, -0.8281130790710449, -0.9845256805419922, 0.0578371100127697, 0.4127957284994352, 0.09657933508799488, 8.598294905069542, 9362.0, 30146.0, 35388.0, 9362.0, 8.152067184448242, 0.01193111203610897, 0.46349993348121643, 0.24703724682331085, -0.09114791452884674, -0.02033386006951332, 0.9955414533615112, -0.06560717523097992, 0.04104042053222656, 1.499267578125, 1.36376953125, 0.017181396484375, 1.493408203125, 1.36376953125, 10.0, 1.0, 10.0, 1.3862419128417969
28202, 1.3290046453475952, -11.377952575683594, 7.747655391693115, 0.23402634263038635, 0.004266492091119289, -19.59209442138672, 0.9939996600151062, 0.01805281825363636, -1.5609371662139893, -0.8281126022338867, -0.9845120906829834, 0.05786069110035896, 0.41883979997403803, 0.09815076477838147, 8.590866824675889, 9362.0, 30146.0, 35388.0, 9362.0, 8.152067184448242, -0.11498253792524338, -0.11761707067489624, -0.14706172049045563, -0.0918627455830574, -0.021726632490754128, 0.9962174296379089, -0.06560717523097992, 0.04104042053222656, 1.499267578125, 1.37109375, 0.0197906494140625, 1.49560546875, 1.37841796875, 10.0, 1.0, 10.0, 1.3862419128417969
28232, 1.3288284540176392, -11.379966735839844, 7.747691631317139, 0.24406330287456512, 0.004448783118277788, -19.607715606689453, 1.0133928060531616, 0.018405426293611526, -1.5632824897766113, -0.8281136751174927, -0.9845144152641296, 0.05786196514964104, 0.4213482027368889, 0.10322740817744602, 8.594207034593726, 9362.0, 30146.0, 35388.0, 9362.0, 8.152067184448242, 0.2303846925497055, 0.24808169901371002, -0.30841517448425293, -0.0932765081524849, -0.022056564688682556, 0.9962631464004517, -0.06560717523097992, 0.04104042053222656, 1.499267578125, 1.365234375, 0.0175933837890625, 1.49560546875, 1.380615234375, 10.0, 1.0, 10.0, 1.3862419128417969
28252, 1.3297054767608643, -11.38379192352295, 7.746987342834473, 0.24406330287456512, 0.004448783118277788, -19.607715606689453, 1.0133928060531616, 0.018405426293611526, -1.5632824897766113, -0.8281171917915344, -0.9845156073570251, 0.05785491690039635, 0.4133580489305918, 0.09586555214002601, 8.60105215331647, 9362.0, 30146.0, 35388.0, 9362.0, 8.152067184448242, 0.15876920521259308, 0.022531315684318542, 0.09814976900815964, -0.09092313051223755, -0.02212793193757534, 0.9963156580924988, -0.06560717523097992, 0.04104042053222656, 1.499267578125, 1.396728515625, 0.0370025634765625, 1.496337890625, 1.36962890625, 10.0, 1.0, 10.0, 1.3862419128417969
28262, 1.3302459716796875, -11.384074211120605, 7.747600078582764, 0.29715824127197266, 0.005413071718066931, -19.68617057800293, 1.1104191541671753, 0.020165547728538513, -1.574927568435669, -0.8280975222587585, -0.9845247268676758, 0.05785572528839111, 0.41689162105337396, 0.09885166566542125, 8.598954022081768, 9362.0, 30146.0, 35388.0, 9362.0, 8.152067184448242, 0.15876920521259308, 0.022531315684318542, 0.09814976900815964, -0.09134814888238907, -0.022663231939077377, 0.9926702380180359, -0.06560717523097992, 0.04104042053222656, 1.499267578125, 1.396728515625, 0.0370025634765625, 1.496337890625, 1.36962890625, 10.0, 1.0, 10.0, 1.3862419128417969
28292, 1.329964280128479, -11.38187026977539, 7.748294353485107, 0.31975409388542175, 0.00582341430708766, -19.71772003173828, 1.1491507291793823, 0.0208678487688303, -1.5800482034683228, -0.8281134963035583, -0.984521210193634, 0.057860277593135834, 0.4169819184404334, 0.0965904367164967, 8.597120834415493, 9362.0, 30146.0, 35388.0, 9362.0, 8.152067184448242, 0.2929411232471466, 0.36148518323898315, 0.03184940293431282, -0.09062419086694717, -0.02212139591574669, 0.9953088164329529, -0.06560717523097992, 0.04104042053222656, 1.499267578125, 1.35498046875, 0.01556396484375, 1.49267578125, 1.37841796875, 10.0, 1.0, 10.0, 1.3862419128417969
28322, 1.332111120223999, -11.382314682006836, 7.752171039581299, 0.34312474727630615, 0.006247796583920717, -19.749370574951172, 1.1879208087921143, 0.02157040312886238, -1.5849624872207642, -0.8281181454658508, -0.9845016002655029, 0.05785831809043884, 0.42221552119833305, 0.09513366434237014, 8.59907892725096, 9362.0, 30146.0, 35388.0, 9362.0, 8.152067184448242, 0.18704816699028015, -0.10149109363555908, -0.17710550129413605, -0.09149319678544998, -0.021046683192253113, 0.9960818290710449, -0.06560717523097992, 0.04104042053222656, 1.499267578125, 1.373291015625, 0.0207366943359375, 1.49267578125, 1.39306640625, 10.0, 1.0, 10.0, 1.3862419128417969
28332, 1.3322252035140991, -11.381352424621582, 7.75068998336792, 0.34312474727630615, 0.006247796583920717, -19.749370574951172, 1.1879208087921143, 0.02157040312886238, -1.5849624872207642, -0.8281182050704956, -0.9845086932182312, 0.05787234008312225, 0.4201993603108526, 0.0955936791996237, 8.596419201654122, 9362.0, 30146.0, 35388.0, 9362.0, 8.152067184448242, -0.04777224734425545, -0.06997654587030411, -0.3927457332611084, -0.09149319678544998, -0.021046683192253113, 0.9960818290710449, -0.06560717523097992, 0.04104042053222656, 1.499267578125, 1.373291015625, 0.0207366943359375, 1.494140625, 1.39306640625, 10.0, 1.0, 10.0, 1.3862419128417969
28352, 1.3324016332626343, -11.382164001464844, 7.749203681945801, 0.40494629740715027, 0.007370211649686098, -19.828914642333984, 1.2849475145339966, 0.023322338238358498, -1.5967309474945068, -0.8281125426292419, -0.9845315217971802, 0.057846058160066605, 0.42399491176642695, 0.10393933153156354, 8.60062965273844, 9362.0, 30146.0, 35388.0, 9362.0, 8.152067184448242, -0.10447333753108978, -0.6689964532852173, -0.19171874225139618, -0.09131667017936707, -0.021601755172014236, 0.9941479563713074, -0.06560717523097992, 0.04104042053222656, 1.499267578125, 1.373291015625, 0.0207366943359375, 1.494140625, 1.39306640625, 10.0, 1.0, 10.0, 1.3862419128417969
28372, 1.3311415910720825, -11.377942085266113, 7.74789571762085, 0.40494629740715027, 0.007370211649686098, -19.828914642333984, 1.2849475145339966, 0.023322338238358498, -1.5967309474945068, -0.8281382918357849, -0.9845136404037476, 0.057858146727085114, 0.4341753664503827, 0.10271105426653548, 8.602120935938286, 9362.0, 30146.0, 35388.0, 9362.0, 8.152067184448242, 0.13381259143352509, 0.4332980811595917, 0.025765059515833855, -0.09131667017936707, -0.021601755172014236, 0.9941479563713074, -0.06280650943517685, -0.021678924560546875, 1.494140625, 1.3623046875, 0.0167999267578125, 1.5, 1.39306640625, 10.0, 1.0, 10.0, 1.3862419128417969
28392, 1.330117106437683, -11.381000518798828, 7.747006893157959, 0.4578963816165924, 0.008330950513482094, -19.892972946166992, 1.3625810146331787, 0.02471569925546646, -1.6060121059417725, -0.8281241059303284, -0.9845504760742188, 0.057877711951732635, 0.4340998058600895, 0.11520626897075203, 8.594536184272881, 9362.0, 30146.0, 35388.0, 9362.0, 8.152067184448242, 0.06301211565732956, 0.4269130527973175, 0.04365285858511925, -0.0885515809059143, -0.02437322586774826, 0.99369877576828, -0.06280650943517685, -0.021678924560546875, 1.494140625, 1.39306640625, 0.0337982177734375, 1.4970703125, 1.38427734375, 10.0, 1.0, 10.0, 1.3862419128417969
28412, 1.3310081958770752, -11.385807037353516, 7.742396354675293, 0.47161921858787537, 0.008579853922128677, -19.90904426574707, 1.3819875717163086, 0.025064783170819283, -1.608346700668335, -0.8281326293945312, -0.9845399260520935, 0.05785785987973213, 0.44310345992870603, 0.11173579365672026, 8.603457616316444, 9362.0, 30146.0, 35388.0, 9362.0, 8.152067184448242, 0.07396838814020157, 0.32767727971076965, 0.25901851058006287, -0.08879359066486359, -0.02446576952934265, 0.9963749051094055, -0.06280650943517685, -0.021678924560546875, 1.494140625, 1.39306640625, 0.0337982177734375, 1.493408203125, 1.39013671875, 10.0, 1.0, 10.0, 1.3862419128417969
28492, 1.3353760242462158, -11.383112907409668, 7.741854190826416, 0.5883879661560059, 0.010696377605199814, -20.03847312927246, 1.5372308492660522, 0.02783527970314026, -1.62742280960083, -0.8281312584877014, -0.984544575214386, 0.057855717837810516, 0.43964108791102524, 0.10551944284696901, 8.599626379070617, 9362.0, 30146.0, 35388.0, 9362.0, 8.152067184448242, 0.23171132802963257, 0.013174893334507942, 0.08060797303915024, -0.09037866443395615, -0.02212286926805973, 0.9957064986228943, -0.06280650943517685, -0.021678924560546875, 1.494140625, 1.361572265625, 0.016571044921875, 1.494873046875, 1.392333984375, 10.0, 1.0, 10.0, 1.3858178853988647
28502, 1.3359678983688354, -11.382667541503906, 7.742565631866455, 0.6195208430290222, 0.011259917169809341, -20.071069717407227, 1.576055884361267, 0.028520066291093826, -1.6321392059326172, -0.8281205892562866, -0.9845558404922485, 0.057856541126966476, 0.4280159381002465, 0.10307884624222652, 8.596197248627648, 9362.0, 30146.0, 35388.0, 9362.0, 8.152067184448242, 0.05988869071006775, 0.4414580464363098, 0.149832084774971, -0.09448796510696411, -0.02219095639884472, 0.9948348999023438, -0.06280650943517685, -0.021678924560546875, 1.494140625, 1.361572265625, 0.016571044921875, 1.494873046875, 1.4033203125, 10.0, 1.0, 10.0, 1.3858178853988647
28522, 1.3356006145477295, -11.38449764251709, 7.745874404907227, 0.6514298915863037, 0.011837128549814224, -20.103759765625, 1.6148401498794556, 0.02920115925371647, -1.6369951963424683, -0.8281136155128479, -0.9845266938209534, 0.05786086246371269, 0.4333804739517761, 0.10006441530077836, 8.590139514805667, 9362.0, 30146.0, 35388.0, 9362.0, 8.152067184448242, 0.1528674215078354, -0.028537707403302193, -0.0422079861164093, -0.08965189009904861, -0.022778406739234924, 0.9971570372581482, -0.06280650943517685, -0.021678924560546875, 1.494140625, 1.361572265625, 0.016571044921875, 1.491943359375, 1.357177734375, 10.0, 1.0, 10.0, 1.3858178853988647
28552, 1.3371530771255493, -11.385400772094727, 7.748001575469971, 0.7007491588592529, 0.012728527188301086, -20.152973175048828, 1.673113465309143, 0.03022662363946438, -1.6438535451889038, -0.8281149864196777, -0.9845214486122131, 0.057871587574481964, 0.4240949399201841, 0.09742792792729915, 8.594111421214164, 9362.0, 30146.0, 35388.0, 9362.0, 8.152067184448242, -0.11035317927598953, -0.001273950794711709, 0.03231611102819443, -0.08773878216743469, -0.023570382967591286, 0.9953727722167969, -0.06280650943517685, -0.021678924560546875, 1.494140625, 1.361572265625, 0.016571044921875, 1.49560546875, 1.38134765625, 10.0, 1.0, 10.0, 1.3858178853988647
28562, 1.337072730064392, -11.386622428894043, 7.748619556427002, 0.717577338218689, 0.013032499700784683, -20.169424057006836, 1.6925195455551147, 0.03056769259274006, -1.646239161491394, -0.8281082510948181, -0.9845172762870789, 0.057872090488672256, 0.41935791689080765, 0.09432617675960842, 8.598798598873884, 9362.0, 30146.0, 35388.0, 9362.0, 8.152067184448242, -0.11035317927598953, -0.001273950794711709, 0.03231611102819443, -0.09035815298557281, -0.02155585214495659, 0.9962667226791382, -0.06280650943517685, -0.021678924560546875, 1.494140625, 1.361572265625, 0.016571044921875, 1.49560546875, 1.38134765625, 10.0, 1.0, 10.0, 1.3858178853988647
28572, 1.3365132808685303, -11.385336875915527, 7.7475080490112305, 0.717577338218689, 0.013032499700784683, -20.169424057006836, 1.6925195455551147, 0.03056769259274006, -1.646239161491394, -0.8281101584434509, -0.9845052361488342, 0.0578610859811306, 0.41607535959920117, 0.09772779081524163, 8.593563865114225, 9362.0, 30146.0, 35388.0, 9362.0, 8.152067184448242, -0.11828360706567764, -0.2483401596546173, -0.038670312613248825, -0.09035815298557281, -0.02155585214495659, 0.9962667226791382, -0.06280650943517685, -0.021678924560546875, 1.494140625, 1.361572265625, 0.016571044921875, 1.48974609375, 1.38134765625, 10.0, 1.0, 10.0, 1.3858178853988647
28602, 1.3377305269241333, -11.38701057434082, 7.749065399169922, 0.7868327498435974, 0.01428249478340149, -20.235454559326172, 1.7702610492706299, 0.03193315863609314, -1.6551822423934937, -0.8281113505363464, -0.9845138192176819, 0.05787414684891701, 0.4096957534520358, 0.09647125076281782, 8.59281867028899, 9362.0, 30146.0, 35388.0, 9362.0, 8.152067184448242, -0.11182242631912231, -0.4893997609615326, 0.4228326082229614, -0.08952320367097855, -0.021229775622487068, 0.9950359463691711, -0.06280650943517685, -0.021678924560546875, 1.494140625, 1.346923828125, 0.015472412109375, 1.49560546875, 1.3505859375, 10.0, 1.0, 10.0, 1.3858178853988647
28612, 1.338728427886963, -11.38444709777832, 7.751121997833252, 0.8046324849128723, 0.014603535644710064, -20.252017974853516, 1.7896853685379028, 0.03227532282471657, -1.6574722528457642, -0.8281019330024719, -0.9845060110092163, 0.05785952880978584, 0.40832143530165466, 0.10646204490294053, 8.600248443135726, 9362.0, 30146.0, 35388.0, 9362.0, 8.152067184448242, 0.3127409815788269, 0.2439543902873993, -0.5305351614952087, -0.08952320367097855, -0.021229775622487068, 0.9950359463691711, -0.06280650943517685, -0.021678924560546875, 1.494140625, 1.346923828125, 0.015472412109375, 1.49560546875, 1.3505859375, 10.0, 1.0, 10.0, 1.3858178853988647
28642, 1.3476461172103882, -11.383617401123047, 7.755793571472168, 0.8591962456703186, 0.015587063506245613, -20.301849365234375, 1.8479602336883545, 0.03329148888587952, -1.664353609085083, -0.8281204104423523, -0.984521210193634, 0.057869233191013336, 0.4082696127903543, 0.1033525038158416, 8.60000590825817, 9362.0, 30146.0, 35388.0, 9362.0, 8.152067184448242, 0.36476004123687744, -0.21586471796035767, 0.3242882192134857, -0.09113217145204544, -0.020140530541539192, 0.9910447597503662, -0.06280650943517685, -0.021678924560546875, 1.494140625, 1.377685546875, 0.023040771484375, 1.49560546875, 1.3447265625, 10.0, 1.0, 10.0, 1.3858178853988647
28692, 1.3698267936706543, -11.371027946472168, 7.755692958831787, 0.8777733445167542, 0.015921641141176224, -20.31850242614746, 1.867461919784546, 0.03362472355365753, -1.6662672758102417, -0.828126072883606, -0.9845355749130249, 0.05785257741808891, 0.42886759105907596, 0.11286024405995931, 8.592884409204183, 9362.0, 30146.0, 35388.0, 9362.0, 8.152067184448242, 0.2415281981229782, 0.18759500980377197, -0.2451411932706833, -0.09113217145204544, -0.020140530541539192, 0.9910447597503662, -0.05180950090289116, -0.08439826965332031, 1.489013671875, 1.37548828125, 0.021820068359375, 1.49560546875, 1.3828125, 10.0, 1.0, 10.0, 1.3858178853988647
28702, 1.3709959983825684, -11.371354103088379, 7.754922866821289, 0.8777733445167542, 0.015921641141176224, -20.31850242614746, 1.867461919784546, 0.03362472355365753, -1.6662672758102417, -0.8281217217445374, -0.9845538139343262, 0.0578477680683136, 0.4208251067472186, 0.1084354459360668, 8.594654961695513, 9362.0, 30146.0, 35388.0, 9362.0, 8.152067184448242, 0.14249931275844574, 0.0140093844383955, 0.0894654244184494, -0.08831332623958588, -0.020222974941134453, 0.9904435276985168, -0.05180950090289116, -0.08439826965332031, 1.489013671875, 1.37548828125, 0.021820068359375, 1.49560546875, 1.3828125, 10.0, 1.0, 10.0, 1.3858178853988647
28772, 1.3649154901504517, -11.380834579467773, 7.752016544342041, 1.0536925792694092, 0.019071117043495178, -20.469470977783203, 2.0420045852661133, 0.036288194358348846, -1.6877607107162476, -0.828116238117218, -0.9845617413520813, 0.05785202607512474, 0.4397609312164981, 0.10589192237713974, 8.601328483950482, 9362.0, 30146.0, 35388.0, 9362.0, 8.152067184448242, -0.2695983350276947, 0.2932898700237274, -0.004717969801276922, -0.08682622015476227, -0.020130179822444916, 0.9953901171684265, -0.05180950090289116, -0.08439826965332031, 1.489013671875, 1.3740234375, 0.0210723876953125, 1.48974609375, 1.34765625, 10.0, 1.0, 10.0, 1.385295033454895
28782, 1.3622748851776123, -11.382862091064453, 7.752126693725586, 1.0536925792694092, 0.019071117043495178, -20.469470977783203, 2.0420045852661133, 0.036288194358348846, -1.6877607107162476, -0.8281210660934448, -0.9845716953277588, 0.057858873158693314, 0.4364304610611789, 0.1033700367225947, 8.59040286356891, 9362.0, 30146.0, 35388.0, 9362.0, 8.152067184448242, -0.22767458856105804, 0.4080135226249695, -0.021140458062291145, -0.09036442637443542, -0.02167719230055809, 0.9965956807136536, -0.05180950090289116, -0.08439826965332031, 1.489013671875, 1.3740234375, 0.0210723876953125, 1.48974609375, 1.34765625, 10.0, 1.0, 10.0, 1.385295033454895
28862, 1.3424317836761475, -11.395661354064941, 7.763405799865723, 1.2900482416152954, 0.023239081725478172, -20.65658950805664, 2.2555716037750244, 0.03958888724446297, -1.7136799097061157, -0.8281111121177673, -0.9845134019851685, 0.057857293635606766, 0.41316892328585453, 0.0936578444521956, 8.599156847362728, 9362.0, 30146.0, 35388.0, 9362.0, 8.152067184448242, -0.3795973062515259, -0.053976625204086304, 0.20496195554733276, -0.09149421751499176, -0.020920701324939728, 0.9955127835273743, -0.05180950090289116, -0.08439826965332031, 1.489013671875, 1.365234375, 0.0175933837890625, 1.49267578125, 1.400390625, 10.0, 1.0, 10.0, 1.385295033454895
28922, 1.331403136253357, -11.388504028320312, 7.774576663970947, 1.4288809299468994, 0.02567516453564167, -20.759830474853516, 2.3722455501556396, 0.04165320098400116, -1.7274250984191895, -0.828108549118042, -0.9845133423805237, 0.05784916877746582, 0.4031296445299979, 0.09915840516748631, 8.601044618079605, 9362.0, 30146.0, 35388.0, 9362.0, 8.152067184448242, 0.17539985477924347, 0.015426651574671268, -0.14480338990688324, -0.08905479311943054, -0.022901635617017746, 0.9999921917915344, -0.05180950090289116, -0.08439826965332031, 1.489013671875, 1.353515625, 0.0154571533203125, 1.493408203125, 1.41943359375, 10.0, 1.0, 10.0, 1.385295033454895
28982, 1.346119999885559, -11.385903358459473, 7.766128063201904, 1.500919222831726, 0.02694094367325306, -20.81177520751953, 2.430405616760254, 0.042732805013656616, -1.7349905967712402, -0.8281203508377075, -0.9845230579376221, 0.05785281956195831, 0.4228310857846773, 0.09784735739887651, 8.59639787248752, 9362.0, 30146.0, 35388.0, 9362.0, 8.152067184448242, 0.40115752816200256, -0.17315301299095154, -0.02336205542087555, -0.08777306973934174, -0.020278993993997574, 0.99786376953125, -0.05180950090289116, -0.08439826965332031, 1.489013671875, 1.37548828125, 0.021820068359375, 1.493408203125, 1.3623046875, 10.0, 1.0, 10.0, 1.385295033454895
29002, 1.3552919626235962, -11.384156227111816, 7.763872146606445, 1.500919222831726, 0.02694094367325306, -20.81177520751953, 2.430405616760254, 0.042732805013656616, -1.7349905967712402, -0.8281197547912598, -0.9845332503318787, 0.05784133821725845, 0.4273610975490844, 0.10856051324580562, 8.592332046412853, 9362.0, 30146.0, 35388.0, 9362.0, 8.152067184448242, 0.3770022988319397, 0.06689509749412537, -0.6462041735649109, -0.09023074805736542, -0.0201458390802145, 0.9932408928871155, -0.05180950090289116, -0.08439826965332031, 1.489013671875, 1.36083984375, 0.016387939453125, 1.4912109375, 1.3623046875, 10.0, 1.0, 10.0, 1.385295033454895
29052, 1.3667293787002563, -11.386933326721191, 7.753917217254639, 1.7800060510635376, 0.031847789883613586, -21.00406265258789, 2.643986940383911, 0.04635037109255791, -1.7607067823410034, -0.8281209468841553, -0.9845420718193054, 0.057867277413606644, 0.4349737425659586, 0.10427415141052165, 8.59972360357351, 9362.0, 30146.0, 35388.0, 9362.0, 8.152067184448242, -0.023595260456204414, 0.20435523986816406, -0.3277469575405121, -0.08893261849880219, -0.01922001875936985, 0.9954198002815247, -0.05180950090289116, -0.08439826965332031, 1.489013671875, 1.35791015625, 0.015869140625, 1.497802734375, 1.40185546875, 10.0, 1.0, 10.0, 1.385295033454895
29152, 1.340388536453247, -11.395788192749023, 7.767450332641602, 2.054112195968628, 0.03663186728954315, -21.181339263916016, 2.83830189704895, 0.04940392076969147, -1.7841867208480835, -0.8281107544898987, -0.9845255613327026, 0.057858843356370926, 0.41853105914132427, 0.09931156814337783, 8.598169752853545, 9362.0, 30146.0, 35388.0, 9362.0, 8.152067184448242, -0.36519262194633484, 0.2502065598964691, 0.3842260539531708, -0.09110201895236969, -0.02417214773595333, 0.9941814541816711, -0.05363941565155983, -0.24567794799804688, 1.475830078125, 1.40771484375, 0.0478363037109375, 1.49560546875, 1.39013671875, 10.0, 1.0, 10.0, 1.385295033454895
29172, 1.3332313299179077, -11.399256706237793, 7.773645401000977, 2.082592248916626, 0.03712758794426918, -21.199193954467773, 2.8577120304107666, 0.04974106326699257, -1.7866383790969849, -0.8280973434448242, -0.9845134019851685, 0.05785513296723366, 0.4188895590472322, 0.10334892882116264, 8.600856992149126, 9362.0, 30146.0, 35388.0, 9362.0, 8.152067184448242, -0.5471916198730469, 0.033140141516923904, 0.19554662704467773, -0.09048368781805038, -0.024415383115410805, 0.9989110827445984, -0.05475553125143051, -0.030637741088867188, 1.493408203125, 1.382080078125, 0.0256195068359375, 1.494140625, 1.39013671875, 10.0, 1.0, 10.0, 1.385295033454895
29192, 1.3301234245300293, -11.400087356567383, 7.779819965362549, 2.1691980361938477, 0.03863551840186119, -21.252899169921875, 2.9160759449005127, 0.05079926550388336, -1.7933763265609741, -0.8281116485595703, -0.9845094680786133, 0.05785893276333809, 0.4155830042273458, 0.10058629954639287, 8.597199363555967, 9362.0, 30146.0, 35388.0, 9362.0, 8.152067184448242, -0.33722126483917236, -0.10157123953104019, 0.08787799626588821, -0.0909135639667511, -0.024174364283680916, 0.9955297708511353, -0.05475553125143051, -0.030637741088867188, 1.493408203125, 1.392333984375, 0.03314208984375, 1.49560546875, 1.36669921875, 10.0, 1.0, 10.0, 1.385295033454895
29212, 1.3295949697494507, -11.399346351623535, 7.783020496368408, 2.1691980361938477, 0.03863551840186119, -21.252899169921875, 2.9160759449005127, 0.05079926550388336, -1.7933763265609741, -0.8281105756759644, -0.9845020771026611, 0.05785418301820755, 0.40808412129976174, 0.09568550318479652, 8.599934844038861, 9362.0, 30146.0, 35388.0, 9362.0, 8.152067184448242, 0.07513784617185593, 0.08387443423271179, -0.11185283213853836, -0.09007972478866577, -0.023776426911354065, 0.9917212724685669, -0.05475553125143051, -0.030637741088867188, 1.493408203125, 1.332275390625, 0.019561767578125, 1.49853515625, 1.379150390625, 10.0, 1.0, 10.0, 1.385295033454895
29232, 1.3327279090881348, -11.396531105041504, 7.781201362609863, 2.257554292678833, 0.04017595201730728, -21.30681037902832, 2.9742934703826904, 0.051900267601013184, -1.800868272781372, -0.8281174898147583, -0.9845067858695984, 0.0578366219997406, 0.40896990781282544, 0.09831612995745331, 8.599174976119711, 9362.0, 30146.0, 35388.0, 9362.0, 8.152067184448242, 0.2092984914779663, 0.17302969098091125, -0.003845303086563945, -0.08898650854825974, -0.023736950010061264, 0.9968206286430359, -0.05475553125143051, -0.030637741088867188, 1.493408203125, 1.33447265625, 0.0186309814453125, 1.49853515625, 1.35498046875, 10.0, 1.0, 10.0, 1.385295033454895
29242, 1.33430016040802, -11.397128105163574, 7.780599117279053, 2.3174285888671875, 0.04122130200266838, -21.342876434326172, 3.013153076171875, 0.05263359844684601, -1.80561363697052, -0.828110933303833, -0.9845120310783386, 0.057849448174238205, 0.4049658464552705, 0.10342606839896007, 8.597185261265214, 9362.0, 30146.0, 35388.0, 9362.0, 8.152067184448242, 0.2663695216178894, 0.024714723229408264, -0.3134681284427643, -0.0884522870182991, -0.023446280509233475, 0.9958603978157043, -0.05475553125143051, -0.030637741088867188, 1.493408203125, 1.33447265625, 0.0186309814453125, 1.49853515625, 1.402587890625, 10.0, 1.0, 10.0, 1.385295033454895
29272, 1.3435255289077759, -11.395003318786621, 7.774143218994141, 2.3174285888671875, 0.04122130200266838, -21.342876434326172, 3.013153076171875, 0.05263359844684601, -1.80561363697052, -0.8281152844429016, -0.9845162034034729, 0.05785579979419708, 0.40681121458417374, 0.09465047156231776, 8.593475901106434, 9362.0, 30146.0, 35388.0, 9362.0, 8.152067184448242, 0.6543987989425659, 0.29950985312461853, -0.40761736035346985, -0.08864791691303253, -0.020971065387129784, 0.9946863055229187, -0.04586050659418106, -0.0037593841552734375, 1.49560546875, 1.36962890625, 0.01910400390625, 1.493408203125, 1.402587890625, 10.0, 1.0, 10.0, 1.385295033454895
29292, 1.3515346050262451, -11.398614883422852, 7.768047332763672, 2.470515251159668, 0.04389750957489014, -21.43345069885254, 3.1103262901306152, 0.054392386227846146, -1.8172776699066162, -0.8281142115592957, -0.984530508518219, 0.05785558372735977, 0.41512345874939716, 0.10149606189224869, 8.596696871304667, 9362.0, 30146.0, 35388.0, 9362.0, 8.152067184448242, 0.5477877855300903, 0.08495417982339859, -0.4735846221446991, -0.09224122762680054, -0.01971057802438736, 0.9958794116973877, -0.04586050659418106, -0.0037593841552734375, 1.49560546875, 1.361572265625, 0.016571044921875, 1.493408203125, 1.418701171875, 10.0, 1.0, 10.0, 1.385295033454895
29312, 1.357607126235962, -11.398834228515625, 7.758121967315674, 2.501715660095215, 0.04444310441613197, -21.451635360717773, 3.129772186279297, 0.054724715650081635, -1.8195854425430298, -0.8281192183494568, -0.9845232367515564, 0.057876985520124435, 0.4220490176269078, 0.1022479922175421, 8.59747781895538, 9362.0, 30146.0, 35388.0, 9362.0, 8.152067184448242, 0.2734282910823822, 0.03738313168287277, -0.32027870416641235, -0.0877542570233345, -0.0211479552090168, 0.9962370991706848, -0.04586050659418106, -0.0037593841552734375, 1.49560546875, 1.361572265625, 0.016571044921875, 1.496337890625, 1.367431640625, 10.0, 1.0, 10.0, 1.385295033454895
29322, 1.3599714040756226, -11.399094581604004, 7.754294395446777, 2.501715660095215, 0.04444310441613197, -21.451635360717773, 3.129772186279297, 0.054724715650081635, -1.8195854425430298, -0.828114926815033, -0.984523355960846, 0.057870037853717804, 0.4215291038054093, 0.10257964045811718, 8.591767630536046, 9362.0, 30146.0, 35388.0, 9362.0, 8.152067184448242, 0.39077460765838623, -0.13996754586696625, -0.41546952724456787, -0.09019140154123306, -0.02070494368672371, 0.9965890049934387, -0.04586050659418106, -0.0037593841552734375, 1.49560546875, 1.35791015625, 0.015869140625, 1.496337890625, 1.36962890625, 10.0, 1.0, 10.0, 1.385295033454895
29332, 1.36250638961792, -11.397000312805176, 7.750095844268799, 2.596482992172241, 0.046099286526441574, -21.506330490112305, 3.1880881786346436, 0.05567749962210655, -1.8266520500183105, -0.8281081318855286, -0.9845187067985535, 0.05787540599703789, 0.4287912417230494, 0.1011697315436777, 8.591542560109414, 9362.0, 30146.0, 35388.0, 9362.0, 8.152067184448242, 0.10942595452070236, 0.024291004985570908, -0.2308865487575531, -0.09203801304101944, -0.018099835142493248, 0.9965803623199463, -0.04586050659418106, -0.0037593841552734375, 1.49560546875, 1.35791015625, 0.015869140625, 1.494873046875, 1.36962890625, 10.0, 1.0, 10.0, 1.385295033454895
29342, 1.3641302585601807, -11.39730167388916, 7.747772693634033, 2.596482992172241, 0.046099286526441574, -21.506330490112305, 3.1880881786346436, 0.05567749962210655, -1.8266520500183105, -0.8281183838844299, -0.9845273494720459, 0.057877302169799805, 0.4276371998702585, 0.10034115110266839, 8.596336533933394, 9362.0, 30146.0, 35388.0, 9362.0, 8.152067184448242, 0.32034897804260254, -0.02892773598432541, -0.39255765080451965, -0.09104849398136139, -0.017646154388785362, 0.9967813491821289, -0.04586050659418106, -0.0037593841552734375, 1.49560546875, 1.365966796875, 0.017791748046875, 1.494873046875, 1.39453125, 10.0, 1.0, 10.0, 1.385295033454895
29362, 1.3656396865844727, -11.395940780639648, 7.746565341949463, 2.596482992172241, 0.046099286526441574, -21.506330490112305, 3.1880881786346436, 0.05567749962210655, -1.8266520500183105, -0.8281128406524658, -0.9845325946807861, 0.057891104370355606, 0.4290577534490303, 0.09565479216217909, 8.591883475491136, 9362.0, 30146.0, 35388.0, 9362.0, 8.152067184448242, -0.06544160842895508, -0.006766213104128838, -0.10541265457868576, -0.08953504264354706, -0.02135574072599411, 0.9972290396690369, -0.04586050659418106, -0.0037593841552734375, 1.49560546875, 1.388671875, 0.03033447265625, 1.49560546875, 1.420166015625, 10.0, 1.0, 10.0, 1.3847451210021973
29372, 1.3640732765197754, -11.396159172058105, 7.746527671813965, 2.725562572479248, 0.04835052415728569, -21.579580307006836, 3.2658793926239014, 0.05687350779771805, -1.8358899354934692, -0.8281224966049194, -0.9845302104949951, 0.057848840951919556, 0.42955233153460076, 0.09919415953757493, 8.594991782917608, 9362.0, 30146.0, 35388.0, 9362.0, 8.152067184448242, -0.26653119921684265, -0.15029604732990265, 0.30028456449508667, -0.08953504264354706, -0.02135574072599411, 0.9972290396690369, -0.04586050659418106, -0.0037593841552734375, 1.49560546875, 1.388671875, 0.03033447265625, 1.49267578125, 1.420166015625, 10.0, 1.0, 10.0, 1.3847451210021973
29382, 1.3623511791229248, -11.396574020385742, 7.749660491943359, 2.725562572479248, 0.04835052415728569, -21.579580307006836, 3.2658793926239014, 0.05687350779771805, -1.8358899354934692, -0.828117311000824, -0.9845337271690369, 0.05785565823316574, 0.4296402567942316, 0.09785219240271203, 8.596744946035487, 9362.0, 30146.0, 35388.0, 9362.0, 8.152067184448242, -0.26821988821029663, -0.09042731672525406, 0.2698740065097809, -0.09188339859247208, -0.018610524013638496, 0.9949908256530762, -0.04586050659418106, -0.0037593841552734375, 1.49560546875, 1.41357421875, 0.0542449951171875, 1.49267578125, 1.35205078125, 10.0, 1.0, 10.0, 1.3847451210021973
29392, 1.3604217767715454, -11.396404266357422, 7.751237392425537, 2.725562572479248, 0.04835052415728569, -21.579580307006836, 3.2658793926239014, 0.05687350779771805, -1.8358899354934692, -0.8281176686286926, -0.984529435634613, 0.05787545442581177, 0.4277081152044603, 0.10186493430433075, 8.59198130102722, 9362.0, 30146.0, 35388.0, 9362.0, 8.152067184448242, -0.22349214553833008, -0.16260559856891632, 0.0692339539527893, -0.09188339859247208, -0.018610524013638496, 0.9949908256530762, -0.04586050659418106, -0.0037593841552734375, 1.49560546875, 1.41357421875, 0.0542449951171875, 1.494873046875, 1.39306640625, 10.0, 1.0, 10.0, 1.3847451210021973
29432, 1.3491448163986206, -11.398266792297363, 7.763077259063721, 2.8244149684906006, 0.05007007345557213, -21.634756088256836, 3.3242671489715576, 0.05776822566986084, -1.8425662517547607, -0.8281188011169434, -0.9845209121704102, 0.0578821524977684, 0.4163745322807671, 0.10028574945039281, 8.596318802745666, 9362.0, 30146.0, 35388.0, 9362.0, 8.152067184448242, -0.2354939728975296, -0.10289878398180008, 0.27244409918785095, -0.08900890499353409, -0.018475530669093132, 0.9970870018005371, -0.04586050659418106, -0.0037593841552734375, 1.49560546875, 1.3916015625, 0.0325927734375, 1.497802734375, 1.3798828125, 10.0, 1.0, 10.0, 1.3847451210021973
29442, 1.3471931219100952, -11.397615432739258, 7.768026828765869, 2.8244149684906006, 0.05007007345557213, -21.634756088256836, 3.3242671489715576, 0.05776822566986084, -1.8425662517547607, -0.828116238117218, -0.9845157861709595, 0.05785980820655823, 0.4179825630073769, 0.095747428685371, 8.594730459769698, 9362.0, 30146.0, 35388.0, 9362.0, 8.152067184448242, -0.28091123700141907, 0.022176656872034073, 0.3316231966018677, -0.08981354534626007, -0.02274523489177227, 0.9941698908805847, -0.04586050659418106, -0.0037593841552734375, 1.49560546875, 1.3916015625, 0.0325927734375, 1.497802734375, 1.3798828125, 10.0, 1.0, 10.0, 1.3847451210021973
29502, 1.3381597995758057, -11.397552490234375, 7.78388786315918, 3.061875343322754, 0.054191455245018005, -21.764312744140625, 3.4603185653686523, 0.06003269925713539, -1.859010100364685, -0.8281151652336121, -0.9845122694969177, 0.05784940347075462, 0.41134438795316736, 0.0980395450315541, 8.590803130852693, 9362.0, 30146.0, 35388.0, 9362.0, 8.152067184448242, -0.05026967078447342, -0.34095579385757446, -0.22894392907619476, -0.0896657407283783, -0.021252712234854698, 0.9985318183898926, -0.04586050659418106, -0.0037593841552734375, 1.49560546875, 1.387939453125, 0.0297393798828125, 1.49267578125, 1.393798828125, 10.0, 1.0, 10.0, 1.3847451210021973
29512, 1.3370165824890137, -11.394783020019531, 7.782160758972168, 3.201843023300171, 0.056620657444000244, -21.8388614654541, 3.538046360015869, 0.06143534556031227, -1.8684583902359009, -0.8281146287918091, -0.9845055341720581, 0.057851243764162064, 0.42065783489195935, 0.09196736894426749, 8.60094451221754, 9362.0, 30146.0, 35388.0, 9362.0, 8.152067184448242, 0.06037750840187073, -0.22344419360160828, 0.09110186994075775, -0.0896657407283783, -0.021252712234854698, 0.9985318183898926, -0.04586050659418106, -0.0037593841552734375, 1.49560546875, 1.387939453125, 0.0297393798828125, 1.49267578125, 1.393798828125, 10.0, 1.0, 10.0, 1.3847451210021973
29522, 1.3369532823562622, -11.393610000610352, 7.78305721282959, 3.201843023300171, 0.056620657444000244, -21.8388614654541, 3.538046360015869, 0.06143534556031227, -1.8684583902359009, -0.8281174898147583, -0.9845040440559387, 0.05785948410630226, 0.4140836996456019, 0.09971292906919871, 8.600099999000392, 9362.0, 30146.0, 35388.0, 9362.0, 8.152067184448242, 0.054022323340177536, -0.16283807158470154, 0.030309870839118958, -0.09070916473865509, -0.02281089872121811, 0.9956532120704651, -0.04586050659418106, -0.0037593841552734375, 1.49560546875, 1.387939453125, 0.0297393798828125, 1.49267578125, 1.393798828125, 10.0, 1.0, 10.0, 1.3847451210021973
