timeTick, roll, pitch, yaw, stateX, stateY, stateZ, stateVX, stateVY, stateVZ, otX0, otY0, otZ0, otRoll0, otPitch0, otYaw0, left wing, pitch motor, yaw motor, right wing, voltage, roll rate, pitch rate, yaw rate, A_x, A_y, A_z, current, i_raw, v_raw, airflow_voltage, airflow_speed, pot_Pitch, voltage_nKF, kFFx, state, State, volt_KF
17219, 1.9157029390335083, 0.8760188221931458, -2.6566333770751953, 0, 0, 0, 0, 0, 0, -0.8133741617202759, -0.9861727952957153, 0.05722510442137718, -0.5410422048681045, -0.07557884267450277, 8.836527053286447, 0, 0, 0, 0, 0, 0, 0, 0, 0, 0, 0, 0, 0, 0, 0, 0, 0, 0, 0, 0, 0, 0
17229, 1.916600227355957, 0.8711371421813965, -2.6553664207458496, 0.00021057453704997897, 0.0004081820952706039, -5.633090972900391, 0.00888525415211916, 0.01721949316561222, -0.72251957654953, -0.8133320808410645, -0.9861201047897339, 0.057180196046829224, -0.5290969766849254, -0.05091780582256433, 8.80674023463643, 9362.0, 30146.0, 35388.0, 9362.0, 0, 0.16325946152210236, 0.4483380615711212, 0.18474481999874115, -0.09284317493438721, -0.04232875630259514, 0.9959096908569336, 0, 0, 0, 0, 0, 0, 0, 0, 0, 0, 0
17239, 1.9173229932785034, 0.870444655418396, -2.6550281047821045, 0.00029121979605406523, 0.0005644221091642976, -5.640318870544434, 0.007243824191391468, 0.014028492383658886, -0.7230567336082458, -0.8133746385574341, -0.986161470413208, 0.05720435082912445, -0.5403777706933409, -0.07575499606556946, 8.835158936651169, 9362.0, 30146.0, 35388.0, 9362.0, 0, -0.1909981518983841, -0.0929933488368988, -0.12460855394601822, -0.09127724170684814, -0.041424259543418884, 0.9955416321754456, 0, 0, 0, 1.447998046875, 0.1016693115234375, 0, 1.434814453125, 10.0, 1.0, 10.0, 1.440415620803833
17249, 1.916401743888855, 0.868396520614624, -2.654013156890869, 0.000355489959474653, 0.0006887379568070173, -5.647552013397217, 0.005610224325209856, 0.010834666900336742, -0.723566472530365, -0.8134062886238098, -0.9861709475517273, 0.057167958468198776, -0.5474361049197891, -0.07000995422870915, 8.848840936253698, 9362.0, 30146.0, 35388.0, 9362.0, 0, -0.3203524053096771, 0.4582037031650543, 0.34084025025367737, -0.08990887552499771, -0.04189503937959671, 0.9955111145973206, 0, 0, 0, 1.42822265625, 0.0726470947265625, 1.49267578125, 1.446533203125, 10.0, 1.0, 10.0, 1.440280556678772
17259, 1.91470468044281, 0.8657945990562439, -2.6531498432159424, 0.000403427955461666, 0.0007811053656041622, -5.654789924621582, 0.0039774165488779545, 0.007638786919414997, -0.7240536212921143, -0.81337571144104, -0.9861578345298767, 0.05717863515019417, -0.5445109041551622, -0.055431636861555944, 8.826265273970584, 9362.0, 30146.0, 35388.0, 9362.0, 0, -0.26330482959747314, 0.23905949294567108, -0.10845392942428589, -0.09215088933706284, -0.0421663299202919, 0.9969077706336975, 0, 0, 0, 1.44140625, 0.0914459228515625, 1.49267578125, 1.404052734375, 10.0, 1.0, 10.0, 1.4401763677597046
17269, 1.913698673248291, 0.8655520081520081, -2.6547913551330566, 0.00043504819041118026, 0.000841505650896579, -5.662032604217529, 0.002346656285226345, 0.004441229626536369, -0.7244475483894348, -0.8133516907691956, -0.9860978722572327, 0.057155508548021317, -0.5265684518225058, -0.041159256920934695, 8.806355200255137, 9362.0, 30146.0, 35388.0, 9362.0, 0, 0.0997573658823967, 0.29958420991897583, 0.1191319152712822, -0.09187459200620651, -0.04369070753455162, 0.996279239654541, 0, 0, 0, 1.415771484375, 0.0568695068359375, 1.4912109375, 1.40625, 10.0, 1.0, 10.0, 1.4400771856307983
17279, 1.9128124713897705, 0.8652461171150208, -2.6555986404418945, 0.00045038480311632156, 0.0008699454483576119, -5.669279098510742, 0.00072057219222188, 0.0012467721244320273, -0.7248523831367493, -0.8133603930473328, -0.9861015677452087, 0.05713646113872528, -0.5322549486760345, -0.04615883967093737, 8.80449844498216, 9362.0, 30146.0, 35388.0, 9362.0, 0, 0.07959029078483582, 0.28341928124427795, -0.0024408181197941303, -0.09375879168510437, -0.04284825921058655, 0.9950709342956543, 0, 0, 0, 1.388671875, 0.03033447265625, 1.4912109375, 1.44140625, 10.0, 1.0, 10.0, 1.4399526119232178
17289, 1.9125839471817017, 0.8624439239501953, -2.6536357402801514, 0.00044946494745090604, 0.0008664540364407003, -5.676529884338379, -0.0009045907645486295, -0.0019450325053185225, -0.7252858281135559, -0.8133854269981384, -0.9861648082733154, 0.05718068405985832, -0.5480186758666241, -0.06052961372398613, 8.826249314353934, 9362.0, 30146.0, 35388.0, 9362.0, 0, -0.2534838318824768, 0.08851069957017899, 0.32990437746047974, -0.09523925185203552, -0.04062488302588463, 0.9946470260620117, 0, 0, 0, 1.41064453125, 0.0509490966796875, 1.493408203125, 1.43408203125, 10.0, 1.0, 10.0, 1.4399431943893433
17299, 1.9122213125228882, 0.8628221154212952, -2.652717113494873, 0.00043231004383414984, 0.0008310793782584369, -5.683785915374756, -0.0025263060815632343, -0.005129959899932146, -0.7258856892585754, -0.8133752942085266, -0.9861556887626648, 0.0571773424744606, -0.5505177117359832, -0.057912483939503545, 8.828865344535894, 9362.0, 30146.0, 35388.0, 9362.0, 0, -0.08943914622068405, 0.4585579037666321, 0.07522287964820862, -0.09333765506744385, -0.04236018285155296, 0.9956892132759094, 0, 0, 0, 1.45751953125, 0.117095947265625, 1.493408203125, 1.417236328125, 10.0, 1.0, 10.0, 1.4398400783538818
17309, 1.9117507934570312, 0.8616952300071716, -2.6534340381622314, 0.0003989587421528995, 0.0007638487149961293, -5.691047668457031, -0.004143900237977505, -0.008316198363900185, -0.7264411449432373, -0.8133840560913086, -0.9861495494842529, 0.05714336782693863, -0.5462196979736683, -0.061704769981531626, 8.831487301555455, 9362.0, 30146.0, 35388.0, 9362.0, 0, 0.06566701829433441, -0.14272914826869965, 0.03432750701904297, -0.09336844831705093, -0.04273888096213341, 0.9960789680480957, 0, 0, 0, 1.42822265625, 0.0726470947265625, 1.486083984375, 1.449462890625, 10.0, 1.0, 10.0, 1.439802885055542
17319, 1.9110356569290161, 0.8616612553596497, -2.654122829437256, 0.0003494192205835134, 0.000664740102365613, -5.698314189910889, -0.005764053203165531, -0.01150550413876772, -0.7268823385238647, -0.8133699297904968, -0.9861508011817932, 0.057167671620845795, -0.5483377052908766, -0.06121201086233441, 8.828441362468446, 9362.0, 30146.0, 35388.0, 9362.0, 8.152067184448242, -0.09419521689414978, -0.20183856785297394, -0.13190262019634247, -0.0924832671880722, -0.04248140752315521, 0.9953941702842712, -0.06830707937479019, -0.03959846496582031, 1.49267578125, 1.420166015625, 0.0621337890625, 1.486083984375, 1.409912109375, 10.0, 1.0, 10.0, 1.4399017095565796
17329, 1.9122310876846313, 0.8629373908042908, -2.654426336288452, 0.0002836906351149082, 0.0005337477778084576, -5.705585479736328, -0.00738170463591814, -0.014692945405840874, -0.7273581624031067, -0.8133463859558105, -0.986095666885376, 0.05715267360210419, -0.5347372706459587, -0.044715339376125485, 8.803813659435338, 9362.0, 30146.0, 35388.0, 9362.0, 8.152067184448242, 0.07026618719100952, 0.001246497849933803, -0.11435140669345856, -0.09346915036439896, -0.043360110372304916, 0.9942631721496582, -0.06830707937479019, -0.03959846496582031, 1.49267578125, 1.408447265625, 0.0485382080078125, 1.490478515625, 1.420166015625, 10.0, 1.0, 10.0, 1.4397590160369873
17339, 1.912787914276123, 0.8612508773803711, -2.6536874771118164, 0.0002017900114879012, 0.00037089528632350266, -5.71286153793335, -0.008998428471386433, -0.01787753961980343, -0.7278836965560913, -0.8133628964424133, -0.986116886138916, 0.05715939402580261, -0.533372187434906, -0.046231855918676956, 8.804748525553755, 9362.0, 30146.0, 35388.0, 9362.0, 8.152067184448242, 0.2668702006340027, -0.0159299336373806, 0.09843374043703079, -0.09125968813896179, -0.04077260196208954, 0.9924894571304321, -0.06830707937479019, -0.03959846496582031, 1.49267578125, 1.44140625, 0.0914459228515625, 1.490478515625, 1.421630859375, 10.0, 1.0, 10.0, 1.4396986961364746
17349, 1.9136122465133667, 0.8617176413536072, -2.652289628982544, 0.0001037245529005304, 0.00017621448205318302, -5.720143795013428, -0.010614639148116112, -0.02105863392353058, -0.7285758256912231, -0.8133829236030579, -0.9861522912979126, 0.05716412886977196, -0.5441909410793037, -0.054234821021566404, 8.833034810331453, 9362.0, 30146.0, 35388.0, 9362.0, 8.152067184448242, 0.08926066756248474, 0.1300157904624939, 0.22312405705451965, -0.09037360548973083, -0.042600881308317184, 0.9929719567298889, -0.06830707937479019, -0.03959846496582031, 1.49267578125, 1.44873046875, 0.102813720703125, 1.48974609375, 1.423828125, 10.0, 1.0, 10.0, 1.439608097076416
17359, 1.9128938913345337, 0.8629423379898071, -2.6533732414245605, -1.0477742762304842e-05, -5.0261165597476065e-05, -5.727433681488037, -0.012225735932588577, -0.02423652447760105, -0.7294002175331116, -0.8133800029754639, -0.9861610531806946, 0.057205334305763245, -0.5476039886955761, -0.06294112005176089, 8.829536104917421, 9362.0, 30146.0, 35388.0, 9362.0, 8.152067184448242, -0.12024198472499847, -0.2690044045448303, 0.12526363134384155, -0.09127001464366913, -0.04592122137546539, 0.9951953291893005, -0.06830707937479019, -0.03959846496582031, 1.49267578125, 1.418701171875, 0.0603485107421875, 1.48974609375, 1.3916015625, 10.0, 1.0, 10.0, 1.4396419525146484
17369, 1.9133025407791138, 0.8654463291168213, -2.6512913703918457, -0.00014080523396842182, -0.0003085430944338441, -5.734731197357178, -0.013839810155332088, -0.02741984836757183, -0.7300998568534851, -0.8133882880210876, -0.9861512184143066, 0.057162806391716, -0.5432710647611549, -0.056875849572350035, 8.827595766042394, 9362.0, 30146.0, 35388.0, 9362.0, 8.152067184448242, 0.058281295001506805, -0.2398800402879715, 0.17753717303276062, -0.09370370954275131, -0.041028935462236404, 0.9941036105155945, -0.06830707937479019, -0.03959846496582031, 1.49267578125, 1.4267578125, 0.070709228515625, 1.491943359375, 1.41064453125, 10.0, 1.0, 10.0, 1.4396452903747559
17379, 1.9128323793411255, 0.867973804473877, -2.650695323944092, -0.000287294271402061, -0.00059867202071473, -5.742034912109375, -0.015457858331501484, -0.030605990439653397, -0.7306743860244751, -0.8133573532104492, -0.9861101508140564, 0.057141754776239395, -0.5295781442798332, -0.04555983515115258, 8.80818824899264, 9362.0, 30146.0, 35388.0, 9362.0, 8.152067184448242, -0.25230440497398376, -0.19854196906089783, -0.23049311339855194, -0.09222353249788284, -0.039177555590867996, 0.9957056045532227, -0.06830707937479019, -0.03959846496582031, 1.49267578125, 1.44287109375, 0.0936279296875, 1.491943359375, 1.427490234375, 10.0, 1.0, 10.0, 1.4396204948425293
17389, 1.9125880002975464, 0.868172287940979, -2.6527724266052246, -0.00044998250086791813, -0.0009206609101966023, -5.749344825744629, -0.017079729586839676, -0.03379180654883385, -0.7312750220298767, -0.813353419303894, -0.9861173033714294, 0.05716823413968086, -0.5317052348764303, -0.0483497984477026, 8.80960447232152, 9362.0, 30146.0, 35388.0, 9362.0, 8.152067184448242, 0.018380695953965187, -0.13390108942985535, 0.06334778666496277, -0.09241631627082825, -0.040287721902132034, 0.9946503043174744, -0.06830707937479019, -0.03959846496582031, 1.49267578125, 1.43115234375, 0.0766143798828125, 1.496337890625, 1.461181640625, 10.0, 1.0, 10.0, 1.4395630359649658
17399, 1.9126938581466675, 0.8693920373916626, -2.65254282951355, -0.0006289181765168905, -0.001274517853744328, -5.756659984588623, -0.0187075212597847, -0.036979541182518005, -0.7317842245101929, -0.8133738040924072, -0.9861709475517273, 0.05717751011252403, -0.5451295727855635, -0.06847276980187189, 8.830152754863564, 9362.0, 30146.0, 35388.0, 9362.0, 8.152067184448242, 0.039351046085357666, 0.31036198139190674, 0.1727382391691208, -0.09205706417560577, -0.04492682218551636, 0.9944291710853577, -0.06830707937479019, -0.03959846496582031, 1.49267578125, 1.415771484375, 0.0568695068359375, 1.496337890625, 1.42822265625, 10.0, 1.0, 10.0, 1.4395549297332764
17409, 1.913856863975525, 0.8681359887123108, -2.6517255306243896, -0.0008241250179708004, -0.0016602324321866035, -5.763980865478516, -0.020333826541900635, -0.040163375437259674, -0.7324003577232361, -0.81337571144104, -0.9861534237861633, 0.05717143788933754, -0.5445631183567404, -0.06786123343712802, 8.824608472732429, 9362.0, 30146.0, 35388.0, 9362.0, 8.152067184448242, -0.054758138954639435, -0.15689022839069366, -0.059595413506031036, -0.09349819272756577, -0.04459037259221077, 0.9953782558441162, -0.06830707937479019, -0.03959846496582031, 1.49267578125, 1.46923828125, 0.137359619140625, 1.489013671875, 1.446533203125, 10.0, 1.0, 10.0, 1.4395818710327148
17419, 1.9135147333145142, 0.8699452877044678, -2.653796434402466, -0.0010356074199080467, -0.0020777899771928787, -5.771307945251465, -0.02196262963116169, -0.043348152190446854, -0.7329902648925781, -0.8133839964866638, -0.9861578941345215, 0.057174038141965866, -0.5445023716194258, -0.06412653607262087, 8.837303860323354, 9362.0, 30146.0, 35388.0, 9362.0, 8.152067184448242, 0.019910378381609917, -0.17071060836315155, -0.17396700382232666, -0.09403368830680847, -0.04444172605872154, 0.9966934323310852, -0.07466736435890198, -0.12023735046386719, 1.486083984375, 1.44140625, 0.0914459228515625, 1.489013671875, 1.434814453125, 10.0, 1.0, 10.0, 1.4395291805267334
17429, 1.9135034084320068, 0.8725680112838745, -2.6540236473083496, -0.0012633827282115817, -0.0025272357743233442, -5.778639793395996, -0.02359253354370594, -0.04654093086719513, -0.733397364616394, -0.813390851020813, -0.9861526489257812, 0.057178743183612823, -0.5475688256427018, -0.06866503447827199, 8.831583303811344, 9362.0, 30146.0, 35388.0, 9362.0, 8.152067184448242, 0.007503867149353027, -0.11134577542543411, 0.14757631719112396, -0.0927836075425148, -0.0422048456966877, 0.9956777691841125, -0.07466736435890198, -0.12023735046386719, 1.486083984375, 1.418701171875, 0.0603485107421875, 1.490478515625, 1.435546875, 10.0, 1.0, 10.0, 1.439500093460083
17439, 1.913749098777771, 0.8722160458564758, -2.6538050174713135, -0.001507470617070794, -0.003008600790053606, -5.785975933074951, -0.025225026533007622, -0.04973206669092178, -0.7338327169418335, -0.8133518695831299, -0.9861119985580444, 0.057158615440130234, -0.5273541705996261, -0.05015493711979957, 8.809427200215989, 9362.0, 30146.0, 35388.0, 9362.0, 8.152067184448242, -0.05198913812637329, -0.03195395693182945, -0.08055280148983002, -0.0933268591761589, -0.040935758501291275, 0.9946573376655579, -0.07466736435890198, -0.12023735046386719, 1.486083984375, 1.40478515625, 0.0446624755859375, 1.490478515625, 1.43115234375, 10.0, 1.0, 10.0, 1.4395272731781006
17449, 1.9146088361740112, 0.8726102709770203, -2.655161142349243, -0.0017678916919976473, -0.0035218484699726105, -5.7933173179626465, -0.026859182864427567, -0.0529174879193306, -0.7344356775283813, -0.8133784532546997, -0.9861584305763245, 0.057178352028131485, -0.5480291559363424, -0.06236261544250965, 8.830641073319866, 9362.0, 30146.0, 35388.0, 9362.0, 8.152067184448242, -0.01588490605354309, 0.2962363660335541, 0.628548264503479, -0.092422254383564, -0.04418082907795906, 0.9937986135482788, -0.07466736435890198, -0.12023735046386719, 1.486083984375, 1.439208984375, 0.0882415771484375, 1.491943359375, 1.44873046875, 10.0, 1.0, 10.0, 1.4395098686218262
17459, 1.9147390127182007, 0.872481107711792, -2.65327787399292, -0.0020446532871574163, -0.004066956229507923, -5.80066442489624, -0.02849319577217102, -0.056104037910699844, -0.7350166440010071, -0.8133766055107117, -0.9861507415771484, 0.057170551270246506, -0.5466697315125004, -0.06328144588576379, 8.821125110412968, 9362.0, 30146.0, 35388.0, 9362.0, 8.152067184448242, 0.01710626482963562, 0.03534800186753273, -0.030493253841996193, -0.09308367967605591, -0.042231347411870956, 0.9955390691757202, -0.07466736435890198, -0.12023735046386719, 1.486083984375, 1.44580078125, 0.098236083984375, 1.491943359375, 1.4091796875, 10.0, 1.0, 10.0, 1.4394925832748413
17469, 1.9140067100524902, 0.8705354928970337, -2.653082847595215, -0.002337757032364607, -0.0046439324505627155, -5.808017730712891, -0.03012743778526783, -0.059291280806064606, -0.735622227191925, -0.813380777835846, -0.9861572980880737, 0.0571814700961113, -0.5468617062356889, -0.06859744278980884, 8.834402549383055, 9362.0, 30146.0, 35388.0, 9362.0, 8.152067184448242, 0.21379782259464264, 0.4980461895465851, 0.20909519493579865, -0.09261806309223175, -0.04207707941532135, 0.9947831630706787, -0.07466736435890198, -0.12023735046386719, 1.486083984375, 1.411376953125, 0.05181884765625, 1.490478515625, 1.428955078125, 10.0, 1.0, 10.0, 1.439454197883606
17479, 1.9138178825378418, 0.8703526854515076, -2.6511971950531006, -0.0026472059544175863, -0.005252791102975607, -5.8153767585754395, -0.031762342900037766, -0.062480438500642776, -0.7361761927604675, -0.8133535385131836, -0.9861108660697937, 0.05714729428291321, -0.5316744162402275, -0.04651640383306699, 8.812006089738409, 9362.0, 30146.0, 35388.0, 9362.0, 8.152067184448242, 0.07835716754198074, 0.13336582481861115, -0.05391130596399307, -0.09347856789827347, -0.04344911500811577, 0.9944016933441162, -0.07466736435890198, -0.12023735046386719, 1.486083984375, 1.42529296875, 0.0688018798828125, 1.490478515625, 1.427490234375, 10.0, 1.0, 10.0, 1.4395142793655396
17489, 1.9131064414978027, 0.8699108958244324, -2.649937391281128, -0.0029729832895100117, -0.005893528927117586, -5.822741508483887, -0.033393021672964096, -0.06566713750362396, -0.736773669719696, -0.8133382201194763, -0.9861046075820923, 0.05714847519993782, -0.5294307524028653, -0.048263236873197, 8.807708058127714, 9362.0, 30146.0, 35388.0, 9362.0, 8.152067184448242, 0.0924621969461441, -0.04327913001179695, -0.042650897055864334, -0.09143944829702377, -0.044022586196660995, 0.9960569143295288, -0.07466736435890198, -0.12023735046386719, 1.486083984375, 1.426025390625, 0.069732666015625, 1.487548828125, 1.443603515625, 10.0, 1.0, 10.0, 1.4394501447677612
17499, 1.9133813381195068, 0.8710739016532898, -2.6516172885894775, -0.0033150657545775175, -0.0065661328844726086, -5.830111980438232, -0.03502339497208595, -0.06885374337434769, -0.7373663187026978, -0.8133779764175415, -0.9861549139022827, 0.0571569949388504, -0.5489743617731413, -0.06730765278439321, 8.831620406141088, 9362.0, 30146.0, 35388.0, 9362.0, 8.152067184448242, 0.031349968165159225, 0.2283027023077011, -0.16777347028255463, -0.09266188740730286, -0.04112350568175316, 0.9965792298316956, -0.07466736435890198, -0.12023735046386719, 1.486083984375, 1.459716796875, 0.120849609375, 1.487548828125, 1.4033203125, 10.0, 1.0, 10.0, 1.439358115196228
17509, 1.9140968322753906, 0.869647741317749, -2.6529717445373535, -0.0036734635941684246, -0.007270628586411476, -5.837487697601318, -0.03665624186396599, -0.07204537093639374, -0.7377673387527466, -0.8133487105369568, -0.9860987067222595, 0.05714736133813858, -0.5337380060800994, -0.04943075032502975, 8.81221360941646, 9362.0, 30146.0, 35388.0, 9362.0, 8.152067184448242, -0.10197263211011887, -0.10534867644309998, -0.2563140392303467, -0.09151874482631683, -0.04007350280880928, 0.9957126975059509, -0.07466736435890198, -0.12023735046386719, 1.486083984375, 1.4560546875, 0.1147003173828125, 1.48974609375, 1.44873046875, 10.0, 1.0, 10.0, 1.4393856525421143
17519, 1.9141672849655151, 0.8689396381378174, -2.6555886268615723, -0.00404819892719388, -0.008007039315998554, -5.844867706298828, -0.03829088434576988, -0.0752367228269577, -0.738186776638031, -0.8133694529533386, -0.98615562915802, 0.057164598256349564, -0.5445082554912598, -0.07693738377173531, 8.82743495554851, 9362.0, 30146.0, 35388.0, 9362.0, 8.17190170288086, 0.04044371470808983, 0.31313562393188477, -0.2652495801448822, -0.09265770763158798, -0.04070563614368439, 0.9922466278076172, -0.062264375388622284, -0.14711761474609375, 1.48388671875, 1.406982421875, 0.046966552734375, 1.48974609375, 1.45166015625, 10.0, 1.0, 10.0, 1.4392564296722412
17529, 1.9134306907653809, 0.8695947527885437, -2.6553962230682373, -0.004439250100404024, -0.008775332942605019, -5.852252960205078, -0.03991945832967758, -0.07842184603214264, -0.7388356924057007, -0.8133547306060791, -0.9861044883728027, 0.0571461096405983, -0.5309495921924913, -0.0476997217904227, 8.810131744061298, 9362.0, 30146.0, 35388.0, 9362.0, 8.17190170288086, 0.06355350464582443, -0.4233912527561188, 0.2914843261241913, -0.09333820641040802, -0.04189566150307655, 0.9925470352172852, -0.062264375388622284, -0.14711761474609375, 1.48388671875, 1.46337890625, 0.1270751953125, 1.49267578125, 1.390869140625, 10.0, 1.0, 10.0, 1.4392352104187012
17539, 1.9139721393585205, 0.8697896003723145, -2.6538870334625244, -0.004846569616347551, -0.009575455449521542, -5.859645366668701, -0.041544459760189056, -0.0816025510430336, -0.7396249771118164, -0.8133754730224609, -0.9861522316932678, 0.05717255920171738, -0.5512110424030008, -0.06391281822121186, 8.825319031388565, 9362.0, 30146.0, 35388.0, 9362.0, 8.17190170288086, 0.24529021978378296, 0.3845131993293762, 0.04500248655676842, -0.09403809905052185, -0.04323027655482292, 0.9941838979721069, -0.062264375388622284, -0.14711761474609375, 1.48388671875, 1.464111328125, 0.1283111572265625, 1.49267578125, 1.41650390625, 10.0, 1.0, 10.0, 1.4392958879470825
17549, 1.91469144821167, 0.869205892086029, -2.654803514480591, -0.005270151421427727, -0.01040739193558693, -5.867044925689697, -0.04317186027765274, -0.08478479087352753, -0.7403293251991272, -0.8133517503738403, -0.9861066937446594, 0.057138822972774506, -0.5339146795797725, -0.047041497680964994, 8.804121138244547, 9362.0, 30146.0, 35388.0, 9362.0, 8.17190170288086, -0.053064510226249695, 0.06761099398136139, -0.14688143134117126, -0.09403809905052185, -0.04323027655482292, 0.9941838979721069, -0.062264375388622284, -0.14711761474609375, 1.48388671875, 1.418701171875, 0.0603485107421875, 1.491943359375, 1.462646484375, 10.0, 1.0, 10.0, 1.439188003540039
17559, 1.914795160293579, 0.8686741590499878, -2.6555769443511963, -0.005270151421427727, -0.01040739193558693, -5.867044925689697, -0.04317186027765274, -0.08478479087352753, -0.7403293251991272, -0.8133789300918579, -0.9861490726470947, 0.05716229975223541, -0.547708160131955, -0.0691369016960266, 8.834305512531692, 9362.0, 30146.0, 35388.0, 9362.0, 8.17190170288086, -0.053064510226249695, 0.06761099398136139, -0.14688143134117126, -0.09403809905052185, -0.04323027655482292, 0.9941838979721069, -0.062264375388622284, -0.14711761474609375, 1.48388671875, 1.4208984375, 0.063079833984375, 1.491943359375, 1.462646484375, 10.0, 1.0, 10.0, 1.439188003540039
17569, 1.914071798324585, 0.8710198998451233, -2.6552481651306152, -0.005270151421427727, -0.01040739193558693, -5.867044925689697, -0.04317186027765274, -0.08478479087352753, -0.7403293251991272, -0.8133413195610046, -0.9860941171646118, 0.05714048072695732, -0.5346391425932879, -0.05544578567301528, 8.807868640280713, 9362.0, 30146.0, 35388.0, 9362.0, 8.17190170288086, -0.053064510226249695, 0.06761099398136139, -0.14688143134117126, -0.09245232492685318, -0.04140089824795723, 0.9947263598442078, -0.062264375388622284, -0.14711761474609375, 1.48388671875, 1.4208984375, 0.063079833984375, 1.491943359375, 1.462646484375, 10.0, 1.0, 10.0, 1.4391250610351562
17579, 1.914040207862854, 0.8705981373786926, -2.656675100326538, -0.006638622377067804, -0.013094368390738964, -5.889281749725342, -0.04806011915206909, -0.09435147047042847, -0.74199378490448, -0.813365638256073, -0.9861592650413513, 0.05717158690094948, -0.5509837143053044, -0.07418996235097097, 8.82966958769496, 9362.0, 30146.0, 35388.0, 9362.0, 8.17190170288086, 0.004675736650824547, -0.07119336724281311, -0.18823592364788055, -0.09245232492685318, -0.04140089824795723, 0.9947263598442078, -0.062264375388622284, -0.14711761474609375, 1.48388671875, 1.4208984375, 0.063079833984375, 1.491943359375, 1.462646484375, 10.0, 1.0, 10.0, 1.4391790628433228
17589, 1.9132044315338135, 0.8731558918952942, -2.6569647789001465, -0.006638622377067804, -0.013094368390738964, -5.889281749725342, -0.04806011915206909, -0.09435147047042847, -0.74199378490448, -0.8133761882781982, -0.986149251461029, 0.057168636471033096, -0.5465118516952104, -0.0667909177425372, 8.838517004450118, 9362.0, 30146.0, 35388.0, 9362.0, 8.17190170288086, -0.07992902398109436, -0.12516571581363678, 0.03478670492768288, -0.0934336930513382, -0.04080843925476074, 0.9945443868637085, -0.062264375388622284, -0.14711761474609375, 1.48388671875, 1.4208984375, 0.063079833984375, 1.49267578125, 1.462646484375, 10.0, 1.0, 10.0, 1.4392025470733643
17599, 1.9128483533859253, 0.8733954429626465, -2.6562516689300537, -0.007632459979504347, -0.015045135281980038, -5.904133319854736, -0.05132319778203964, -0.10072499513626099, -0.7431793212890625, -0.8133597373962402, -0.9860987067222595, 0.05713749676942825, -0.5319912626593879, -0.05271791398553205, 8.815616491001913, 9362.0, 30146.0, 35388.0, 9362.0, 8.17190170288086, -0.030983613803982735, -0.12021215260028839, 0.05515125393867493, -0.0934336930513382, -0.04080843925476074, 0.9945443868637085, -0.062264375388622284, -0.14711761474609375, 1.48388671875, 1.4208984375, 0.063079833984375, 1.49267578125, 1.462646484375, 10.0, 1.0, 10.0, 1.439139485359192
17609, 1.9128398895263672, 0.8738191723823547, -2.6553573608398438, -0.007632459979504347, -0.015045135281980038, -5.904133319854736, -0.05132319778203964, -0.10072499513626099, -0.7431793212890625, -0.8133635520935059, -0.986149787902832, 0.0571599155664444, -0.5459207990016672, -0.07109707291596123, 8.83056897232953, 9362.0, 30146.0, 35388.0, 9362.0, 8.17190170288086, 0.0898665264248848, 0.1744394451379776, 0.0818113386631012, -0.0934336930513382, -0.04080843925476074, 0.9945443868637085, -0.062264375388622284, -0.14711761474609375, 1.48388671875, 1.418701171875, 0.0603485107421875, 1.49267578125, 1.462646484375, 10.0, 1.0, 10.0, 1.439090609550476
17619, 1.9139059782028198, 0.87269127368927, -2.6553876399993896, -0.008691632188856602, -0.017123328521847725, -5.919009208679199, -0.0545940175652504, -0.10709395259618759, -0.7443876266479492, -0.8133723735809326, -0.9861500263214111, 0.0571492500603199, -0.5463172366466319, -0.06470730608987196, 8.827765582026332, 9362.0, 30146.0, 35388.0, 9362.0, 8.152067184448242, 0.0898665264248848, 0.1744394451379776, 0.0818113386631012, -0.0934336930513382, -0.04080843925476074, 0.9945443868637085, -0.06806614995002747, -0.021678924560546875, 1.494140625, 1.418701171875, 0.0603485107421875, 1.49267578125, 1.462646484375, 10.0, 1.0, 10.0, 1.439090609550476
17629, 1.9157944917678833, 0.8729107975959778, -2.656937837600708, -0.008691632188856602, -0.017123328521847725, -5.919009208679199, -0.0545940175652504, -0.10709395259618759, -0.7443876266479492, -0.8133728504180908, -0.9861498475074768, 0.057162415236234665, -0.549735245150624, -0.07136065863485896, 8.82950295752182, 9362.0, 30146.0, 35388.0, 9362.0, 8.152067184448242, -0.17878882586956024, -0.4084843695163727, -0.08824343979358673, -0.09180612862110138, -0.04316791892051697, 0.996561586856842, -0.06806614995002747, -0.021678924560546875, 1.494140625, 1.418701171875, 0.0603485107421875, 1.49267578125, 1.462646484375, 10.0, 1.0, 10.0, 1.439090609550476
17639, 1.9156577587127686, 0.8741167187690735, -2.65739369392395, -0.008691632188856602, -0.017123328521847725, -5.919009208679199, -0.0545940175652504, -0.10709395259618759, -0.7443876266479492, -0.813374400138855, -0.9861530661582947, 0.05715927109122276, -0.5447836992110325, -0.06525549621318305, 8.83152724402872, 9362.0, 30146.0, 35388.0, 9362.0, 8.152067184448242, 0.0034361970610916615, 0.07417459040880203, 0.21974654495716095, -0.09337104111909866, -0.04273534193634987, 0.9965428113937378, -0.06806614995002747, -0.021678924560546875, 1.494140625, 1.418701171875, 0.0603485107421875, 1.49267578125, 1.462646484375, 10.0, 1.0, 10.0, 1.4389842748641968
17649, 1.915276050567627, 0.870169460773468, -2.653007745742798, -0.008691632188856602, -0.017123328521847725, -5.919009208679199, -0.0545940175652504, -0.10709395259618759, -0.7443876266479492, -0.8133533000946045, -0.9860992431640625, 0.05712815001606941, -0.532413116215696, -0.05482125478832245, 8.81298372835448, 9362.0, 30146.0, 35388.0, 9362.0, 8.152067184448242, -0.1665998101234436, 0.6529829502105713, 0.2828221023082733, -0.09337104111909866, -0.04273534193634987, 0.9965428113937378, -0.06806614995002747, -0.021678924560546875, 1.494140625, 1.418701171875, 0.0603485107421875, 1.49267578125, 1.462646484375, 10.0, 1.0, 10.0, 1.4389756917953491
17659, 1.9157018661499023, 0.8683655261993408, -2.6520023345947266, -0.008691632188856602, -0.017123328521847725, -5.919009208679199, -0.0545940175652504, -0.10709395259618759, -0.7443876266479492, -0.8133679628372192, -0.9861529469490051, 0.05716455727815628, -0.5518703950130581, -0.06550289019293132, 8.83969300905, 9362.0, 30146.0, 35388.0, 9362.0, 8.152067184448242, 0.05523021146655083, -0.10829898715019226, 0.12936998903751373, -0.09337104111909866, -0.04273534193634987, 0.9965428113937378, -0.06806614995002747, -0.021678924560546875, 1.494140625, 1.402587890625, 0.0425262451171875, 1.49267578125, 1.462646484375, 10.0, 1.0, 10.0, 1.4390161037445068
17669, 1.9155398607254028, 0.86821049451828, -2.6528258323669434, -0.008691632188856602, -0.017123328521847725, -5.919009208679199, -0.0545940175652504, -0.10709395259618759, -0.7443876266479492, -0.8133473992347717, -0.9860961437225342, 0.05715176835656166, -0.52996659397015, -0.04775961105804072, 8.80734992934156, 9362.0, 30146.0, 35388.0, 9362.0, 8.152067184448242, -0.03837243840098381, 0.2954079210758209, -0.2648738622665405, -0.09337104111909866, -0.04273534193634987, 0.9965428113937378, -0.06806614995002747, -0.021678924560546875, 1.494140625, 1.402587890625, 0.0425262451171875, 1.494873046875, 1.462646484375, 10.0, 1.0, 10.0, 1.4390161037445068
17679, 1.916555643081665, 0.8680343627929688, -2.6556649208068848, -0.008691632188856602, -0.017123328521847725, -5.919009208679199, -0.0545940175652504, -0.10709395259618759, -0.7443876266479492, -0.813383162021637, -0.9861530065536499, 0.05715285241603851, -0.5483127150875527, -0.06952970724640295, 8.82934276451146, 9362.0, 30146.0, 35388.0, 9362.0, 8.152067184448242, 0.006042389664798975, -0.07337064296007156, 0.09592222422361374, -0.09334681928157806, -0.04302802309393883, 0.9956345558166504, -0.06806614995002747, -0.021678924560546875, 1.494140625, 1.399658203125, 0.0396575927734375, 1.494873046875, 1.462646484375, 10.0, 1.0, 10.0, 1.4390161037445068
17689, 1.9177871942520142, 0.8668913245201111, -2.6551082134246826, -0.008691632188856602, -0.017123328521847725, -5.919009208679199, -0.0545940175652504, -0.10709395259618759, -0.7443876266479492, -0.8133558630943298, -0.986101508140564, 0.05712619051337242, -0.5355073079692738, -0.057036697111271906, 8.816417532548906, 9362.0, 30146.0, 35388.0, 9362.0, 8.152067184448242, 0.006042389664798975, -0.07337064296007156, 0.09592222422361374, -0.09257198125123978, -0.04213979095220566, 0.9946625828742981, -0.06806614995002747, -0.021678924560546875, 1.494140625, 1.399658203125, 0.0396575927734375, 1.494873046875, 1.462646484375, 10.0, 1.0, 10.0, 1.43892240524292
17699, 1.9176164865493774, 0.8666802644729614, -2.6542739868164062, -0.008691632188856602, -0.017123328521847725, -5.919009208679199, -0.0545940175652504, -0.10709395259618759, -0.7443876266479492, -0.813374400138855, -0.9861462712287903, 0.057167068123817444, -0.5466573895480643, -0.06862415169629799, 8.82649341336777, 9362.0, 30146.0, 35388.0, 9362.0, 8.152067184448242, 0.006042389664798975, -0.07337064296007156, 0.09592222422361374, -0.09257198125123978, -0.04213979095220566, 0.9946625828742981, -0.06806614995002747, -0.021678924560546875, 1.494140625, 1.399658203125, 0.0396575927734375, 1.494873046875, 1.462646484375, 10.0, 1.0, 10.0, 1.438869595527649
17709, 1.9178463220596313, 0.864521324634552, -2.654146671295166, -0.008691632188856602, -0.017123328521847725, -5.919009208679199, -0.0545940175652504, -0.10709395259618759, -0.7443876266479492, -0.8133885264396667, -0.9861462712287903, 0.05715465918183327, -0.5506762842037963, -0.06930006179203474, 8.833865888171415, 9362.0, 30146.0, 35388.0, 9362.0, 8.152067184448242, 0.0528973788022995, -0.05123687908053398, 0.01758013479411602, -0.09240005910396576, -0.0431649312376976, 0.9946942329406738, -0.06806614995002747, -0.021678924560546875, 1.494140625, 1.42822265625, 0.0726470947265625, 1.494873046875, 1.462646484375, 10.0, 1.0, 10.0, 1.438869595527649
17719, 1.9190232753753662, 0.8628565073013306, -2.6537516117095947, -0.008691632188856602, -0.017123328521847725, -5.919009208679199, -0.0545940175652504, -0.10709395259618759, -0.7443876266479492, -0.8133730292320251, -0.9861512184143066, 0.05715753883123398, -0.5485342653236375, -0.06925919794659308, 8.825913218449157, 9362.0, 30146.0, 35388.0, 9362.0, 8.17190170288086, 0.26950541138648987, 0.19845055043697357, -0.016701629385352135, -0.09143351763486862, -0.043070077896118164, 0.9967480897903442, -0.06806614995002747, -0.021678924560546875, 1.494140625, 1.42822265625, 0.0726470947265625, 1.494873046875, 1.462646484375, 10.0, 1.0, 10.0, 1.438869595527649
17729, 1.9186100959777832, 0.8616796135902405, -2.654772996902466, -0.008691632188856602, -0.017123328521847725, -5.919009208679199, -0.0545940175652504, -0.10709395259618759, -0.7443876266479492, -0.8133584260940552, -0.9861508011817932, 0.057177282869815826, -0.550382186130286, -0.06747848910762855, 8.82549815842624, 9362.0, 30146.0, 35388.0, 9362.0, 8.17190170288086, -0.07189565896987915, -0.25703704357147217, -0.243844673037529, -0.09143351763486862, -0.043070077896118164, 0.9967480897903442, -0.06806614995002747, -0.021678924560546875, 1.494140625, 1.42822265625, 0.0726470947265625, 1.494873046875, 1.462646484375, 10.0, 1.0, 10.0, 1.4387147426605225
17739, 1.9193278551101685, 0.8613330721855164, -2.6541597843170166, -0.016418930143117905, -0.032272499054670334, -6.008702278137207, -0.07415412366390228, -0.1454104781150818, -0.7505578398704529, -0.8133631348609924, -0.9861552715301514, 0.05716224014759064, -0.5506115526933548, -0.06647842501632795, 8.820999637956191, 9362.0, 30146.0, 35388.0, 9362.0, 8.17190170288086, -0.20001696050167084, -0.07006411254405975, -0.08015741407871246, -0.0920291393995285, -0.041581906378269196, 0.9937854409217834, -0.06806614995002747, -0.021678924560546875, 1.494140625, 1.42822265625, 0.0726470947265625, 1.494873046875, 1.462646484375, 10.0, 1.0, 10.0, 1.4387147426605225
17749, 1.9189743995666504, 0.8593344688415527, -2.6538469791412354, -0.016418930143117905, -0.032272499054670334, -6.008702278137207, -0.07415412366390228, -0.1454104781150818, -0.7505578398704529, -0.8133464455604553, -0.9861509799957275, 0.0571814626455307, -0.5525091396091455, -0.06366751029025863, 8.820960996058917, 9362.0, 30146.0, 35388.0, 9362.0, 8.17190170288086, -0.04988507181406021, -0.21918822824954987, 0.0880521833896637, -0.0920291393995285, -0.041581906378269196, 0.9937854409217834, -0.06806614995002747, -0.021678924560546875, 1.494140625, 1.42822265625, 0.0726470947265625, 1.494873046875, 1.462646484375, 10.0, 1.0, 10.0, 1.4385709762573242
17759, 1.9178162813186646, 0.8586830496788025, -2.6533968448638916, -0.017934313043951988, -0.03524458035826683, -6.023726463317871, -0.07738346606492996, -0.15179722011089325, -0.7518995404243469, -0.8133475184440613, -0.9861529469490051, 0.05716986954212189, -0.5451938456176448, -0.06847522497696445, 8.820458167121659, 9362.0, 30146.0, 35388.0, 9362.0, 8.17190170288086, -0.07972358912229538, 0.5227465033531189, 0.4195895195007324, -0.0920291393995285, -0.041581906378269196, 0.9937854409217834, -0.06806614995002747, -0.021678924560546875, 1.494140625, 1.42822265625, 0.0726470947265625, 1.494873046875, 1.462646484375, 10.0, 1.0, 10.0, 1.4385730028152466
17769, 1.916974663734436, 0.8586714863777161, -2.6526381969451904, -0.017934313043951988, -0.03524458035826683, -6.023726463317871, -0.07738346606492996, -0.15179722011089325, -0.7518995404243469, -0.8133349418640137, -0.9860912561416626, 0.0571378692984581, -0.5305271682326188, -0.05710358583735342, 8.803367187595201, 9362.0, 30146.0, 35388.0, 9362.0, 8.17190170288086, 0.07240744680166245, 0.12362069636583328, 0.19422289729118347, -0.0906505137681961, -0.041356805711984634, 0.9939875602722168, -0.06806614995002747, -0.021678924560546875, 1.494140625, 1.41650390625, 0.0577545166015625, 1.494873046875, 1.462646484375, 10.0, 1.0, 10.0, 1.438572645187378
17779, 1.9174139499664307, 0.8586477637290955, -2.652787923812866, -0.017934313043951988, -0.03524458035826683, -6.023726463317871, -0.07738346606492996, -0.15179722011089325, -0.7518995404243469, -0.813355028629303, -0.9861440062522888, 0.057179003953933716, -0.5457945587490939, -0.06607562290099622, 8.823602355916357, 9362.0, 30146.0, 35388.0, 9362.0, 8.17190170288086, 0.07240744680166245, 0.12362069636583328, 0.19422289729118347, -0.0906505137681961, -0.041356805711984634, 0.9939875602722168, -0.06806614995002747, -0.021678924560546875, 1.494140625, 1.41650390625, 0.0577545166015625, 1.494873046875, 1.462646484375, 10.0, 1.0, 10.0, 1.438511610031128
17789, 1.917731523513794, 0.8600944876670837, -2.6526012420654297, -0.017934313043951988, -0.03524458035826683, -6.023726463317871, -0.07738346606492996, -0.15179722011089325, -0.7518995404243469, -0.8133561015129089, -0.9861512780189514, 0.05718043074011803, -0.5525207136106259, -0.06507230888465187, 8.83901546168928, 9362.0, 30146.0, 35388.0, 9362.0, 8.17190170288086, -0.06496026366949081, 0.11164310574531555, 0.04116784408688545, -0.09187323600053787, -0.04188206419348717, 0.99643874168396, -0.06806614995002747, -0.021678924560546875, 1.494140625, 1.449462890625, 0.103973388671875, 1.494873046875, 1.462646484375, 10.0, 1.0, 10.0, 1.438511610031128
17799, 1.9173368215560913, 0.8596986532211304, -2.653244972229004, -0.017934313043951988, -0.03524458035826683, -6.023726463317871, -0.07738346606492996, -0.15179722011089325, -0.7518995404243469, -0.8133524656295776, -0.9861479997634888, 0.05717301368713379, -0.5537663465912084, -0.06888097661510528, 8.838277863400727, 9362.0, 30146.0, 35388.0, 9362.0, 8.17190170288086, -0.06496026366949081, 0.11164310574531555, 0.04116784408688545, -0.09241185337305069, -0.039695218205451965, 0.9944792985916138, -0.06806614995002747, -0.021678924560546875, 1.494140625, 1.449462890625, 0.103973388671875, 1.494873046875, 1.462646484375, 10.0, 1.0, 10.0, 1.438429594039917
17809, 1.9187815189361572, 0.8585717082023621, -2.6527013778686523, -0.017934313043951988, -0.03524458035826683, -6.023726463317871, -0.07738346606492996, -0.15179722011089325, -0.7518995404243469, -0.8133580684661865, -0.9861384034156799, 0.05717835947871208, -0.5549142377167959, -0.07095585440012542, 8.836084539206498, 9362.0, 30146.0, 35388.0, 9362.0, 8.17190170288086, 0.04224594309926033, 0.1419595330953598, 0.05446931719779968, -0.09241185337305069, -0.039695218205451965, 0.9944792985916138, -0.06806614995002747, -0.021678924560546875, 1.494140625, 1.449462890625, 0.103973388671875, 1.490478515625, 1.462646484375, 10.0, 1.0, 10.0, 1.4385020732879639
17829, 1.9192860126495361, 0.8578911423683167, -2.64988374710083, -0.02286762371659279, -0.04492782801389694, -6.068933486938477, -0.08706161379814148, -0.17097502946853638, -0.7550320029258728, -0.8133701682090759, -0.9861376285552979, 0.05718398466706276, -0.5544799126401803, -0.06452068902603969, 8.844617286675502, 9362.0, 30146.0, 35388.0, 9362.0, 8.152067184448242, 0.028332464396953583, -0.13291363418102264, 0.06304849684238434, -0.09241185337305069, -0.039695218205451965, 0.9944792985916138, -0.06774383783340454, -0.08439826965332031, 1.489013671875, 1.435546875, 0.0829315185546875, 1.490478515625, 1.462646484375, 10.0, 1.0, 10.0, 1.438550591468811
17849, 1.9196434020996094, 0.8557125926017761, -2.648988723754883, -0.024641042575240135, -0.04841116815805435, -6.084048748016357, -0.09028075635433197, -0.17735813558101654, -0.7564646601676941, -0.8133639693260193, -0.9861315488815308, 0.05718747526407242, -0.5603475328487004, -0.06627655097940988, 8.84061918949154, 9362.0, 30146.0, 35388.0, 9362.0, 8.152067184448242, 0.15401995182037354, -0.11070016026496887, 0.12470152229070663, -0.09454615414142609, -0.0428193099796772, 0.9958981871604919, -0.06774383783340454, -0.08439826965332031, 1.489013671875, 1.389404296875, 0.03082275390625, 1.490478515625, 1.462646484375, 10.0, 1.0, 10.0, 1.438517689704895
17859, 1.9209827184677124, 0.851579487323761, -2.6486096382141113, -0.024641042575240135, -0.04841116815805435, -6.084048748016357, -0.09028075635433197, -0.17735813558101654, -0.7564646601676941, -0.8133448958396912, -0.9860739707946777, 0.057168420404195786, -0.5430849271395815, -0.049217142430393324, 8.820160411315262, 9362.0, 30146.0, 35388.0, 9362.0, 8.152067184448242, 0.15401995182037354, -0.11070016026496887, 0.12470152229070663, -0.09374765306711197, -0.04397251829504967, 0.9957768321037292, -0.06774383783340454, -0.08439826965332031, 1.489013671875, 1.389404296875, 0.03082275390625, 1.490478515625, 1.462646484375, 10.0, 1.0, 10.0, 1.438454508781433
17869, 1.921852946281433, 0.8502097725868225, -2.6481380462646484, -0.024641042575240135, -0.04841116815805435, -6.084048748016357, -0.09028075635433197, -0.17735813558101654, -0.7564646601676941, -0.8133849501609802, -0.9861257076263428, 0.05720113217830658, -0.559079308498617, -0.067674744361085, 8.846798221748543, 9362.0, 30146.0, 35388.0, 9362.0, 8.152067184448242, 0.040069036185741425, 0.3180106282234192, 0.005810745060443878, -0.09374765306711197, -0.04397251829504967, 0.9957768321037292, -0.06774383783340454, -0.08439826965332031, 1.489013671875, 1.389404296875, 0.03082275390625, 1.491943359375, 1.462646484375, 10.0, 1.0, 10.0, 1.4384359121322632
17879, 1.922173261642456, 0.8472778797149658, -2.6479368209838867, -0.024641042575240135, -0.04841116815805435, -6.084048748016357, -0.09028075635433197, -0.17735813558101654, -0.7564646601676941, -0.8133862614631653, -0.986133873462677, 0.05719469487667084, -0.5613093940243469, -0.060275544436251494, 8.84218824828342, 9362.0, 30146.0, 35388.0, 9362.0, 8.152067184448242, 0.0424773134291172, 0.38975074887275696, 0.27516573667526245, -0.09374765306711197, -0.04397251829504967, 0.9957768321037292, -0.06774383783340454, -0.08439826965332031, 1.489013671875, 1.389404296875, 0.03082275390625, 1.491943359375, 1.462646484375, 10.0, 1.0, 10.0, 1.4384430646896362
17889, 1.9224497079849243, 0.8451873660087585, -2.646338939666748, -0.024641042575240135, -0.04841116815805435, -6.084048748016357, -0.09028075635433197, -0.17735813558101654, -0.7564646601676941, -0.8133927583694458, -0.986128568649292, 0.05718596279621124, -0.5622717860687433, -0.059386673190715555, 8.845474027204325, 9362.0, 30146.0, 35388.0, 9362.0, 8.152067184448242, 0.05941912159323692, 0.04921739175915718, 0.2026156783103943, -0.09051729738712311, -0.0404243990778923, 0.9938812255859375, -0.06774383783340454, -0.08439826965332031, 1.489013671875, 1.41064453125, 0.0509490966796875, 1.491943359375, 1.462646484375, 10.0, 1.0, 10.0, 1.4384430646896362
17909, 1.92296302318573, 0.8466517925262451, -2.645190477371216, -0.024641042575240135, -0.04841116815805435, -6.084048748016357, -0.09028075635433197, -0.17735813558101654, -0.7564646601676941, -0.813401997089386, -0.9861242175102234, 0.057201091200113297, -0.5635367424191459, -0.04694808361941227, 8.84766236478552, 9362.0, 30146.0, 35388.0, 9362.0, 8.152067184448242, 0.013145997188985348, -0.09326595067977905, 0.26908767223358154, -0.09189563989639282, -0.04232940822839737, 0.9942353963851929, -0.06774383783340454, -0.08439826965332031, 1.489013671875, 1.41064453125, 0.0509490966796875, 1.4912109375, 1.462646484375, 10.0, 1.0, 10.0, 1.4383736848831177
17919, 1.9229106903076172, 0.8468206524848938, -2.6441869735717773, -0.03237709030508995, -0.06362476944923401, -6.144716739654541, -0.10308030992746353, -0.2029862403869629, -0.7604846358299255, -0.813411295413971, -0.9861156344413757, 0.05720536783337593, -0.5643480464683601, -0.042946794168983615, 8.84321030432734, 9362.0, 30146.0, 35388.0, 9362.0, 8.152067184448242, 0.12253174930810928, 0.1486777812242508, 0.0958983451128006, -0.09189563989639282, -0.04232940822839737, 0.9942353963851929, -0.07244538515806198, 0.07688140869140625, 1.502197265625, 1.41064453125, 0.0509490966796875, 1.4912109375, 1.462646484375, 10.0, 1.0, 10.0, 1.4383736848831177
17929, 1.922979474067688, 0.8440960645675659, -2.643226146697998, -0.03237709030508995, -0.06362476944923401, -6.144716739654541, -0.10308030992746353, -0.2029862403869629, -0.7604846358299255, -0.8134030103683472, -0.9861270189285278, 0.05721746012568474, -0.5602184647376207, -0.04718199618548624, 8.852326574786511, 9362.0, 30146.0, 35388.0, 9362.0, 8.152067184448242, 0.07873442769050598, 0.3779817223548889, 0.20328308641910553, -0.09417051821947098, -0.041203804314136505, 0.9958434104919434, -0.07244538515806198, 0.07688140869140625, 1.502197265625, 1.41064453125, 0.0509490966796875, 1.4912109375, 1.462646484375, 10.0, 1.0, 10.0, 1.4382482767105103
17939, 1.922010898590088, 0.8439766764640808, -2.641690254211426, -0.03237709030508995, -0.06362476944923401, -6.144716739654541, -0.10308030992746353, -0.2029862403869629, -0.7604846358299255, -0.8134263753890991, -0.9861181378364563, 0.05720945820212364, -0.5678572172048775, -0.041138324861378806, 8.851400781335512, 9362.0, 30146.0, 35388.0, 9362.0, 8.152067184448242, 0.07873442769050598, 0.3779817223548889, 0.20328308641910553, -0.09211920946836472, -0.04201339930295944, 0.9945558309555054, -0.07244538515806198, 0.07688140869140625, 1.502197265625, 1.41064453125, 0.0509490966796875, 1.4912109375, 1.462646484375, 10.0, 1.0, 10.0, 1.4381487369537354
17959, 1.923607587814331, 0.8428534865379333, -2.6412980556488037, -0.03237709030508995, -0.06362476944923401, -6.144716739654541, -0.10308030992746353, -0.2029862403869629, -0.7604846358299255, -0.8134262561798096, -0.9861167669296265, 0.057209696620702744, -0.5683265190910597, -0.03163078815325093, 8.844472984673612, 9362.0, 30146.0, 35388.0, 9362.0, 8.152067184448242, 0.08338949084281921, 0.15422813594341278, -0.22457490861415863, -0.09211920946836472, -0.04201339930295944, 0.9945558309555054, -0.07244538515806198, 0.07688140869140625, 1.502197265625, 1.41064453125, 0.0509490966796875, 1.48974609375, 1.462646484375, 10.0, 1.0, 10.0, 1.438052773475647
17969, 1.9234822988510132, 0.8410392999649048, -2.6411445140838623, -0.03237709030508995, -0.06362476944923401, -6.144716739654541, -0.10308030992746353, -0.2029862403869629, -0.7604846358299255, -0.8134292960166931, -0.9861226677894592, 0.057216618210077286, -0.569014923211591, -0.034248280684266774, 8.848266728949952, 9362.0, 30146.0, 35388.0, 9362.0, 8.152067184448242, 0.08338949084281921, 0.15422813594341278, -0.22457490861415863, -0.09133906662464142, -0.04024789482355118, 0.9941259622573853, -0.07244538515806198, 0.07688140869140625, 1.502197265625, 1.41650390625, 0.0577545166015625, 1.48974609375, 1.462646484375, 10.0, 1.0, 10.0, 1.438068151473999
17979, 1.9230167865753174, 0.8422911763191223, -2.640685558319092, -0.038847655057907104, -0.0763804242014885, -6.190461158752441, -0.11259543150663376, -0.22220273315906525, -0.7643449306488037, -0.8134334683418274, -0.9861140847206116, 0.057219989597797394, -0.5684874080858234, -0.02462780695032052, 8.845008049836022, 9362.0, 30146.0, 35388.0, 9362.0, 8.152067184448242, 0.12460166960954666, -0.4346231520175934, 0.26343438029289246, -0.09200677275657654, -0.04162559658288956, 0.9959224462509155, -0.07244538515806198, 0.07688140869140625, 1.502197265625, 1.41650390625, 0.0577545166015625, 1.48974609375, 1.462646484375, 10.0, 1.0, 10.0, 1.4381370544433594
17989, 1.9241710901260376, 0.8421889543533325, -2.6405107975006104, -0.038847655057907104, -0.0763804242014885, -6.190461158752441, -0.11259543150663376, -0.22220273315906525, -0.7643449306488037, -0.8134337067604065, -0.9861180782318115, 0.057201728224754333, -0.5685714297846864, -0.027950971157679305, 8.840259480007175, 9362.0, 30146.0, 35388.0, 9362.0, 8.152067184448242, 0.09160198271274567, -0.02592029981315136, 0.07771733403205872, -0.09200677275657654, -0.04162559658288956, 0.9959224462509155, -0.07244538515806198, 0.07688140869140625, 1.502197265625, 1.41650390625, 0.0577545166015625, 1.48974609375, 1.462646484375, 10.0, 1.0, 10.0, 1.4381370544433594
17999, 1.9252009391784668, 0.8423168063163757, -2.6383302211761475, -0.038847655057907104, -0.0763804242014885, -6.190461158752441, -0.11259543150663376, -0.22220273315906525, -0.7643449306488037, -0.8134182691574097, -0.9861205816268921, 0.057180240750312805, -0.5729543976400002, -0.025056127711820864, 8.8411376864194, 9362.0, 30146.0, 35388.0, 9362.0, 8.152067184448242, -0.03665273264050484, 0.08826503157615662, 0.1724972426891327, -0.09136752784252167, -0.04240010678768158, 0.9961373209953308, -0.07244538515806198, 0.07688140869140625, 1.502197265625, 1.447998046875, 0.1016693115234375, 1.48974609375, 1.462646484375, 10.0, 1.0, 10.0, 1.4381370544433594
18009, 1.9258594512939453, 0.842815101146698, -2.6355533599853516, -0.038847655057907104, -0.0763804242014885, -6.190461158752441, -0.11259543150663376, -0.22220273315906525, -0.7643449306488037, -0.813422441482544, -0.9861077070236206, 0.05719507485628128, -0.5692825837861591, -0.03138298299757025, 8.83755800783155, 9362.0, 30146.0, 35388.0, 9362.0, 8.152067184448242, -0.013066666200757027, 0.18766705691814423, 0.5347939133644104, -0.09136752784252167, -0.04240010678768158, 0.9961373209953308, -0.07244538515806198, 0.07688140869140625, 1.502197265625, 1.447998046875, 0.1016693115234375, 1.48974609375, 1.462646484375, 10.0, 1.0, 10.0, 1.438037633895874
18019, 1.9258707761764526, 0.843054473400116, -2.6298983097076416, -0.04347813129425049, -0.08552519232034683, -6.221076011657715, -0.11893144994974136, -0.23504239320755005, -0.7662854194641113, -0.8134260177612305, -0.9861088991165161, 0.057195570319890976, -0.5729713492696961, -0.03566821674235143, 8.84035860456993, 9362.0, 30146.0, 35388.0, 9362.0, 8.17190170288086, 0.2180229276418686, -0.3438444137573242, 0.7580624222755432, -0.09136752784252167, -0.04240010678768158, 0.9961373209953308, -0.07244538515806198, 0.07688140869140625, 1.502197265625, 1.447998046875, 0.1016693115234375, 1.48974609375, 1.462646484375, 10.0, 1.0, 10.0, 1.438037633895874
18029, 1.9264178276062012, 0.843009889125824, -2.622736692428589, -0.04347813129425049, -0.08552519232034683, -6.221076011657715, -0.11893144994974136, -0.23504239320755005, -0.7662854194641113, -0.8134104013442993, -0.9861178398132324, 0.057195037603378296, -0.5653780372289713, -0.035982777869719484, 8.835701598094275, 9362.0, 30146.0, 35388.0, 9362.0, 8.17190170288086, 0.11084058880805969, 0.14628289639949799, 0.5315342545509338, -0.09136752784252167, -0.04240010678768158, 0.9961373209953308, -0.07244538515806198, 0.07688140869140625, 1.502197265625, 1.447998046875, 0.1016693115234375, 1.4912109375, 1.462646484375, 10.0, 1.0, 10.0, 1.438063621520996
18039, 1.926904320716858, 0.841571569442749, -2.6120007038116455, -0.04588843509554863, -0.09029024839401245, -6.236413478851318, -0.12209729105234146, -0.24146029353141785, -0.7675262689590454, -0.8134075999259949, -0.9861236214637756, 0.05718828737735748, -0.5689928580409783, -0.03816093511315444, 8.829044449525957, 9362.0, 30146.0, 35388.0, 9362.0, 8.17190170288086, 0.22243836522102356, 0.11146920919418335, 1.2980694770812988, -0.09136752784252167, -0.04240010678768158, 0.9961373209953308, -0.07244538515806198, 0.07688140869140625, 1.502197265625, 1.447998046875, 0.1016693115234375, 1.4912109375, 1.462646484375, 10.0, 1.0, 10.0, 1.4380136728286743
18049, 1.9286718368530273, 0.8384824991226196, -2.6054904460906982, -0.04588843509554863, -0.09029024839401245, -6.236413478851318, -0.12209729105234146, -0.24146029353141785, -0.7675262689590454, -0.813395619392395, -0.9861119389533997, 0.05719343572854996, -0.5628116099347311, -0.04600025648537098, 8.827560910861857, 9362.0, 30146.0, 35388.0, 9362.0, 8.17190170288086, 0.2847703993320465, 0.11842425912618637, 0.21894685924053192, -0.09361617267131805, -0.039016395807266235, 0.9965859055519104, -0.07244538515806198, 0.07688140869140625, 1.502197265625, 1.447998046875, 0.1016693115234375, 1.49560546875, 1.462646484375, 10.0, 1.0, 10.0, 1.4380407333374023
18069, 1.9277586936950684, 0.8359043598175049, -2.5855419635772705, -0.04588843509554863, -0.09029024839401245, -6.236413478851318, -0.12209729105234146, -0.24146029353141785, -0.7675262689590454, -0.813386857509613, -0.9861177802085876, 0.05716962739825249, -0.5716995075477005, -0.05258931714104165, 8.82216521771389, 9362.0, 30146.0, 35388.0, 9362.0, 8.17190170288086, -0.1817978471517563, -0.4856923818588257, 0.45829644799232483, -0.09639677405357361, -0.0416007861495018, 0.9940943717956543, -0.07244538515806198, 0.07688140869140625, 1.502197265625, 1.447998046875, 0.1016693115234375, 1.491943359375, 1.462646484375, 10.0, 1.0, 10.0, 1.438024878501892
18079, 1.9258182048797607, 0.8371844291687012, -2.5813658237457275, -0.04588843509554863, -0.09029024839401245, -6.236413478851318, -0.12209729105234146, -0.24146029353141785, -0.7675262689590454, -0.8133839964866638, -0.9861266613006592, 0.0571935698390007, -0.565479993311886, -0.05585015168605878, 8.820571971615395, 9362.0, 30146.0, 35388.0, 9362.0, 8.17190170288086, -0.16012221574783325, 0.11347272992134094, 0.5913951396942139, -0.09614144265651703, -0.040384918451309204, 0.9923854470252991, -0.07244538515806198, 0.07688140869140625, 1.502197265625, 1.41064453125, 0.0509490966796875, 1.491943359375, 1.462646484375, 10.0, 1.0, 10.0, 1.438024878501892
18089, 1.9239540100097656, 0.8373114466667175, -2.5756711959838867, -0.04588843509554863, -0.09029024839401245, -6.236413478851318, -0.12209729105234146, -0.24146029353141785, -0.7675262689590454, -0.8133623003959656, -0.9861226677894592, 0.05718766152858734, -0.5590855935345331, -0.06618357734214442, 8.83180776125904, 9362.0, 30146.0, 35388.0, 9362.0, 8.17190170288086, -0.13936078548431396, -0.33143654465675354, 0.4121270179748535, -0.09614144265651703, -0.040384918451309204, 0.9923854470252991, -0.07244538515806198, 0.07688140869140625, 1.502197265625, 1.41064453125, 0.0509490966796875, 1.490478515625, 1.462646484375, 10.0, 1.0, 10.0, 1.4380208253860474
18099, 1.922407865524292, 0.8380491733551025, -2.5682268142700195, -0.053498171269893646, -0.10535616427659988, -6.282574653625488, -0.13154126703739166, -0.26073262095451355, -0.7713615894317627, -0.8133466839790344, -0.9861252307891846, 0.05719486251473427, -0.5560210558044266, -0.07762118440800236, 8.834135880471763, 9362.0, 30146.0, 35388.0, 9362.0, 8.17190170288086, -0.002296005142852664, 0.05494058132171631, 1.0722514390945435, -0.09614144265651703, -0.040384918451309204, 0.9923854470252991, -0.07244538515806198, 0.07688140869140625, 1.502197265625, 1.41064453125, 0.0509490966796875, 1.490478515625, 1.462646484375, 10.0, 1.0, 10.0, 1.4380083084106445
18109, 1.920865774154663, 0.8371681571006775, -2.5565290451049805, -0.053498171269893646, -0.10535616427659988, -6.282574653625488, -0.13154126703739166, -0.26073262095451355, -0.7713615894317627, -0.8133566379547119, -0.9861295819282532, 0.05718252435326576, -0.5572072348939229, -0.0744879987165632, 8.832369800272883, 9362.0, 30146.0, 35388.0, 9362.0, 8.17190170288086, -0.04403536766767502, 0.01358860544860363, 0.9595471620559692, -0.09614144265651703, -0.040384918451309204, 0.9923854470252991, -0.07244538515806198, 0.07688140869140625, 1.502197265625, 1.41064453125, 0.0509490966796875, 1.494873046875, 1.462646484375, 10.0, 1.0, 10.0, 1.4380401372909546
18119, 1.920444130897522, 0.8367892503738403, -2.542943000793457, -0.053498171269893646, -0.10535616427659988, -6.282574653625488, -0.13154126703739166, -0.26073262095451355, -0.7713615894317627, -0.8133394718170166, -0.9861353635787964, 0.057168010622262955, -0.5579094179171223, -0.0792631204979557, 8.823953630715046, 9362.0, 30146.0, 35388.0, 9362.0, 8.17190170288086, -0.2036346048116684, -0.271655797958374, 1.39444100856781, -0.09614144265651703, -0.040384918451309204, 0.9923854470252991, -0.07157175242900848, 0.08584022521972656, 1.5029296875, 1.41064453125, 0.0509490966796875, 1.494873046875, 1.462646484375, 10.0, 1.0, 10.0, 1.4380401372909546
18129, 1.918753743171692, 0.8388690948486328, -2.5281991958618164, -0.053498171269893646, -0.10535616427659988, -6.282574653625488, -0.13154126703739166, -0.26073262095451355, -0.7713615894317627, -0.8133372664451599, -0.9861202239990234, 0.05717689171433449, -0.5506909340189053, -0.08838682180686419, 8.828660116479448, 9362.0, 30146.0, 35388.0, 9362.0, 8.17190170288086, -0.19607341289520264, 0.06409776210784912, 1.7883949279785156, -0.09614144265651703, -0.040384918451309204, 0.9923854470252991, -0.07157175242900848, 0.08584022521972656, 1.5029296875, 1.41064453125, 0.0509490966796875, 1.4912109375, 1.462646484375, 10.0, 1.0, 10.0, 1.437877893447876
18139, 1.9186633825302124, 0.8408274054527283, -2.515469789505005, -0.053498171269893646, -0.10535616427659988, -6.282574653625488, -0.13154126703739166, -0.26073262095451355, -0.7713615894317627, -0.8133278489112854, -0.9861268997192383, 0.05718357488512993, -0.5526690147723113, -0.09345267125061696, 8.834664081746698, 9362.0, 30146.0, 35388.0, 9362.0, 8.17190170288086, 0.049677036702632904, -0.05838099122047424, 1.7115026712417603, -0.09380503743886948, -0.04318854212760925, 0.9923781752586365, -0.07157175242900848, 0.08584022521972656, 1.5029296875, 1.41650390625, 0.0577545166015625, 1.4912109375, 1.462646484375, 10.0, 1.0, 10.0, 1.4378565549850464
18149, 1.9199340343475342, 0.8425143361091614, -2.5003435611724854, -0.053498171269893646, -0.10535616427659988, -6.282574653625488, -0.13154126703739166, -0.26073262095451355, -0.7713615894317627, -0.8133315443992615, -0.9861307144165039, 0.05719093605875969, -0.5517130236617306, -0.09560386145491861, 8.828395286069746, 9362.0, 30146.0, 35388.0, 9362.0, 8.17190170288086, 0.049677036702632904, -0.05838099122047424, 1.7115026712417603, -0.09404583275318146, -0.04052174463868141, 0.998257577419281, -0.07157175242900848, 0.08584022521972656, 1.5029296875, 1.41650390625, 0.0577545166015625, 1.4912109375, 1.462646484375, 10.0, 1.0, 10.0, 1.437772274017334
18159, 1.921020746231079, 0.8473462462425232, -2.4849979877471924, -0.06167396903038025, -0.12157867103815079, -6.328915596008301, -0.1409694254398346, -0.27997732162475586, -0.7743297219276428, -0.8133286833763123, -0.9861348271369934, 0.057180676609277725, -0.5524633995895218, -0.08701733440022963, 8.827994886520457, 9362.0, 30146.0, 35388.0, 9362.0, 8.17190170288086, 0.12625350058078766, 0.17137710750102997, 1.1754802465438843, -0.0960969626903534, -0.04256066307425499, 0.9992600083351135, -0.07157175242900848, 0.08584022521972656, 1.5029296875, 1.41650390625, 0.0577545166015625, 1.4912109375, 1.462646484375, 10.0, 1.0, 10.0, 1.437772274017334
18169, 1.9213000535964966, 0.8474529981613159, -2.475674629211426, -0.06167396903038025, -0.12157867103815079, -6.328915596008301, -0.1409694254398346, -0.27997732162475586, -0.7743297219276428, -0.8133327960968018, -0.986139178276062, 0.057164549827575684, -0.5514893822283814, -0.0896557667929585, 8.829391203472841, 9362.0, 30146.0, 35388.0, 9362.0, 8.17190170288086, 0.17076177895069122, -0.278563916683197, 1.193631887435913, -0.09310541301965714, -0.04374264180660248, 0.9944182634353638, -0.07157175242900848, 0.08584022521972656, 1.5029296875, 1.41650390625, 0.0577545166015625, 1.4912109375, 1.462646484375, 10.0, 1.0, 10.0, 1.437772274017334
