timeTick, roll, pitch, yaw, stateX, stateY, stateZ, stateVX, stateVY, stateVZ, otX0, otY0, otZ0, otRoll0, otPitch0, otYaw0, left wing, pitch motor, yaw motor, right wing, voltage, roll rate, pitch rate, yaw rate, A_x, A_y, A_z, current, i_raw, v_raw, airflow_voltage, airflow_speed, pot_Pitch, voltage_nKF, kFFx, state, State, volt_KF
12772, -0.619890034198761, 0.32866767048835754, -1.7022355794906616, 0, 0, 0, 0, 0, 0, -0.8155018091201782, -0.976912260055542, 0.056906022131443024, -0.8221577803093764, 0.39399920773800545, -3.1820212201345077, 0, 0, 0, 0, 0, 0, 0, 0, 0, 0, 0, 0, 0, 0, 0, 0, 0, 0, 0, 0, 0, 0
12782, -0.6202457547187805, 0.3282553553581238, -1.701442003250122, 8.668371447129175e-05, -0.00017394445603713393, -3.7595255374908447, 0.0020950306206941605, -0.004189102910459042, -0.6742684245109558, -0.8155025839805603, -0.9769142270088196, 0.05691109597682953, -0.8284126705274784, 0.38609016132136276, -3.176532528866616, 9362.0, 30146.0, 35388.0, 9362.0, 0, -0.10058604180812836, 0.06542399525642395, 0.1858387291431427, -0.0788668766617775, -0.05152162164449692, 0.9962055087089539, 0, 0, 0, 0, 0, 0, 0, 0, 0, 0, 0
12792, -0.6212016940116882, 0.3272849917411804, -1.7007242441177368, 0.00010499468771740794, -0.00021046855545137078, -3.766270399093628, 0.0015671435976400971, -0.003115730592980981, -0.6747099757194519, -0.8155139684677124, -0.9769064784049988, 0.05690183490514755, -0.8323450275167358, 0.3946009001433026, -3.1798887211338362, 9362.0, 30146.0, 35388.0, 9362.0, 0, 0.07029423862695694, -0.09769990295171738, 0.011351904831826687, -0.0790325477719307, -0.051347650587558746, 0.9974793195724487, 0, 0, 0, 1.39453125, 0.035003662109375, 0, 1.38134765625, 10.0, 1.0, 10.0, 1.4071203470230103
12802, -0.6213106513023376, 0.3255503475666046, -1.7014013528823853, 0.00011803091911133379, -0.00023624225286766887, -3.7730188369750977, 0.0010401071049273014, -0.002039001788944006, -0.6749911904335022, -0.8155063390731812, -0.9769113063812256, 0.05689781531691551, -0.8355730105662164, 0.38835667806768015, -3.1807855611978333, 9362.0, 30146.0, 35388.0, 9362.0, 0, 0.14736011624336243, 0.15078578889369965, -0.20303650200366974, -0.07681770622730255, -0.05055050551891327, 0.9982588887214661, 0, 0, 0, 1.404052734375, 0.04400634765625, 1.493408203125, 1.456787109375, 10.0, 1.0, 10.0, 1.407253384590149
12812, -0.6210634112358093, 0.32381007075309753, -1.7018537521362305, 0.00012580859765876085, -0.00025124181411229074, -3.7797696590423584, 0.0005154318059794605, -0.0009609045227989554, -0.6751576066017151, -0.8154938817024231, -0.9768995642662048, 0.056899379938840866, -0.8221639183155786, 0.39347471260330735, -3.176621499645439, 9362.0, 30146.0, 35388.0, 9362.0, 0, 0.025222430005669594, 0.08016196638345718, -0.1608523279428482, -0.07697375118732452, -0.04895571246743202, 0.9951184988021851, 0, 0, 0, 1.420166015625, 0.0621337890625, 1.493408203125, 1.436279296875, 10.0, 1.0, 10.0, 1.4073227643966675
12822, -0.6209322214126587, 0.32330450415611267, -1.7031296491622925, 0.00012835956295020878, -0.0002554736565798521, -3.7865231037139893, -5.217048965278082e-06, 0.00011454733612481505, -0.6755190491676331, -0.8155162930488586, -0.9769158363342285, 0.05691705644130707, -0.8325112950270486, 0.39263027347666934, -3.179033334960442, 9362.0, 30146.0, 35388.0, 9362.0, 0, 0.24465809762477875, 0.16042855381965637, -0.15967775881290436, -0.07834506779909134, -0.048863157629966736, 0.9966856241226196, 0, 0, 0, 1.453125, 0.1099090576171875, 1.4912109375, 1.4501953125, 10.0, 1.0, 10.0, 1.4074552059173584
12832, -0.6203266382217407, 0.3244456648826599, -1.7029571533203125, 0.00012571035767905414, -0.00024895614478737116, -3.7932803630828857, -0.000524617382325232, 0.0011889548040926456, -0.6759527921676636, -0.8155114650726318, -0.9769169092178345, 0.05690506100654602, -0.8303429093944016, 0.3944977143390247, -3.1787823522527936, 9362.0, 30146.0, 35388.0, 9362.0, 0, -0.23633576929569244, 0.07826817035675049, -0.1595822125673294, -0.07843991369009018, -0.05030709505081177, 0.995735764503479, 0, 0, 0, 1.41796875, 0.05950927734375, 1.4912109375, 1.431884765625, 10.0, 1.0, 10.0, 1.4075895547866821
12842, -0.6215345859527588, 0.323947012424469, -1.7040584087371826, 0.00011785559763666242, -0.00023169601627159864, -3.800041675567627, -0.001046317396685481, 0.002263072645291686, -0.6763241291046143, -0.815507173538208, -0.9769010543823242, 0.056902676820755005, -0.8331730576896, 0.3919163862422579, -3.1730792698360184, 9362.0, 30146.0, 35388.0, 9362.0, 0, -0.07548988610506058, 0.4528059661388397, 0.03910820931196213, -0.07870770990848541, -0.05138273537158966, 0.9955805540084839, 0, 0, 0, 1.415771484375, 0.0568695068359375, 1.494873046875, 1.421630859375, 10.0, 1.0, 10.0, 1.4077047109603882
12852, -0.6216066479682922, 0.32112357020378113, -1.7036693096160889, 0.00010479058983037248, -0.00020368881814647466, -3.806807279586792, -0.0015667126281186938, 0.003338363952934742, -0.6767740845680237, -0.8155197501182556, -0.9769123792648315, 0.056910689920186996, -0.8323493497548555, 0.3862602511684372, -3.179649017740438, 9362.0, 30146.0, 35388.0, 9362.0, 0, -0.10767809301614761, 0.1743607521057129, 0.07390213757753372, -0.07871142774820328, -0.051081039011478424, 0.9954118132591248, 0, 0, 0, 1.41650390625, 0.0577545166015625, 1.494873046875, 1.437744140625, 10.0, 1.0, 10.0, 1.4078545570373535
12862, -0.6225712299346924, 0.3213111460208893, -1.7034052610397339, 8.654500561533496e-05, -0.000164927463629283, -3.813577175140381, -0.002082407707348466, 0.004413899499922991, -0.6771992444992065, -0.8155094981193542, -0.9769173860549927, 0.056900039315223694, -0.8275338136554541, 0.3899673454810113, -3.176646091502908, 9362.0, 30146.0, 35388.0, 9362.0, 0, 0.19670414924621582, -0.0012897205306217074, -0.0037149866111576557, -0.07602431625127792, -0.05017650127410889, 0.9960785508155823, 0, 0, 0, 1.3974609375, 0.03759765625, 1.493408203125, 1.4560546875, 10.0, 1.0, 10.0, 1.4079805612564087
12872, -0.6214471459388733, 0.3200473487377167, -1.7028073072433472, 6.314150959951803e-05, -0.00011540336709003896, -3.8203513622283936, -0.0025983108207583427, 0.005490921437740326, -0.6776401400566101, -0.8155125975608826, -0.9769062399864197, 0.05689825862646103, -0.8373678977927536, 0.38687612441060537, -3.175894483817821, 9362.0, 30146.0, 35388.0, 9362.0, 8.152067184448242, 0.052474211901426315, -0.1395270675420761, -0.14743822813034058, -0.0786232054233551, -0.04911017417907715, 0.9953993558883667, -0.0799831971526146, -0.10231781005859375, 1.487548828125, 1.3740234375, 0.0210723876953125, 1.493408203125, 1.461181640625, 10.0, 1.0, 10.0, 1.4080569744110107
12882, -0.6206275820732117, 0.3208797574043274, -1.7041583061218262, 3.458896389929578e-05, -5.5118052841862664e-05, -3.82712984085083, -0.0031121661886572838, 0.006566160824149847, -0.6780641674995422, -0.8155105710029602, -0.9769155383110046, 0.0568944588303566, -0.8298023391092092, 0.38635315237240775, -3.1802052741700613, 9362.0, 30146.0, 35388.0, 9362.0, 8.152067184448242, 0.0711791142821312, -0.010924329981207848, 0.03756536543369293, -0.07837501168251038, -0.05001777037978172, 0.9927114248275757, -0.0799831971526146, -0.10231781005859375, 1.487548828125, 1.404052734375, 0.04400634765625, 1.493408203125, 1.424560546875, 10.0, 1.0, 10.0, 1.4081027507781982
12892, -0.6209011077880859, 0.32055288553237915, -1.704969882965088, 8.967544999904931e-07, 1.5900321159278974e-05, -3.833913803100586, -0.003626264398917556, 0.007637518458068371, -0.6787181496620178, -0.8155102729797363, -0.9769166111946106, 0.056885976344347, -0.8314997714171584, 0.39598115621734564, -3.1874239939434283, 9362.0, 30146.0, 35388.0, 9362.0, 8.152067184448242, 0.16740471124649048, 0.014803907833993435, -0.1293649673461914, -0.07761036604642868, -0.05352041870355606, 0.994051456451416, -0.0799831971526146, -0.10231781005859375, 1.487548828125, 1.393798828125, 0.0344085693359375, 1.493408203125, 1.46337890625, 10.0, 1.0, 10.0, 1.4080687761306763
12902, -0.6200135946273804, 0.3201838433742523, -1.7065341472625732, -3.7934012652840465e-05, 9.763559501152486e-05, -3.8407042026519775, -0.004139862488955259, 0.0087095582857728, -0.6793530583381653, -0.8155183792114258, -0.9769150018692017, 0.05688762664794922, -0.8332605969891088, 0.38309690490405046, -3.1762912769727, 9362.0, 30146.0, 35388.0, 9362.0, 8.152067184448242, 0.03400848060846329, 0.04131840914487839, -0.2885614335536957, -0.07727119326591492, -0.04961729794740677, 0.996817409992218, -0.0799831971526146, -0.10231781005859375, 1.487548828125, 1.41064453125, 0.0509490966796875, 1.4912109375, 1.417236328125, 10.0, 1.0, 10.0, 1.4081496000289917
12912, -0.619943380355835, 0.3209177851676941, -1.709412693977356, -8.190309745259583e-05, 0.0001900949573609978, -3.8474998474121094, -0.004653896205127239, 0.009782341308891773, -0.6797828674316406, -0.8155250549316406, -0.9769251942634583, 0.05688181519508362, -0.8313163199463963, 0.38688742094979034, -3.1863417309614497, 9362.0, 30146.0, 35388.0, 9362.0, 8.152067184448242, 0.2797057032585144, -0.21080191433429718, -0.11198754608631134, -0.07763281464576721, -0.051165398210287094, 0.996910035610199, -0.0799831971526146, -0.10231781005859375, 1.487548828125, 1.404052734375, 0.04400634765625, 1.4912109375, 1.447998046875, 10.0, 1.0, 10.0, 1.408202052116394
12922, -0.6182655692100525, 0.3230725824832916, -1.7100458145141602, -0.00013102282537147403, 0.0002932908246293664, -3.8542990684509277, -0.005170030053704977, 0.010856847278773785, -0.6800493001937866, -0.8155165910720825, -0.9769189953804016, 0.05690087750554085, -0.8332405111932806, 0.38572742100885193, -3.177128697978268, 9362.0, 30146.0, 35388.0, 9362.0, 8.152067184448242, -0.07632054388523102, -0.2077895849943161, -0.08118173480033875, -0.07745358347892761, -0.052823882550001144, 0.9957112669944763, -0.0799831971526146, -0.10231781005859375, 1.487548828125, 1.4091796875, 0.04937744140625, 1.493408203125, 1.44140625, 10.0, 1.0, 10.0, 1.4083104133605957
12932, -0.6191584467887878, 0.3238619863986969, -1.7117234468460083, -0.00018531849491409957, 0.00040720944525673985, -3.8611016273498535, -0.005689065437763929, 0.011926881968975067, -0.6804725527763367, -0.8155152201652527, -0.9769135117530823, 0.056885845959186554, -0.831576325688017, 0.38222371965755997, -3.1745542548944887, 9362.0, 30146.0, 35388.0, 9362.0, 8.152067184448242, -0.03845404088497162, 0.21241717040538788, 0.12592481076717377, -0.0793084129691124, -0.051191408187150955, 0.9968564510345459, -0.0799831971526146, -0.10231781005859375, 1.487548828125, 1.437744140625, 0.086029052734375, 1.493408203125, 1.41943359375, 10.0, 1.0, 10.0, 1.408299207687378
12942, -0.6190283894538879, 0.3234874904155731, -1.7096192836761475, -0.0002448112063575536, 0.0005318369949236512, -3.867908477783203, -0.0062095168977975845, 0.01299861166626215, -0.6808830499649048, -0.8155169486999512, -0.9769145250320435, 0.05688866227865219, -0.8252273020588231, 0.38238978686962355, -3.177541980147084, 9362.0, 30146.0, 35388.0, 9362.0, 8.152067184448242, -0.048651233315467834, -0.33149802684783936, 0.19473734498023987, -0.07755540311336517, -0.050651006400585175, 0.9958399534225464, -0.0799831971526146, -0.10231781005859375, 1.487548828125, 1.46337890625, 0.1270751953125, 1.491943359375, 1.414306640625, 10.0, 1.0, 10.0, 1.408414363861084
12952, -0.6198367476463318, 0.32472527027130127, -1.7093851566314697, -0.000309507071506232, 0.0006671837763860822, -3.8747191429138184, -0.006729649379849434, 0.014070745557546616, -0.6812337040901184, -0.8154981136322021, -0.9769219756126404, 0.0568866953253746, -0.8344253080368694, 0.38504248510099615, -3.1790808926943686, 9362.0, 30146.0, 35388.0, 9362.0, 8.152067184448242, 0.23895296454429626, -0.054312754422426224, -0.27944809198379517, -0.07770267874002457, -0.04939098656177521, 0.9963721632957458, -0.0799831971526146, -0.10231781005859375, 1.487548828125, 1.453857421875, 0.1110687255859375, 1.491943359375, 1.414306640625, 10.0, 1.0, 10.0, 1.4084752798080444
12962, -0.6187425255775452, 0.3251769244670868, -1.7098408937454224, -0.00037941476330161095, 0.0008132594521157444, -3.881533145904541, -0.007251878269016743, 0.015144403092563152, -0.6815783381462097, -0.8155194520950317, -0.9769216775894165, 0.05689821019768715, -0.8361138578924467, 0.3854872426765894, -3.1788638309257884, 9362.0, 30146.0, 35388.0, 9362.0, 8.152067184448242, 0.08584913611412048, -0.012133229523897171, 0.0236799493432045, -0.07916144281625748, -0.05100386217236519, 0.9948024749755859, -0.0799831971526146, -0.10231781005859375, 1.487548828125, 1.45458984375, 0.11224365234375, 1.49267578125, 1.41796875, 10.0, 1.0, 10.0, 1.4085429906845093
12972, -0.6181506514549255, 0.32461604475975037, -1.7112566232681274, -0.00045454571954905987, 0.0009700561058707535, -3.8883512020111084, -0.007774291094392538, 0.016214944422245026, -0.6820397973060608, -0.8155277967453003, -0.9769035577774048, 0.05682475119829178, -0.8085387822989466, 0.402059238407503, -3.2059662881726236, 9362.0, 30146.0, 35388.0, 9362.0, 8.152067184448242, 0.12386573106050491, -0.07425394654273987, -0.2378433793783188, -0.08019109070301056, -0.04998467490077019, 0.9935190081596375, -0.0854487270116806, 0.09480094909667969, 1.503662109375, 1.435546875, 0.0829315185546875, 1.49267578125, 1.412109375, 10.0, 1.0, 10.0, 1.4085520505905151
12982, -0.6164371371269226, 0.32667914032936096, -1.7131211757659912, -0.0005348920822143555, 0.0011375448666512966, -3.895174741744995, -0.008294920437037945, 0.017282851040363312, -0.6826503276824951, -0.8155373334884644, -0.9769045114517212, 0.05684206634759903, -0.8173597411329888, 0.3955396755135894, -3.20047503753803, 9362.0, 30146.0, 35388.0, 9362.0, 8.152067184448242, -0.04915659874677658, 0.3694274127483368, 0.28494349122047424, -0.07943103462457657, -0.04840937629342079, 0.9957414865493774, -0.0854487270116806, 0.09480094909667969, 1.503662109375, 1.433349609375, 0.0797576904296875, 1.494873046875, 1.43701171875, 10.0, 1.0, 10.0, 1.4085867404937744
12992, -0.6161929368972778, 0.3236234486103058, -1.7119473218917847, -0.0006204652017913759, 0.0013157040812075138, -3.902003765106201, -0.008819750510156155, 0.018349003046751022, -0.683161735534668, -0.8155362606048584, -0.9769023060798645, 0.0568423755466938, -0.8099414623132245, 0.3985544992950736, -3.1936431558992737, 9362.0, 30146.0, 35388.0, 9362.0, 8.152067184448242, -0.25666049122810364, -0.10567640513181686, 0.1464935839176178, -0.07848789542913437, -0.05074506998062134, 0.9958270788192749, -0.0854487270116806, 0.09480094909667969, 1.503662109375, 1.431884765625, 0.07769775390625, 1.494873046875, 1.45751953125, 10.0, 1.0, 10.0, 1.4086705446243286
13002, -0.6170690059661865, 0.32412028312683105, -1.7103748321533203, -0.0007112638559192419, 0.0015045283362269402, -3.90883731842041, -0.009340006858110428, 0.019415827468037605, -0.6835566759109497, -0.8155349493026733, -0.9769021272659302, 0.05684496834874153, -0.8127448987105516, 0.39539112021228107, -3.206147735714164, 9362.0, 30146.0, 35388.0, 9362.0, 8.152067184448242, 0.0913560763001442, 0.36163946986198425, -0.02729053609073162, -0.07856880873441696, -0.05287864804267883, 0.9963275194168091, -0.0854487270116806, 0.09480094909667969, 1.503662109375, 1.4208984375, 0.063079833984375, 1.494140625, 1.41943359375, 10.0, 1.0, 10.0, 1.4087704420089722
13012, -0.6178216338157654, 0.3217024803161621, -1.7095211744308472, -0.0008072690106928349, 0.0017040278762578964, -3.915674924850464, -0.009861056692898273, 0.02048407681286335, -0.683960497379303, -0.8155384659767151, -0.9769052863121033, 0.05684378370642662, -0.8151616634454686, 0.39404512234946765, -3.1932169851817096, 9362.0, 30146.0, 35388.0, 9362.0, 8.152067184448242, 0.03399166464805603, 0.0674787238240242, -0.28017759323120117, -0.07978290319442749, -0.051996901631355286, 0.9963387846946716, -0.0854487270116806, 0.09480094909667969, 1.503662109375, 1.439208984375, 0.0882415771484375, 1.494140625, 1.46484375, 10.0, 1.0, 10.0, 1.4089378118515015
13022, -0.6179381608963013, 0.3197818100452423, -1.7111601829528809, -0.0009084662306122482, 0.0019142205128446221, -3.922516107559204, -0.010378374718129635, 0.021554457023739815, -0.6842767000198364, -0.8155394792556763, -0.9769062399864197, 0.05683259293437004, -0.8062408768910091, 0.40066447639230773, -3.201002473014364, 9362.0, 30146.0, 35388.0, 9362.0, 8.152067184448242, 0.0854392722249031, -0.14122962951660156, -0.2388906180858612, -0.07748273760080338, -0.04956178367137909, 0.9943714141845703, -0.0854487270116806, 0.09480094909667969, 1.503662109375, 1.446533203125, 0.09930419921875, 1.491943359375, 1.420166015625, 10.0, 1.0, 10.0, 1.409092903137207
13032, -0.616267740726471, 0.3216004967689514, -1.714110255241394, -0.0010148149449378252, 0.0021351068280637264, -3.929361343383789, -0.010891296900808811, 0.022622838616371155, -0.6847887635231018, -0.8155737519264221, -0.9769107699394226, 0.0567944161593914, -0.811491562482309, 0.415544926790119, -3.206268864882887, 9362.0, 30146.0, 35388.0, 9362.0, 8.152067184448242, -0.047497473657131195, 0.21629904210567474, 0.036579910665750504, -0.07944034785032272, -0.04964758828282356, 0.9926789999008179, -0.0854487270116806, 0.09480094909667969, 1.503662109375, 1.4560546875, 0.1147003173828125, 1.491943359375, 1.377685546875, 10.0, 1.0, 10.0, 1.4091633558273315
13042, -0.6178784370422363, 0.3207800090312958, -1.7135752439498901, -0.001126304385252297, 0.002366654807701707, -3.9362125396728516, -0.01140660885721445, 0.023686720058321953, -0.6854572892189026, -0.8155734539031982, -0.9768736958503723, 0.05676185339689255, -0.826353740343302, 0.42483642630926965, -3.2006248497986665, 9362.0, 30146.0, 35388.0, 9362.0, 8.152067184448242, 0.03341780975461006, 0.11018051952123642, 0.1271454095840454, -0.07953927665948868, -0.05006643384695053, 0.9947941899299622, -0.0854487270116806, 0.09480094909667969, 1.503662109375, 1.41650390625, 0.0577545166015625, 1.493408203125, 1.421630859375, 10.0, 1.0, 10.0, 1.409196138381958
13052, -0.6174291968345642, 0.31964144110679626, -1.7119966745376587, -0.001242940779775381, 0.002608857350423932, -3.94307017326355, -0.01192071009427309, 0.024753794074058533, -0.6860815286636353, -0.8155724406242371, -0.9768849611282349, 0.05675385892391205, -0.8292488681081526, 0.42538611263040593, -3.1962805720552905, 9362.0, 30146.0, 35388.0, 9362.0, 8.152067184448242, -0.10717486590147018, 0.3763369619846344, 0.2903681993484497, -0.07649845629930496, -0.052106067538261414, 0.9980154037475586, -0.0854487270116806, 0.09480094909667969, 1.503662109375, 1.41796875, 0.05950927734375, 1.493408203125, 1.447265625, 10.0, 1.0, 10.0, 1.409207820892334
13062, -0.6177653670310974, 0.3167441487312317, -1.7100173234939575, -0.0013647170271724463, 0.0028617435600608587, -3.94993257522583, -0.012434585019946098, 0.025823449715971947, -0.6863923668861389, -0.8155806660652161, -0.9768790006637573, 0.05675696209073067, -0.8215961131924991, 0.4147644037289524, -3.198730508364298, 9362.0, 30146.0, 35388.0, 9362.0, 8.152067184448242, -0.11869502067565918, -0.23008351027965546, -0.21202057600021362, -0.07759851217269897, -0.05015340447425842, 0.9984685778617859, -0.0854487270116806, 0.09480094909667969, 1.503662109375, 1.456787109375, 0.115966796875, 1.48828125, 1.442138671875, 10.0, 1.0, 10.0, 1.4092358350753784
13072, -0.6185302138328552, 0.3171156048774719, -1.710972547531128, -0.0014916121726855636, 0.0031253385823220015, -3.9567971229553223, -0.012944434769451618, 0.02689558081328869, -0.6865167021751404, -0.8155640959739685, -0.9768849015235901, 0.056753888726234436, -0.8238465991283368, 0.41906974810950715, -3.2001362105573206, 9362.0, 30146.0, 35388.0, 9362.0, 8.152067184448242, 0.10446510463953018, -0.09679508954286575, 0.18628577888011932, -0.07791166007518768, -0.05067453160881996, 0.9962965250015259, -0.06321746855974197, -0.1739978790283203, 1.481689453125, 1.45458984375, 0.11224365234375, 1.48828125, 1.44140625, 10.0, 1.0, 10.0, 1.409380555152893
13082, -0.6191044449806213, 0.3188031315803528, -1.710512399673462, -0.001623603980988264, 0.0033996514976024628, -3.9636638164520264, -0.013453924097120762, 0.02796701155602932, -0.6868253350257874, -0.815579354763031, -0.9768804311752319, 0.0567556731402874, -0.8192466225182888, 0.4210296686241861, -3.196809572023909, 9362.0, 30146.0, 35388.0, 9362.0, 8.152067184448242, 0.10807347297668457, 0.19497396051883698, 0.10211430490016937, -0.0786103829741478, -0.05130072683095932, 0.9948728084564209, -0.06321746855974197, -0.1739978790283203, 1.481689453125, 1.443603515625, 0.0948486328125, 1.48828125, 1.43994140625, 10.0, 1.0, 10.0, 1.4094500541687012
13092, -0.6181339621543884, 0.3189316391944885, -1.709823727607727, -0.0017607004847377539, 0.003684674622491002, -3.970534563064575, -0.013965376652777195, 0.02903762273490429, -0.6873067021369934, -0.815590500831604, -0.9768816828727722, 0.05674818903207779, -0.8216943902472117, 0.423492862634788, -3.2018864651467265, 9362.0, 30146.0, 35388.0, 9362.0, 8.152067184448242, -0.06434127688407898, -0.018281638622283936, -0.1835411787033081, -0.0764717385172844, -0.049678120762109756, 0.9957275986671448, -0.06321746855974197, -0.1739978790283203, 1.481689453125, 1.4501953125, 0.1050872802734375, 1.48828125, 1.434814453125, 10.0, 1.0, 10.0, 1.409568428993225
13102, -0.6186813712120056, 0.3175088167190552, -1.7102102041244507, -0.0017607004847377539, 0.003684674622491002, -3.970534563064575, -0.013965376652777195, 0.02903762273490429, -0.6873067021369934, -0.8156190514564514, -0.9768627285957336, 0.056697238236665726, -0.8298323477122678, 0.44296951889373304, -3.201032871885425, 9362.0, 30146.0, 35388.0, 9362.0, 8.152067184448242, -0.0101480633020401, 0.3615417778491974, 0.02835211530327797, -0.07680784910917282, -0.05151753127574921, 0.9958035349845886, -0.06321746855974197, -0.1739978790283203, 1.481689453125, 1.433349609375, 0.0797576904296875, 1.49267578125, 1.434814453125, 10.0, 1.0, 10.0, 1.409568428993225
13112, -0.6189112663269043, 0.3142428994178772, -1.7093567848205566, -0.002050234703347087, 0.0042868200689554214, -3.9842896461486816, -0.014986737631261349, 0.031177066266536713, -0.6882066130638123, -0.8156031370162964, -0.9768562316894531, 0.056705109775066376, -0.8313206929435301, 0.4406703373520031, -3.1945718213257037, 9362.0, 30146.0, 35388.0, 9362.0, 8.152067184448242, 0.1854114532470703, 0.03872235119342804, -0.08225767314434052, -0.07979823648929596, -0.050146039575338364, 0.9963129162788391, -0.06321746855974197, -0.1739978790283203, 1.481689453125, 1.433349609375, 0.0797576904296875, 1.49267578125, 1.434814453125, 10.0, 1.0, 10.0, 1.409568428993225
13122, -0.6178087592124939, 0.31262028217315674, -1.7089086771011353, -0.002050234703347087, 0.0042868200689554214, -3.9842896461486816, -0.014986737631261349, 0.031177066266536713, -0.6882066130638123, -0.8156010508537292, -0.9768607020378113, 0.05670406296849251, -0.8341575886400447, 0.4461968012345494, -3.201650467109865, 9362.0, 30146.0, 35388.0, 9362.0, 8.152067184448242, -0.043957337737083435, 0.01739867404103279, 0.20963731408119202, -0.07889538258314133, -0.05294583737850189, 0.9959027171134949, -0.06321746855974197, -0.1739978790283203, 1.481689453125, 1.433349609375, 0.0797576904296875, 1.49267578125, 1.434814453125, 10.0, 1.0, 10.0, 1.409568428993225
13132, -0.6184163689613342, 0.31115061044692993, -1.7070266008377075, -0.002360039623454213, 0.004931771662086248, -3.9980616569519043, -0.01599244587123394, 0.03331712633371353, -0.6889889240264893, -0.8156058192253113, -0.9768617153167725, 0.05671471357345581, -0.8303127498045917, 0.4459787879273449, -3.19409752813844, 9362.0, 30146.0, 35388.0, 9362.0, 8.152067184448242, -0.04437777027487755, 0.08674848824739456, 0.3095153570175171, -0.07985630631446838, -0.051532793790102005, 0.9941795468330383, -0.06321746855974197, -0.1739978790283203, 1.481689453125, 1.433349609375, 0.0797576904296875, 1.49267578125, 1.434814453125, 10.0, 1.0, 10.0, 1.4097380638122559
13152, -0.6195124387741089, 0.31071606278419495, -1.7059670686721802, -0.0026898528449237347, 0.005619499366730452, -4.0118513107299805, -0.016988366842269897, 0.03545640781521797, -0.6900463700294495, -0.8156049847602844, -0.9768532514572144, 0.0567043200135231, -0.8344420784138654, 0.4412968581786174, -3.1997005297027177, 9362.0, 30146.0, 35388.0, 9362.0, 8.152067184448242, 0.16705746948719025, -0.5165310502052307, -0.21756979823112488, -0.0801486149430275, -0.05138787254691124, 0.997477650642395, -0.06321746855974197, -0.1739978790283203, 1.481689453125, 1.433349609375, 0.0797576904296875, 1.49267578125, 1.434814453125, 10.0, 1.0, 10.0, 1.4097380638122559
13162, -0.619097113609314, 0.31370922923088074, -1.70703125, -0.0028622280806303024, 0.005979423876851797, -4.018753528594971, -0.01748664490878582, 0.03652852028608322, -0.6904136538505554, -0.8155981302261353, -0.9768584370613098, 0.056707002222537994, -0.8316364939688154, 0.4430381603960427, -3.20503865512864, 9362.0, 30146.0, 35388.0, 9362.0, 8.152067184448242, 0.13247208297252655, -0.08630161732435226, -0.1735789179801941, -0.0801486149430275, -0.05138787254691124, 0.997477650642395, -0.06321746855974197, -0.1739978790283203, 1.481689453125, 1.433349609375, 0.0797576904296875, 1.49267578125, 1.434814453125, 10.0, 1.0, 10.0, 1.4099769592285156
13172, -0.6185823678970337, 0.31338968873023987, -1.708061933517456, -0.0030396142974495888, 0.00635007256641984, -4.025659084320068, -0.01799059472978115, 0.037601251155138016, -0.6906740665435791, -0.8156111240386963, -0.976865828037262, 0.056697070598602295, -0.8309453622926964, 0.44001895102522326, -3.1965297100404295, 9362.0, 30146.0, 35388.0, 9362.0, 8.152067184448242, 0.13247208297252655, -0.08630161732435226, -0.1735789179801941, -0.07742618024349213, -0.05055782198905945, 0.9952257871627808, -0.06321746855974197, -0.1739978790283203, 1.481689453125, 1.433349609375, 0.0797576904296875, 1.49267578125, 1.434814453125, 10.0, 1.0, 10.0, 1.4099769592285156
13192, -0.6187039017677307, 0.31209370493888855, -1.7099603414535522, -0.0030396142974495888, 0.00635007256641984, -4.025659084320068, -0.01799059472978115, 0.037601251155138016, -0.6906740665435791, -0.8156084418296814, -0.976867139339447, 0.05670266970992088, -0.8287220202666528, 0.4453008651522907, -3.195477926277326, 9362.0, 30146.0, 35388.0, 9362.0, 8.152067184448242, -0.07542555779218674, 0.012476678006350994, -0.13570325076580048, -0.07811345160007477, -0.052739404141902924, 0.9966281056404114, -0.06321746855974197, -0.1739978790283203, 1.481689453125, 1.447998046875, 0.1016693115234375, 1.49267578125, 1.434814453125, 10.0, 1.0, 10.0, 1.4100652933120728
13202, -0.6185837984085083, 0.3112541437149048, -1.710951566696167, -0.003601965494453907, 0.0075262789614498615, -4.046399116516113, -0.019498363137245178, 0.04081341251730919, -0.6919251680374146, -0.8156000375747681, -0.9768739938735962, 0.05670127272605896, -0.8330386846067649, 0.44377870866813396, -3.200467566857808, 9362.0, 30146.0, 35388.0, 9362.0, 8.152067184448242, -0.005499104503542185, -0.09525372833013535, 0.0512869730591774, -0.077860526740551, -0.05105988681316376, 0.9943575263023376, -0.06321746855974197, -0.1739978790283203, 1.481689453125, 1.447998046875, 0.1016693115234375, 1.49267578125, 1.434814453125, 10.0, 1.0, 10.0, 1.4100652933120728
13212, -0.6184553503990173, 0.31100448966026306, -1.71098792552948, -0.003601965494453907, 0.0075262789614498615, -4.046399116516113, -0.019498363137245178, 0.04081341251730919, -0.6919251680374146, -0.8156106472015381, -0.9768701195716858, 0.056700777262449265, -0.8289324398927329, 0.4394009863704582, -3.1934513350147946, 9362.0, 30146.0, 35388.0, 9362.0, 8.152067184448242, -0.19254238903522491, -0.19269679486751556, -0.10349468886852264, -0.07876533269882202, -0.05014040693640709, 0.9948024749755859, -0.06321746855974197, -0.1739978790283203, 1.481689453125, 1.447998046875, 0.1016693115234375, 1.49267578125, 1.434814453125, 10.0, 1.0, 10.0, 1.4100652933120728
13222, -0.6199554204940796, 0.3124219477176666, -1.7099908590316772, -0.003601965494453907, 0.0075262789614498615, -4.046399116516113, -0.019498363137245178, 0.04081341251730919, -0.6919251680374146, -0.8156183362007141, -0.9768490791320801, 0.05669676512479782, -0.8383914020500489, 0.43624898465540696, -3.192066725671443, 9362.0, 30146.0, 35388.0, 9362.0, 8.152067184448242, -0.011967558413743973, -0.3359598219394684, -0.17926639318466187, -0.07876533269882202, -0.05014040693640709, 0.9948024749755859, -0.06321746855974197, -0.1739978790283203, 1.481689453125, 1.447998046875, 0.1016693115234375, 1.49267578125, 1.434814453125, 10.0, 1.0, 10.0, 1.4102864265441895
13242, -0.6192929148674011, 0.3159438967704773, -1.7119967937469482, -0.004209351260215044, 0.008798796683549881, -4.0671796798706055, -0.0209948793053627, 0.044021882116794586, -0.6935232877731323, -0.8156054019927979, -0.9768595695495605, 0.05670388787984848, -0.8310432887888729, 0.4448360006629457, -3.1998541435247367, 9362.0, 30146.0, 35388.0, 9362.0, 8.152067184448242, -0.22060756385326385, 0.4113900661468506, 0.47741615772247314, -0.07861493527889252, -0.04922543093562126, 0.9973076581954956, -0.06321746855974197, -0.1739978790283203, 1.481689453125, 1.447998046875, 0.1016693115234375, 1.490478515625, 1.434814453125, 10.0, 1.0, 10.0, 1.4103785753250122
13252, -0.6207306981086731, 0.31355351209640503, -1.7112115621566772, -0.0046393428929150105, 0.009700688533484936, -4.081058025360107, -0.02200634405016899, 0.046167805790901184, -0.694202184677124, -0.8156132698059082, -0.97686368227005, 0.056695859879255295, -0.8300380408347758, 0.4402363832255958, -3.194766634713564, 9362.0, 30146.0, 35388.0, 9362.0, 8.152067184448242, 0.06098553538322449, 0.02534451335668564, -0.17405526340007782, -0.08047995716333389, -0.049877651035785675, 0.9959374666213989, -0.06321746855974197, -0.1739978790283203, 1.481689453125, 1.450927734375, 0.1063690185546875, 1.490478515625, 1.434814453125, 10.0, 1.0, 10.0, 1.4104410409927368
13262, -0.6206890940666199, 0.3115014433860779, -1.7121509313583374, -0.0046393428929150105, 0.009700688533484936, -4.081058025360107, -0.02200634405016899, 0.046167805790901184, -0.694202184677124, -0.8156137466430664, -0.9768480658531189, 0.05670187249779701, -0.83526122448156, 0.4389666684825215, -3.194171459088363, 9362.0, 30146.0, 35388.0, 9362.0, 8.152067184448242, -0.1832893192768097, -0.0053547522984445095, -0.06826696544885635, -0.07897942513227463, -0.05051692947745323, 0.9933449029922485, -0.06321746855974197, -0.1739978790283203, 1.481689453125, 1.450927734375, 0.1063690185546875, 1.493408203125, 1.434814453125, 10.0, 1.0, 10.0, 1.4105327129364014
13292, -0.622875452041626, 0.3101905882358551, -1.7129297256469727, -0.005559604149311781, 0.011633285321295261, -4.108863353729248, -0.024000870063900948, 0.05046170949935913, -0.6961840987205505, -0.8156232833862305, -0.9768632054328918, 0.05670873448252678, -0.836845184958185, 0.44548589059826327, -3.194937601034195, 9362.0, 30146.0, 35388.0, 9362.0, 8.152067184448242, 0.1500033438205719, 0.10480105876922607, 0.20151107013225555, -0.07678278535604477, -0.049484241753816605, 0.9958625435829163, -0.07861784100532532, -0.11127853393554688, 1.48681640625, 1.423095703125, 0.06591796875, 1.4912109375, 1.434814453125, 10.0, 1.0, 10.0, 1.4108202457427979
13302, -0.6219708919525146, 0.3094199597835541, -1.7106441259384155, -0.005802098661661148, 0.012143292464315891, -4.1158270835876465, -0.024498090147972107, 0.05153968557715416, -0.6965407133102417, -0.8156048059463501, -0.9768593907356262, 0.0567048154771328, -0.8329066244920114, 0.44151030139545355, -3.192657239978207, 9362.0, 30146.0, 35388.0, 9362.0, 8.152067184448242, -0.2069866955280304, 0.04927966371178627, 0.11405515670776367, -0.07928723841905594, -0.05125885084271431, 0.9969014525413513, -0.07861784100532532, -0.11127853393554688, 1.48681640625, 1.423095703125, 0.06591796875, 1.4912109375, 1.434814453125, 10.0, 1.0, 10.0, 1.4109177589416504
13322, -0.6223402619361877, 0.30579113960266113, -1.7082914113998413, -0.006301971152424812, 0.013195622712373734, -4.129764556884766, -0.025488240644335747, 0.053694069385528564, -0.697166919708252, -0.8156061172485352, -0.9768681526184082, 0.05671115219593048, -0.8322413201695814, 0.44636980064251475, -3.19939348443553, 9362.0, 30146.0, 35388.0, 9362.0, 8.152067184448242, -0.10499701648950577, -0.6108556389808655, -0.3108443021774292, -0.0778176411986351, -0.0506620891392231, 0.9957247376441956, -0.07861784100532532, -0.11127853393554688, 1.48681640625, 1.423095703125, 0.06591796875, 1.4912109375, 1.434814453125, 10.0, 1.0, 10.0, 1.411102294921875
13332, -0.6227474808692932, 0.30889153480529785, -1.7091747522354126, -0.006559302099049091, 0.013737945817410946, -4.136738300323486, -0.02597786858677864, 0.05477062985301018, -0.6975468993186951, -0.8156141042709351, -0.9768625497817993, 0.05670589208602905, -0.8303171840847225, 0.44547336502046164, -3.1959154554992573, 9362.0, 30146.0, 35388.0, 9362.0, 8.152067184448242, 0.09953208267688751, 0.15295876562595367, 0.03272576630115509, -0.0779976174235344, -0.05186421051621437, 0.9958059191703796, -0.07861784100532532, -0.11127853393554688, 1.48681640625, 1.423095703125, 0.06591796875, 1.4912109375, 1.434814453125, 10.0, 1.0, 10.0, 1.411102294921875
13352, -0.6229923367500305, 0.3068723678588867, -1.7078019380569458, -0.007088743150234222, 0.014854899607598782, -4.150697708129883, -0.0269651859998703, 0.05692509561777115, -0.698362410068512, -0.8156102299690247, -0.9768683910369873, 0.05672542005777359, -0.8314267877169462, 0.43938235228387157, -3.1988744402359988, 9362.0, 30146.0, 35388.0, 9362.0, 8.152067184448242, 0.0811428502202034, 0.3624488115310669, -0.12847119569778442, -0.07875021547079086, -0.04931655526161194, 0.9955325126647949, -0.07861784100532532, -0.11127853393554688, 1.48681640625, 1.423095703125, 0.06591796875, 1.4912109375, 1.434814453125, 10.0, 1.0, 10.0, 1.4112322330474854
13362, -0.6229472160339355, 0.30308833718299866, -1.7079157829284668, -0.007088743150234222, 0.014854899607598782, -4.150697708129883, -0.0269651859998703, 0.05692509561777115, -0.698362410068512, -0.8156070709228516, -0.9768683314323425, 0.056723929941654205, -0.8300475314679743, 0.44355010517637083, -3.1946449216213013, 9362.0, 30146.0, 35388.0, 9362.0, 8.152067184448242, 0.23758722841739655, 0.005191108211874962, 0.11228963732719421, -0.08023611456155777, -0.049649931490421295, 0.9956772923469543, -0.07861784100532532, -0.11127853393554688, 1.48681640625, 1.423095703125, 0.06591796875, 1.490478515625, 1.434814453125, 10.0, 1.0, 10.0, 1.4112322330474854
13382, -0.6221989989280701, 0.3018856644630432, -1.707613229751587, -0.007919671945273876, 0.016611116006970406, -4.171667575836182, -0.028425127267837524, 0.06015513092279434, -0.6996360421180725, -0.8156173229217529, -0.9768574237823486, 0.05669783055782318, -0.8275955918739711, 0.4347199542933424, -3.1981624956327694, 9362.0, 30146.0, 35388.0, 9362.0, 8.152067184448242, 0.09671015292406082, 0.14423662424087524, -0.07471425831317902, -0.08023611456155777, -0.049649931490421295, 0.9956772923469543, -0.07882188260555267, -0.14711761474609375, 1.48388671875, 1.423095703125, 0.06591796875, 1.490478515625, 1.434814453125, 10.0, 1.0, 10.0, 1.4114362001419067
13412, -0.6212289333343506, 0.3018721342086792, -1.7107322216033936, -0.008824042975902557, 0.018527556210756302, -4.193379878997803, -0.029920419678092003, 0.06348470598459244, -0.7011511325836182, -0.8156073093414307, -0.9768632650375366, 0.05670742690563202, -0.8344880805428914, 0.4422623594628021, -3.1989846810191676, 9362.0, 30146.0, 35388.0, 9362.0, 8.152067184448242, 0.022522056475281715, 0.5619599223136902, 0.17807050049304962, -0.07997965067625046, -0.04851077124476433, 0.9959841966629028, -0.07882188260555267, -0.14711761474609375, 1.48388671875, 1.423095703125, 0.06591796875, 1.4912109375, 1.434814453125, 10.0, 1.0, 10.0, 1.411510705947876
13422, -0.6211340427398682, 0.29784780740737915, -1.7098808288574219, -0.008824042975902557, 0.018527556210756302, -4.193379878997803, -0.029920419678092003, 0.06348470598459244, -0.7011511325836182, -0.8156100511550903, -0.9768334031105042, 0.056722868233919144, -0.8361071115588812, 0.44721010217870116, -3.1902749950051406, 9362.0, 30146.0, 35388.0, 9362.0, 8.152067184448242, -0.13345468044281006, 0.2311164289712906, -0.28910279273986816, -0.07935509085655212, -0.050040971487760544, 0.9953204393386841, -0.07882188260555267, -0.14711761474609375, 1.48388671875, 1.423095703125, 0.06591796875, 1.4912109375, 1.434814453125, 10.0, 1.0, 10.0, 1.411510705947876
13432, -0.6203707456588745, 0.29516977071762085, -1.7107889652252197, -0.009432072751224041, 0.019818726927042007, -4.207411766052246, -0.030879061669111252, 0.06563204526901245, -0.7020247578620911, -0.8156090378761292, -0.9768646359443665, 0.056703295558691025, -0.8295372465788831, 0.43706153878201803, -3.1993268433618596, 9362.0, 30146.0, 35388.0, 9362.0, 8.152067184448242, -0.07683968544006348, 0.04732944443821907, 0.48017245531082153, -0.0790492594242096, -0.05169377103447914, 0.9952771067619324, -0.07882188260555267, -0.14711761474609375, 1.48388671875, 1.423095703125, 0.06591796875, 1.4912109375, 1.434814453125, 10.0, 1.0, 10.0, 1.411510705947876
13442, -0.6199027895927429, 0.29638639092445374, -1.708301067352295, -0.009432072751224041, 0.019818726927042007, -4.207411766052246, -0.030879061669111252, 0.06563204526901245, -0.7020247578620911, -0.8156166672706604, -0.9768635630607605, 0.05669805780053139, -0.8326522113381541, 0.43808404879456475, -3.1992592455939657, 9362.0, 30146.0, 35388.0, 9362.0, 8.152067184448242, 0.06103591248393059, -0.13106584548950195, -0.16467121243476868, -0.079267717897892, -0.049479272216558456, 0.9978475570678711, -0.07882188260555267, -0.14711761474609375, 1.48388671875, 1.423095703125, 0.06591796875, 1.493408203125, 1.434814453125, 10.0, 1.0, 10.0, 1.411510705947876
13452, -0.6200181841850281, 0.29581448435783386, -1.7100249528884888, -0.010059093125164509, 0.021152807399630547, -4.221460819244385, -0.03182457014918327, 0.06777692586183548, -0.7027570605278015, -0.8156021237373352, -0.976874053478241, 0.056704696267843246, -0.8307069544922473, 0.43989895192393647, -3.202235643913389, 9362.0, 30146.0, 35388.0, 9362.0, 8.152067184448242, 0.051489245146512985, 0.0058256215415894985, 0.05176122114062309, -0.079267717897892, -0.049479272216558456, 0.9978475570678711, -0.07882188260555267, -0.14711761474609375, 1.48388671875, 1.423095703125, 0.06591796875, 1.493408203125, 1.434814453125, 10.0, 1.0, 10.0, 1.411510705947876
13462, -0.6197106838226318, 0.29390203952789307, -1.7083579301834106, -0.010059093125164509, 0.021152807399630547, -4.221460819244385, -0.03182457014918327, 0.06777692586183548, -0.7027570605278015, -0.8156086206436157, -0.9768627285957336, 0.056712228804826736, -0.8318466131745751, 0.440560399383088, -3.1953470285157706, 9362.0, 30146.0, 35388.0, 9362.0, 8.152067184448242, -0.1451965570449829, 0.10545755177736282, 0.07805296778678894, -0.079267717897892, -0.049479272216558456, 0.9978475570678711, -0.07882188260555267, -0.14711761474609375, 1.48388671875, 1.423095703125, 0.06591796875, 1.48828125, 1.434814453125, 10.0, 1.0, 10.0, 1.411510705947876
13482, -0.6214186549186707, 0.29510489106178284, -1.7124887704849243, -0.010705012828111649, 0.022529762238264084, -4.235525608062744, -0.03276531398296356, 0.06991700083017349, -0.7038344740867615, -0.8156142830848694, -0.9768638610839844, 0.056691866368055344, -0.8356103517286134, 0.43472584067939124, -3.1990860175462466, 9362.0, 30146.0, 35388.0, 9362.0, 8.152067184448242, 0.047530677169561386, 0.4647713899612427, 0.11953366547822952, -0.07833436876535416, -0.04981466382741928, 0.9959642887115479, -0.07882188260555267, -0.14711761474609375, 1.48388671875, 1.423095703125, 0.06591796875, 1.494140625, 1.434814453125, 10.0, 1.0, 10.0, 1.411510705947876
13492, -0.6209738254547119, 0.29225295782089233, -1.711646318435669, -0.01136973686516285, 0.02394956350326538, -4.249612808227539, -0.03370717540383339, 0.07206333428621292, -0.7048518657684326, -0.8156057596206665, -0.9768750667572021, 0.0567004419863224, -0.8369902801713219, 0.4361130944113256, -3.194118833242771, 9362.0, 30146.0, 35388.0, 9362.0, 8.152067184448242, -0.22946543991565704, -0.035806406289339066, -0.09694726020097733, -0.07918383926153183, -0.05104721710085869, 0.9962041974067688, -0.07882188260555267, -0.14711761474609375, 1.48388671875, 1.423095703125, 0.06591796875, 1.494140625, 1.434814453125, 10.0, 1.0, 10.0, 1.411510705947876
13502, -0.6220521330833435, 0.29231253266334534, -1.7127996683120728, -0.01136973686516285, 0.02394956350326538, -4.249612808227539, -0.03370717540383339, 0.07206333428621292, -0.7048518657684326, -0.8156008720397949, -0.9768699407577515, 0.05671995133161545, -0.836377575871336, 0.432556512286169, -3.2012142685048044, 9362.0, 30146.0, 35388.0, 9362.0, 8.152067184448242, 0.027650397270917892, -0.007163830101490021, 0.07965437322854996, -0.078085757791996, -0.05106116086244583, 0.9956175088882446, -0.07882188260555267, -0.14711761474609375, 1.48388671875, 1.423095703125, 0.06591796875, 1.494140625, 1.434814453125, 10.0, 1.0, 10.0, 1.411510705947876
13522, -0.6201243996620178, 0.2888326942920685, -1.7122228145599365, -0.012053213082253933, 0.025412311777472496, -4.263717174530029, -0.0346401147544384, 0.0742117315530777, -0.7056652903556824, -0.8156112432479858, -0.9768654704093933, 0.05668836459517479, -0.8319669079851004, 0.4390898432887411, -3.1995363984970573, 9362.0, 30146.0, 35388.0, 9362.0, 8.152067184448242, -0.012174567207694054, 0.1520063877105713, -0.5123773217201233, -0.07513341307640076, -0.050858937203884125, 0.995872437953949, -0.07882188260555267, -0.14711761474609375, 1.48388671875, 1.423095703125, 0.06591796875, 1.496337890625, 1.434814453125, 10.0, 1.0, 10.0, 1.411510705947876
13532, -0.6201309561729431, 0.287125825881958, -1.714933156967163, -0.012755278497934341, 0.026917994022369385, -4.277839183807373, -0.0355648547410965, 0.07635639607906342, -0.7064745426177979, -0.8156131505966187, -0.9768713712692261, 0.056687239557504654, -0.8332633122519342, 0.4315166921298328, -3.1965571027031854, 9362.0, 30146.0, 35388.0, 9362.0, 8.152067184448242, -0.0062080565840005875, 0.11301017552614212, -0.06103469058871269, -0.0790887326002121, -0.05026464909315109, 0.9955581426620483, -0.07882188260555267, -0.14711761474609375, 1.48388671875, 1.423095703125, 0.06591796875, 1.496337890625, 1.434814453125, 10.0, 1.0, 10.0, 1.411510705947876
13542, -0.6188159584999084, 0.28679436445236206, -1.7166945934295654, -0.013113214634358883, 0.027686912566423416, -4.284906387329102, -0.036022260785102844, 0.07742735743522644, -0.7069400548934937, -0.8156008720397949, -0.9768726229667664, 0.056696996092796326, -0.8323677576933178, 0.4327108543029681, -3.1881163649806457, 9362.0, 30146.0, 35388.0, 9362.0, 8.152067184448242, -0.13361181318759918, 0.07799834758043289, -0.17945365607738495, -0.07668273150920868, -0.04985211417078972, 0.9956950545310974, -0.07882188260555267, -0.14711761474609375, 1.48388671875, 1.450927734375, 0.1063690185546875, 1.496337890625, 1.434814453125, 10.0, 1.0, 10.0, 1.4122055768966675
13552, -0.6194415092468262, 0.2861579358577728, -1.7186777591705322, -0.013113214634358883, 0.027686912566423416, -4.284906387329102, -0.036022260785102844, 0.07742735743522644, -0.7069400548934937, -0.8155959248542786, -0.9768645167350769, 0.056692589074373245, -0.8383483921370849, 0.4337549668595386, -3.2006170220153174, 9362.0, 30146.0, 35388.0, 9362.0, 8.152067184448242, 0.24523131549358368, 0.1715472787618637, 0.16389651596546173, -0.07830704003572464, -0.050573598593473434, 0.9946650862693787, -0.07882188260555267, -0.14711761474609375, 1.48388671875, 1.450927734375, 0.1063690185546875, 1.496337890625, 1.434814453125, 10.0, 1.0, 10.0, 1.4122055768966675
13562, -0.6174530982971191, 0.2842726707458496, -1.7166084051132202, -0.013842795975506306, 0.029256850481033325, -4.29905366897583, -0.03693516179919243, 0.07956638932228088, -0.707821249961853, -0.8156169652938843, -0.9768800735473633, 0.05669444426894188, -0.8299386669651707, 0.43964395195703787, -3.199245515487553, 9362.0, 30146.0, 35388.0, 9362.0, 8.152067184448242, 0.032084573060274124, -0.23814497888088226, -0.06066540628671646, -0.07778549194335938, -0.05217219144105911, 0.9973968267440796, -0.07882188260555267, -0.14711761474609375, 1.48388671875, 1.450927734375, 0.1063690185546875, 1.496337890625, 1.434814453125, 10.0, 1.0, 10.0, 1.4122610092163086
13582, -0.6166911721229553, 0.28411874175071716, -1.7182402610778809, -0.01459057629108429, 0.030869539827108383, -4.313216209411621, -0.03784431144595146, 0.0817040354013443, -0.7083263993263245, -0.8156155347824097, -0.9768706560134888, 0.056690193712711334, -0.8382740913251807, 0.43175296197640023, -3.197083175493363, 9362.0, 30146.0, 35388.0, 9362.0, 8.152067184448242, -0.09864189475774765, -0.17555080354213715, 0.19339405000209808, -0.07593291997909546, -0.05045415088534355, 0.99660724401474, -0.08247499912977219, -0.06647872924804688, 1.490478515625, 1.450927734375, 0.1063690185546875, 1.496337890625, 1.434814453125, 10.0, 1.0, 10.0, 1.412443995475769
13592, -0.6173923015594482, 0.28572505712509155, -1.7174595594406128, -0.014971286989748478, 0.03169191628694534, -4.320300579071045, -0.03829781338572502, 0.08277149498462677, -0.7085621953010559, -0.8156042098999023, -0.9768745303153992, 0.05670564994215965, -0.8275271231739518, 0.4395586974992227, -3.1940362167367025, 9362.0, 30146.0, 35388.0, 9362.0, 8.152067184448242, 0.01786685548722744, 0.09432338178157806, 0.16720348596572876, -0.07593291997909546, -0.05045415088534355, 0.99660724401474, -0.08247499912977219, -0.06647872924804688, 1.490478515625, 1.450927734375, 0.1063690185546875, 1.496337890625, 1.434814453125, 10.0, 1.0, 10.0, 1.412443995475769
13612, -0.618478536605835, 0.28579819202423096, -1.7144873142242432, -0.015785563737154007, 0.03345360979437828, -4.335192680358887, -0.039251938462257385, 0.0850091278553009, -0.7097529768943787, -0.8156043291091919, -0.9768713712692261, 0.05668708309531212, -0.832971055770772, 0.43792451760714357, -3.20030810559233, 9362.0, 30146.0, 35388.0, 9362.0, 8.152067184448242, 0.06891150772571564, 0.10808053612709045, -0.3353053033351898, -0.07628422975540161, -0.050728876143693924, 0.9941644072532654, -0.08247499912977219, -0.06647872924804688, 1.490478515625, 1.450927734375, 0.1063690185546875, 1.493408203125, 1.434814453125, 10.0, 1.0, 10.0, 1.412488579750061
13622, -0.6184632182121277, 0.2847840487957001, -1.7169817686080933, -0.015785563737154007, 0.03345360979437828, -4.335192680358887, -0.039251938462257385, 0.0850091278553009, -0.7097529768943787, -0.8155990242958069, -0.9768646359443665, 0.05668781325221062, -0.8354062450729066, 0.43622188758135394, -3.1950770972798863, 9362.0, 30146.0, 35388.0, 9362.0, 8.152067184448242, 0.005281124264001846, 0.054247673600912094, 0.1544068604707718, -0.08004113286733627, -0.05148053914308548, 0.995608925819397, -0.08247499912977219, -0.06647872924804688, 1.490478515625, 1.450927734375, 0.1063690185546875, 1.490478515625, 1.434814453125, 10.0, 1.0, 10.0, 1.412488579750061
13632, -0.6180216073989868, 0.2853853702545166, -1.7162206172943115, -0.015785563737154007, 0.03345360979437828, -4.335192680358887, -0.039251938462257385, 0.0850091278553009, -0.7097529768943787, -0.8156052827835083, -0.9768574237823486, 0.05669691786170006, -0.8329660126950624, 0.43488528716085284, -3.1930215601048078, 9362.0, 30146.0, 35388.0, 9362.0, 8.152067184448242, -0.21280662715435028, 0.08602368086576462, -0.2447473108768463, -0.07900139689445496, -0.05092659220099449, 0.9941878914833069, -0.08247499912977219, -0.06647872924804688, 1.490478515625, 1.450927734375, 0.1063690185546875, 1.490478515625, 1.434814453125, 10.0, 1.0, 10.0, 1.412488579750061
13642, -0.6187861561775208, 0.28473976254463196, -1.7178093194961548, -0.016619866713881493, 0.03526231274008751, -4.350111484527588, -0.04020506143569946, 0.08724936842918396, -0.7109721899032593, -0.8156207203865051, -0.9768637418746948, 0.0567079521715641, -0.8288128560002836, 0.4366396645942814, -3.1965513892681305, 9362.0, 30146.0, 35388.0, 9362.0, 8.152067184448242, 0.2552313506603241, 0.20528504252433777, 0.02138247713446617, -0.07773017138242722, -0.05236465111374855, 0.9967347383499146, -0.08247499912977219, -0.06647872924804688, 1.490478515625, 1.450927734375, 0.1063690185546875, 1.490478515625, 1.434814453125, 10.0, 1.0, 10.0, 1.412488579750061
13652, -0.6174803376197815, 0.2835846245288849, -1.7173097133636475, -0.017024189233779907, 0.036140140146017075, -4.357223987579346, -0.04065936431288719, 0.08831612020730972, -0.7114856243133545, -0.8156161904335022, -0.9768845438957214, 0.05669470876455307, -0.8327395075322214, 0.43825552070893536, -3.1949898087570845, 9362.0, 30146.0, 35388.0, 9362.0, 8.152067184448242, 0.05451871454715729, -0.1695787012577057, -0.41741836071014404, -0.07893568277359009, -0.05254872143268585, 0.9957571029663086, -0.08247499912977219, -0.06647872924804688, 1.490478515625, 1.450927734375, 0.1063690185546875, 1.490478515625, 1.434814453125, 10.0, 1.0, 10.0, 1.412488579750061
13662, -0.6176138520240784, 0.28576353192329407, -1.7200413942337036, -0.017433052882552147, 0.03702864795923233, -4.364340782165527, -0.0411132387816906, 0.08938580751419067, -0.7118501663208008, -0.8156065940856934, -0.9768610000610352, 0.05668986216187477, -0.8383448933457343, 0.4327333039885275, -3.19176074502447, 9362.0, 30146.0, 35388.0, 9362.0, 8.152067184448242, 0.1780289113521576, -0.08936203271150589, 0.03666017949581146, -0.07893568277359009, -0.05254872143268585, 0.9957571029663086, -0.08247499912977219, -0.06647872924804688, 1.490478515625, 1.450927734375, 0.1063690185546875, 1.490478515625, 1.434814453125, 10.0, 1.0, 10.0, 1.4128119945526123
13672, -0.6172851324081421, 0.2865612804889679, -1.720426321029663, -0.017846444621682167, 0.037927839905023575, -4.371461391448975, -0.04156498238444328, 0.09045284986495972, -0.7122467160224915, -0.8156124949455261, -0.9768553376197815, 0.056704647839069366, -0.8400166141431429, 0.43555615403408865, -3.1991597017854785, 9362.0, 30146.0, 35388.0, 9362.0, 8.152067184448242, 0.1780289113521576, -0.08936203271150589, 0.03666017949581146, -0.07784789800643921, -0.05214051529765129, 0.9946644306182861, -0.08247499912977219, -0.06647872924804688, 1.490478515625, 1.450927734375, 0.1063690185546875, 1.490478515625, 1.434814453125, 10.0, 1.0, 10.0, 1.4128119945526123
13692, -0.6171726584434509, 0.28519314527511597, -1.7222919464111328, -0.018686847761273384, 0.039758212864398956, -4.385716915130615, -0.04247603937983513, 0.0925842747092247, -0.7133011817932129, -0.8156211972236633, -0.9768527150154114, 0.056718502193689346, -0.8326867511759173, 0.43857449028107, -3.1944293202185334, 9362.0, 30146.0, 35388.0, 9362.0, 8.152067184448242, -0.2218518853187561, 0.18674740195274353, 0.13152578473091125, -0.07616759836673737, -0.05073269084095955, 0.9953458905220032, -0.08247499912977219, -0.06647872924804688, 1.490478515625, 1.450927734375, 0.1063690185546875, 1.490478515625, 1.434814453125, 10.0, 1.0, 10.0, 1.4129676818847656
13702, -0.6178889870643616, 0.2821381986141205, -1.7208019495010376, -0.018686847761273384, 0.039758212864398956, -4.385716915130615, -0.04247603937983513, 0.0925842747092247, -0.7133011817932129, -0.8156237602233887, -0.9768759608268738, 0.05670034512877464, -0.8335138729726501, 0.43196992522854316, -3.1898303816444957, 9362.0, 30146.0, 35388.0, 9362.0, 8.152067184448242, 0.16225670278072357, 0.03186295926570892, -0.16260918974876404, -0.07636140286922455, -0.05154234543442726, 0.9971736669540405, -0.08247499912977219, -0.06647872924804688, 1.490478515625, 1.450927734375, 0.1063690185546875, 1.49267578125, 1.434814453125, 10.0, 1.0, 10.0, 1.4129676818847656
13722, -0.6170904636383057, 0.2797423303127289, -1.7215287685394287, -0.019981561228632927, 0.042583733797073364, -4.407135486602783, -0.043834786862134933, 0.09578529745340347, -0.7145004272460938, -0.8156145811080933, -0.9768755435943604, 0.056699976325035095, -0.840187223227253, 0.429610440709979, -3.191216575831704, 9362.0, 30146.0, 35388.0, 9362.0, 8.152067184448242, -0.07513841241598129, 0.14649538695812225, -0.09844160079956055, -0.07908201217651367, -0.05400371178984642, 0.9950371980667114, -0.08247499912977219, -0.06647872924804688, 1.490478515625, 1.450927734375, 0.1063690185546875, 1.491943359375, 1.434814453125, 10.0, 1.0, 10.0, 1.4131686687469482
13732, -0.617603063583374, 0.2796437740325928, -1.7227782011032104, -0.02042214758694172, 0.04354691505432129, -4.41428279876709, -0.04428255185484886, 0.09685086458921432, -0.7149513959884644, -0.8156195878982544, -0.9768700003623962, 0.05669723451137543, -0.8320407528383599, 0.43944890818650606, -3.1964819829177307, 9362.0, 30146.0, 35388.0, 9362.0, 8.152067184448242, 0.0337466299533844, 0.3539921045303345, -0.03595985099673271, -0.0793491005897522, -0.05116720125079155, 0.9938691854476929, -0.08247499912977219, -0.06647872924804688, 1.490478515625, 1.450927734375, 0.1063690185546875, 1.491943359375, 1.434814453125, 10.0, 1.0, 10.0, 1.4131686687469482
13742, -0.616872251033783, 0.27709248661994934, -1.7232879400253296, -0.02086719498038292, 0.044520746916532516, -4.4214348793029785, -0.04472704976797104, 0.09791543334722519, -0.7154979705810547, -0.8156248331069946, -0.9768606424331665, 0.056690845638513565, -0.8335898283190525, 0.43470048971121855, -3.188048352577262, 9362.0, 30146.0, 35388.0, 9362.0, 8.152067184448242, -0.07186806201934814, 0.026333142071962357, 0.24095995724201202, -0.0793491005897522, -0.05116720125079155, 0.9938691854476929, -0.08247499912977219, -0.06647872924804688, 1.490478515625, 1.450927734375, 0.1063690185546875, 1.491943359375, 1.434814453125, 10.0, 1.0, 10.0, 1.4132460355758667
13752, -0.6177240610122681, 0.27693602442741394, -1.7211374044418335, -0.021316686645150185, 0.04550522565841675, -4.428592681884766, -0.04517112299799919, 0.09898030012845993, -0.7160984873771667, -0.815618634223938, -0.9768702983856201, 0.056711502373218536, -0.8355256758347769, 0.4373936112076535, -3.1952793837763505, 9362.0, 30146.0, 35388.0, 9362.0, 8.152067184448242, 0.048558808863162994, -0.16753900051116943, -0.4699045419692993, -0.07774508744478226, -0.05232701450586319, 0.9969758987426758, -0.08247499912977219, -0.06647872924804688, 1.490478515625, 1.450927734375, 0.1063690185546875, 1.491943359375, 1.434814453125, 10.0, 1.0, 10.0, 1.4132517576217651
13762, -0.6182070374488831, 0.2781856954097748, -1.7235223054885864, -0.021316686645150185, 0.04550522565841675, -4.428592681884766, -0.04517112299799919, 0.09898030012845993, -0.7160984873771667, -0.8156196475028992, -0.9768633842468262, 0.05669931694865227, -0.8370995950672662, 0.43410896732507354, -3.1906626690683715, 9362.0, 30146.0, 35388.0, 9362.0, 8.152067184448242, -0.04769076034426689, -0.08775061368942261, -0.17599812150001526, -0.08016239106655121, -0.051723167300224304, 0.9955155849456787, -0.08247499912977219, -0.06647872924804688, 1.490478515625, 1.450927734375, 0.1063690185546875, 1.491943359375, 1.434814453125, 10.0, 1.0, 10.0, 1.4133039712905884
13772, -0.6192155480384827, 0.27805113792419434, -1.7235890626907349, -0.022228920832276344, 0.04750614985823631, -4.442922592163086, -0.04605236276984215, 0.10111358016729355, -0.716848611831665, -0.8156203031539917, -0.9768598675727844, 0.05670434981584549, -0.8307707088392314, 0.4350955223560504, -3.204346953722755, 9362.0, 30146.0, 35388.0, 9362.0, 8.152067184448242, -0.04769076034426689, -0.08775061368942261, -0.17599812150001526, -0.08049541711807251, -0.05019094794988632, 0.9955188035964966, -0.08247499912977219, -0.06647872924804688, 1.490478515625, 1.450927734375, 0.1063690185546875, 1.491943359375, 1.434814453125, 10.0, 1.0, 10.0, 1.4133039712905884
13782, -0.6197010278701782, 0.2775776982307434, -1.723975419998169, -0.02269165590405464, 0.048522625118494034, -4.4500932693481445, -0.046494755893945694, 0.10218146443367004, -0.717259407043457, -0.8156086206436157, -0.9768648147583008, 0.0567183643579483, -0.8337061653700805, 0.4344613092318923, -3.197435637799333, 9362.0, 30146.0, 35388.0, 9362.0, 8.152067184448242, 0.04910198599100113, -0.00046725140418857336, 0.0961579754948616, -0.07843023538589478, -0.05045662820339203, 0.9954667687416077, -0.08247499912977219, -0.06647872924804688, 1.490478515625, 1.450927734375, 0.1063690185546875, 1.491943359375, 1.434814453125, 10.0, 1.0, 10.0, 1.4132827520370483
13792, -0.6197715401649475, 0.27704888582229614, -1.722947359085083, -0.023158812895417213, 0.04954978823661804, -4.457267761230469, -0.04693681001663208, 0.10325094312429428, -0.7176803946495056, -0.8156216740608215, -0.9768616557121277, 0.056698188185691833, -0.836668389473637, 0.43843862915719, -3.1891763351882902, 9362.0, 30146.0, 35388.0, 9362.0, 8.152067184448242, 0.20755115151405334, 0.2063865065574646, -0.06737815588712692, -0.07822517305612564, -0.05170351266860962, 0.9969688653945923, -0.08247499912977219, -0.06647872924804688, 1.490478515625, 1.450927734375, 0.1063690185546875, 1.491943359375, 1.434814453125, 10.0, 1.0, 10.0, 1.4132827520370483
13802, -0.6184650659561157, 0.27676382660865784, -1.7234108448028564, -0.023630386218428612, 0.050587646663188934, -4.464447021484375, -0.04737791419029236, 0.10432088375091553, -0.7181320786476135, -0.815623939037323, -0.9768797755241394, 0.05668918788433075, -0.8311289239132009, 0.4388924922242836, -3.2023340871209625, 9362.0, 30146.0, 35388.0, 9362.0, 8.152067184448242, 0.035087522119283676, 0.20307332277297974, 0.40246835350990295, -0.07822517305612564, -0.05170351266860962, 0.9969688653945923, -0.08247499912977219, -0.06647872924804688, 1.490478515625, 1.450927734375, 0.1063690185546875, 1.491943359375, 1.434814453125, 10.0, 1.0, 10.0, 1.4135171175003052
13812, -0.6182036995887756, 0.2761262059211731, -1.7216823101043701, -0.02410636842250824, 0.051636211574077606, -4.471630096435547, -0.047818686813116074, 0.10539233684539795, -0.7184553146362305, -0.8156263828277588, -0.9768837094306946, 0.056703414767980576, -0.826865720106575, 0.43728906831213976, -3.20085703294397, 9362.0, 30146.0, 35388.0, 9362.0, 8.152067184448242, -0.0297604501247406, -0.12915082275867462, 0.05566176772117615, -0.07897403091192245, -0.0527215451002121, 0.995415985584259, -0.08247499912977219, -0.06647872924804688, 1.490478515625, 1.450927734375, 0.1063690185546875, 1.491943359375, 1.434814453125, 10.0, 1.0, 10.0, 1.4135171175003052
13822, -0.6178968548774719, 0.2763800024986267, -1.7213504314422607, -0.024586759507656097, 0.05269548296928406, -4.478816032409668, -0.048259396106004715, 0.10646232217550278, -0.7187070250511169, -0.8156185746192932, -0.976860761642456, 0.05670248717069626, -0.8363241803561341, 0.4328513888630141, -3.1953286992996257, 9362.0, 30146.0, 35388.0, 9362.0, 8.152067184448242, 0.22185467183589935, 0.40547335147857666, 0.07893574237823486, -0.07996445149183273, -0.05213218927383423, 0.9963762760162354, -0.08247499912977219, -0.06647872924804688, 1.490478515625, 1.450927734375, 0.1063690185546875, 1.491943359375, 1.434814453125, 10.0, 1.0, 10.0, 1.4135171175003052
13832, -0.6163418889045715, 0.27364325523376465, -1.720955729484558, -0.02507154829800129, 0.053765445947647095, -4.4860053062438965, -0.048698343336582184, 0.1075301393866539, -0.7191111445426941, -0.8156219720840454, -0.9768689870834351, 0.05668641999363899, -0.8317190509679517, 0.43403043085683635, -3.1900357702090503, 9362.0, 30146.0, 35388.0, 9362.0, 8.152067184448242, -0.05055062845349312, 0.014566351659595966, -0.10990770161151886, -0.07996445149183273, -0.05213218927383423, 0.9963762760162354, -0.08247499912977219, -0.06647872924804688, 1.490478515625, 1.450927734375, 0.1063690185546875, 1.491943359375, 1.434814453125, 10.0, 1.0, 10.0, 1.4138123989105225
