timeTick, roll, pitch, yaw, stateX, stateY, stateZ, stateVX, stateVY, stateVZ, otX0, otY0, otZ0, otRoll0, otPitch0, otYaw0, left wing, pitch motor, yaw motor, right wing, voltage, roll rate, pitch rate, yaw rate, A_x, A_y, A_z, current, i_raw, v_raw, airflow_voltage, airflow_speed, pot_Pitch, voltage_nKF, kFFx, state, State, volt_KF
13184, -0.1725291609764099, 1.6420050859451294, -0.5372352004051208, 0, 0, 0, 0, 0, 0, -0.8183898329734802, -0.977599561214447, 0.05906878784298897, 0.1625157637646011, -0.31275376152075296, 0.19323673750660622, 0, 0, 0, 0, 0, 0, 0, 0, 0, 0, 0, 0, 0, 0, 0, 0, 0, 0, 0, 0, 0, 0
13194, -0.17237192392349243, 1.6420358419418335, -0.538543164730072, 0.0003225429099984467, -3.7109530239831656e-05, -3.8132379055023193, 0.013324970379471779, -0.0015335236676037312, -0.6599447131156921, -0.8183782696723938, -0.9774879813194275, 0.059065673500299454, 0.17853002736839724, -0.3059578535922469, 0.13155309311607133, 9362.0, 30146.0, 35388.0, 9362.0, 0, 0.1226082518696785, 0.018848014995455742, -0.07698234915733337, -0.09274819493293762, -0.029562951996922493, 0.9931703209877014, 0, 0, 0, 0, 0, 0, 0, 0, 0, 0, 0
13204, -0.17093193531036377, 1.6416674852371216, -0.539520800113678, 0.000441808660980314, -5.0842536438722163e-05, -3.8198394775390625, 0.010528188198804855, -0.0012130126124247909, -0.6603801250457764, -0.8183895349502563, -0.9774829745292664, 0.059060245752334595, 0.17931709892587613, -0.3126217001790508, 0.12825185060996033, 9362.0, 30146.0, 35388.0, 9362.0, 0, -0.0524822361767292, 0.35261374711990356, 0.06409485638141632, -0.09535648673772812, -0.0294586643576622, 0.9924169182777405, 0, 0, 0, 1.408447265625, 0.0485382080078125, 0, 1.32568359375, 10.0, 1.0, 10.0, 1.405171513557434
13214, -0.17118488252162933, 1.6400682926177979, -0.5384545922279358, 0.0005331425927579403, -6.137559830676764e-05, -3.826446771621704, 0.007738595362752676, -0.000893537187948823, -0.6610683798789978, -0.818376898765564, -0.9774889945983887, 0.05906014144420624, 0.1805781670209812, -0.3102058384986037, 0.12655828125135132, 9362.0, 30146.0, 35388.0, 9362.0, 0, -0.05917355790734291, -0.09917886555194855, 0.02879847027361393, -0.09492545574903488, -0.030190501362085342, 0.996231198310852, 0, 0, 0, 1.427490234375, 0.0716400146484375, 1.496337890625, 1.332275390625, 10.0, 1.0, 10.0, 1.4049848318099976
13224, -0.1716591864824295, 1.6408569812774658, -0.5392729043960571, 0.0005965911550447345, -6.872678932268173e-05, -3.8330612182617188, 0.004951085429638624, -0.0005767563125118613, -0.6618090867996216, -0.8183209896087646, -0.9776622653007507, 0.05911683663725853, 0.18038435688100568, -0.3048482563811774, 0.20972719489545513, 9362.0, 30146.0, 35388.0, 9362.0, 0, -0.0930306538939476, 0.01891924999654293, 0.13925781846046448, -0.09438082575798035, -0.027773559093475342, 0.9959238767623901, 0, 0, 0, 1.27587890625, 0.092620849609375, 1.496337890625, 1.437744140625, 10.0, 1.0, 10.0, 1.4048292636871338
13234, -0.17238660156726837, 1.6408324241638184, -0.5381742119789124, 0.0006321314140222967, -7.290308712981641e-05, -3.839681386947632, 0.0021569726523011923, -0.0002584659378044307, -0.6622228026390076, -0.8183879256248474, -0.9775993227958679, 0.0590691864490509, 0.16984817772796384, -0.3144462665472929, 0.18790268208745414, 9362.0, 30146.0, 35388.0, 9362.0, 0, 0.07545171678066254, 0.09709051251411438, -0.21280314028263092, -0.09486943483352661, -0.029653679579496384, 0.9942538142204285, 0, 0, 0, 1.241455078125, 0.192626953125, 1.49560546875, 1.365966796875, 10.0, 1.0, 10.0, 1.4045615196228027
13244, -0.17104999721050262, 1.6393643617630005, -0.5392331480979919, 0.0006397271063178778, -7.389254460576922e-05, -3.8463058471679688, -0.0006378390244208276, 6.0516314988490194e-05, -0.6626593470573425, -0.8183714151382446, -0.9775397777557373, 0.05906335636973381, 0.20834367577074983, -0.3210490390862901, 0.12672057478405105, 9362.0, 30146.0, 35388.0, 9362.0, 0, -0.28966474533081055, 0.2574673891067505, -0.00465021189302206, -0.09544402360916138, -0.02996986359357834, 0.9934446811676025, 0, 0, 0, 1.33740234375, 0.0175323486328125, 1.49560546875, 1.36962890625, 10.0, 1.0, 10.0, 1.4045435190200806
13254, -0.1726154088973999, 1.6367521286010742, -0.5392164587974548, 0.0006193933077156544, -7.168835873017088e-05, -3.852935314178467, -0.003428919706493616, 0.00038038313505239785, -0.6632242798805237, -0.8183746933937073, -0.9775905013084412, 0.05907723680138588, 0.16448582641716045, -0.31488572610862775, 0.19224478808112808, 9362.0, 30146.0, 35388.0, 9362.0, 0, 0.1465451717376709, -0.28686702251434326, 0.005010033026337624, -0.09724113345146179, -0.028441820293664932, 0.9908239841461182, 0, 0, 0, 1.380615234375, 0.024749755859375, 1.496337890625, 1.39013671875, 10.0, 1.0, 10.0, 1.4045466184616089
13264, -0.17196741700172424, 1.6384574174880981, -0.5400636792182922, 0.0005711772828362882, -6.629857671214268e-05, -3.8595709800720215, -0.006214316468685865, 0.0006975565338507295, -0.6639019846916199, -0.8183687925338745, -0.977636992931366, 0.05906589329242706, 0.19322205270837264, -0.3231077685984758, 0.18187712530052633, 9362.0, 30146.0, 35388.0, 9362.0, 0, -0.032583992928266525, -0.022857442498207092, 0.10160402953624725, -0.09425275772809982, -0.027784792706370354, 0.9925320148468018, 0, 0, 0, 1.423095703125, 0.06591796875, 1.496337890625, 1.305908203125, 10.0, 1.0, 10.0, 1.4044559001922607
13274, -0.17271465063095093, 1.6383894681930542, -0.5393574237823486, 0.0004951591836288571, -5.772736039943993e-05, -3.8662145137786865, -0.008989276364445686, 0.0010167364962399006, -0.6647867560386658, -0.8183698058128357, -0.9776352643966675, 0.05907273665070534, 0.1912702394612324, -0.32152689450180105, 0.18889606900404912, 9362.0, 30146.0, 35388.0, 9362.0, 0, 0.30542561411857605, 0.41503921151161194, 0.058106429874897, -0.09451345354318619, -0.029239630326628685, 0.9959815144538879, 0, 0, 0, 1.44287109375, 0.0936279296875, 1.48974609375, 1.382080078125, 10.0, 1.0, 10.0, 1.4039572477340698
13284, -0.1717512607574463, 1.6359180212020874, -0.5400842428207397, 0.00039135661791078746, -4.596717553795315e-05, -3.872866153717041, -0.01177123747766018, 0.001335257780738175, -0.6655292510986328, -0.8183462023735046, -0.977612316608429, 0.05910366773605347, 0.14988715291330906, -0.299917275610909, 0.2143482114573622, 9362.0, 30146.0, 35388.0, 9362.0, 7.8942155838012695, 0.17143015563488007, 0.2668851613998413, -0.10277019441127777, -0.09519902616739273, -0.03037955053150654, 0.995110034942627, -0.05806751921772957, -0.04855918884277344, 1.491943359375, 1.44580078125, 0.098236083984375, 1.48974609375, 1.30224609375, 10.0, 1.0, 10.0, 1.4039528369903564
13294, -0.17073887586593628, 1.632371425628662, -0.5394779443740845, 0.0002596954582259059, -3.101104448433034e-05, -3.879523754119873, -0.01456101518124342, 0.001656009815633297, -0.6659940481185913, -0.8183858394622803, -0.9775896072387695, 0.059083834290504456, 0.1679252477923065, -0.3190298769324329, 0.19547736796565432, 9362.0, 30146.0, 35388.0, 9362.0, 7.8942155838012695, -0.05885747820138931, 0.05549738556146622, 0.08789205551147461, -0.09275100380182266, -0.02816132828593254, 0.9935671091079712, -0.05806751921772957, -0.04855918884277344, 1.491943359375, 1.4033203125, 0.043182373046875, 1.49267578125, 1.370361328125, 10.0, 1.0, 10.0, 1.4035356044769287
13304, -0.1712716668844223, 1.6313148736953735, -0.5384424924850464, 0.00010016777378041297, -1.2856802641181275e-05, -3.886186361312866, -0.017344560474157333, 0.0019748175982385874, -0.6665306091308594, -0.8183912634849548, -0.9775919914245605, 0.05909387767314911, 0.16461528723766225, -0.31755006538952557, 0.1911663767932972, 9362.0, 30146.0, 35388.0, 9362.0, 7.8942155838012695, 0.2055308222770691, 0.15009848773479462, -0.026271531358361244, -0.09457867592573166, -0.02775254286825657, 0.9939303398132324, -0.05806751921772957, -0.04855918884277344, 1.491943359375, 1.358642578125, 0.0159912109375, 1.49267578125, 1.42236328125, 10.0, 1.0, 10.0, 1.403602957725525
13314, -0.1707882434129715, 1.6313482522964478, -0.5386263132095337, -8.71478405315429e-05, 8.474467904306948e-06, -3.892854928970337, -0.020118577405810356, 0.002291381359100342, -0.66718989610672, -0.8184081315994263, -0.9775667786598206, 0.05899571627378464, 0.16462560910108798, -0.30096482773768685, 0.17552789527765802, 9362.0, 30146.0, 35388.0, 9362.0, 7.8942155838012695, -0.2301180362701416, 0.17516747117042542, 0.2613637149333954, -0.09385994076728821, -0.030788350850343704, 0.9940102696418762, -0.05806751921772957, -0.04855918884277344, 1.491943359375, 1.351318359375, 0.0153350830078125, 1.496337890625, 1.41943359375, 10.0, 1.0, 10.0, 1.403709888458252
13324, -0.17238500714302063, 1.6302647590637207, -0.5361375212669373, -0.0003021970624104142, 3.2975854992400855e-05, -3.8995299339294434, -0.02289125882089138, 0.002608909737318754, -0.6678318381309509, -0.8183683753013611, -0.9776421189308167, 0.059079915285110474, 0.19528876537122647, -0.32587178842001663, 0.1782619080668732, 9362.0, 30146.0, 35388.0, 9362.0, 7.8942155838012695, -0.05212368071079254, 0.5442794561386108, 0.2739076614379883, -0.09329328685998917, -0.030577819794416428, 0.9960417151451111, -0.05806751921772957, -0.04855918884277344, 1.491943359375, 1.42236328125, 0.0649566650390625, 1.496337890625, 1.434814453125, 10.0, 1.0, 10.0, 1.4032349586486816
13334, -0.1726951003074646, 1.6258652210235596, -0.5333052277565002, -0.0005449769669212401, 6.0648861108347774e-05, -3.9062113761901855, -0.02566474676132202, 0.0029255577828735113, -0.6684489846229553, -0.8184139132499695, -0.9775644540786743, 0.05900225043296814, 0.16051116953278421, -0.30091423553216146, 0.17851410591409558, 9362.0, 30146.0, 35388.0, 9362.0, 7.8942155838012695, 0.008313793689012527, 0.15342582762241364, 0.031195418909192085, -0.09456795454025269, -0.03050452098250389, 0.9931230545043945, -0.05806751921772957, -0.04855918884277344, 1.491943359375, 1.23046875, 0.235137939453125, 1.49853515625, 1.31689453125, 10.0, 1.0, 10.0, 1.4034204483032227
13344, -0.1725761443376541, 1.624225378036499, -0.5332702398300171, -0.0008155052782967687, 9.150386904366314e-05, -3.912898063659668, -0.02844095416367054, 0.0032453068997710943, -0.6689058542251587, -0.8184016942977905, -0.9775875210762024, 0.05900929868221283, 0.1643286649787867, -0.3015147446133142, 0.17038223512854225, 9362.0, 30146.0, 35388.0, 9362.0, 7.8942155838012695, 0.1585070788860321, 0.15670357644557953, 0.05229145288467407, -0.09489335864782333, -0.031344860792160034, 0.9938866496086121, -0.05806751921772957, -0.04855918884277344, 1.491943359375, 1.32421875, 0.024139404296875, 1.49853515625, 1.330810546875, 10.0, 1.0, 10.0, 1.4035255908966064
13354, -0.17236825823783875, 1.6221630573272705, -0.5330377817153931, -0.00111372338142246, 0.00012555396824609488, -3.919590711593628, -0.03120269440114498, 0.0035647114273160696, -0.6696075201034546, -0.818394124507904, -0.9775847792625427, 0.05905413627624512, 0.16454309510884277, -0.3174613512623239, 0.19074984780719775, 9362.0, 30146.0, 35388.0, 9362.0, 7.8942155838012695, -0.024278804659843445, -0.03441489115357399, -0.20340155065059662, -0.09550786763429642, -0.030502842739224434, 0.9934312701225281, -0.05806751921772957, -0.04855918884277344, 1.491943359375, 1.2275390625, 0.24749755859375, 1.49267578125, 1.44580078125, 10.0, 1.0, 10.0, 1.4035296440124512
13364, -0.1723143756389618, 1.6216861009597778, -0.5335547924041748, -0.0014395508915185928, 0.00016279764531645924, -3.9262900352478027, -0.03396284952759743, 0.0038840160705149174, -0.6702672243118286, -0.8184043765068054, -0.9775860905647278, 0.05903129652142525, 0.15831728106790469, -0.30842815926314415, 0.2006329877160518, 9362.0, 30146.0, 35388.0, 9362.0, 7.8942155838012695, -0.10445377975702286, 0.21995389461517334, 0.20759736001491547, -0.09300913661718369, -0.030735380947589874, 0.9948371052742004, -0.05806751921772957, -0.04855918884277344, 1.491943359375, 1.2568359375, 0.1420135498046875, 1.49267578125, 1.4091796875, 10.0, 1.0, 10.0, 1.403519630432129
13374, -0.17232593894004822, 1.6197160482406616, -0.5318000912666321, -0.0017929644091054797, 0.00020323260105215013, -3.9329960346221924, -0.03671986237168312, 0.004203001037240028, -0.6709131598472595, -0.8183891773223877, -0.9775936603546143, 0.05906115099787712, 0.16517271076872067, -0.317450529984626, 0.19487787467516393, 9362.0, 30146.0, 35388.0, 9362.0, 7.8942155838012695, -0.012406437657773495, -0.023018598556518555, 0.14533330500125885, -0.09244773536920547, -0.02871096506714821, 0.9949977993965149, -0.05806751921772957, -0.04855918884277344, 1.491943359375, 1.41943359375, 0.0612945556640625, 1.49267578125, 1.46630859375, 10.0, 1.0, 10.0, 1.4033854007720947
13384, -0.1730203628540039, 1.6202950477600098, -0.5302118062973022, -0.002173957647755742, 0.0002468586026225239, -3.9397079944610596, -0.03947880491614342, 0.00452211732044816, -0.671462893486023, -0.8183808326721191, -0.9774845838546753, 0.05904608219861984, 0.17879408342980582, -0.30679719758677493, 0.12554642962727539, 9362.0, 30146.0, 35388.0, 9362.0, 7.8942155838012695, -0.20616298913955688, -0.3142324984073639, -0.2179907113313675, -0.09380229562520981, -0.029756516218185425, 0.9943239092826843, -0.04623004421591759, 0.04104042053222656, 1.499267578125, 1.445068359375, 0.0970306396484375, 1.49267578125, 1.332275390625, 10.0, 1.0, 10.0, 1.402876615524292
13394, -0.17455023527145386, 1.6215921640396118, -0.5309578776359558, -0.0025825263001024723, 0.0002936756063718349, -3.946425199508667, -0.042234934866428375, 0.004841205198317766, -0.6719928979873657, -0.8183611631393433, -0.9775795936584473, 0.059047773480415344, 0.15044111787982303, -0.27852032565724016, 0.1912196865984056, 9362.0, 30146.0, 35388.0, 9362.0, 7.8942155838012695, 0.06441634148359299, -0.38727691769599915, -0.060607895255088806, -0.09505379945039749, -0.028126846998929977, 0.9937586188316345, -0.04623004421591759, 0.04104042053222656, 1.499267578125, 1.320556640625, 0.02685546875, 1.496337890625, 1.324951171875, 10.0, 1.0, 10.0, 1.4028921127319336
13404, -0.1737576127052307, 1.6229180097579956, -0.5317026376724243, -0.0030186516232788563, 0.0003436879487708211, -3.953148126602173, -0.04499011114239693, 0.005161288194358349, -0.6725910305976868, -0.8183852434158325, -0.9776057004928589, 0.05905642732977867, 0.1657479391009543, -0.31794573515162483, 0.18901712710124316, 9362.0, 30146.0, 35388.0, 9362.0, 7.8942155838012695, 0.09434795379638672, 0.19229087233543396, -0.11335655301809311, -0.09367755800485611, -0.029580894857645035, 0.9948616027832031, -0.04623004421591759, 0.04104042053222656, 1.499267578125, 1.282470703125, 0.0786590576171875, 1.496337890625, 1.440673828125, 10.0, 1.0, 10.0, 1.4028559923171997
13414, -0.17379100620746613, 1.620531439781189, -0.5328879356384277, -0.0034823298919945955, 0.0003969132958445698, -3.9598774909973145, -0.04774552211165428, 0.0054838270880281925, -0.6732576489448547, -0.8184291124343872, -0.9775667190551758, 0.05899827554821968, 0.1590303255747003, -0.2977777878610368, 0.1647569796463502, 9362.0, 30146.0, 35388.0, 9362.0, 7.8942155838012695, 0.11599275469779968, 0.18185938894748688, -0.1892654448747635, -0.0941549688577652, -0.027453642338514328, 0.9958903789520264, -0.04623004421591759, 0.04104042053222656, 1.499267578125, 1.330078125, 0.0206298828125, 1.502197265625, 1.36083984375, 10.0, 1.0, 10.0, 1.402541160583496
13424, -0.17279741168022156, 1.6182674169540405, -0.5339694619178772, -0.003973595332354307, 0.00045336014591157436, -3.9666125774383545, -0.05050759017467499, 0.005805595312267542, -0.6737700700759888, -0.8183966875076294, -0.9775964021682739, 0.05905421823263168, 0.16879145527124978, -0.31812567696536576, 0.19458913598804914, 9362.0, 30146.0, 35388.0, 9362.0, 7.8942155838012695, 0.09047956019639969, 0.10542699694633484, -0.25688233971595764, -0.09494783729314804, -0.027961108833551407, 0.9933669567108154, -0.04623004421591759, 0.04104042053222656, 1.499267578125, 1.36962890625, 0.01910400390625, 1.502197265625, 1.418701171875, 10.0, 1.0, 10.0, 1.4025131464004517
13434, -0.17251291871070862, 1.6173526048660278, -0.5354556441307068, -0.004492463544011116, 0.000513025326654315, -3.9733526706695557, -0.05326605215668678, 0.006127494387328625, -0.6742662787437439, -0.8183490633964539, -0.9776015281677246, 0.059111058712005615, 0.15179892381496315, -0.3005540561371447, 0.21922902913702683, 9362.0, 30146.0, 35388.0, 9362.0, 7.8942155838012695, -0.12291932106018066, 0.14697709679603577, 0.13514474034309387, -0.09316650032997131, -0.029937108978629112, 0.9929830431938171, -0.04623004421591759, 0.04104042053222656, 1.499267578125, 1.390869140625, 0.0319671630859375, 1.494140625, 1.21728515625, 10.0, 1.0, 10.0, 1.4025766849517822
13444, -0.17261458933353424, 1.61692214012146, -0.5343188047409058, -0.005038868635892868, 0.0005758978077210486, -3.9800987243652344, -0.05601494759321213, 0.0064470707438886166, -0.674964189529419, -0.8183624148368835, -0.97752445936203, 0.059121374040842056, 0.15575478133475748, -0.3330068677105942, 0.1535536821965869, 9362.0, 30146.0, 35388.0, 9362.0, 7.8942155838012695, -0.10737267136573792, 0.359218955039978, -0.18873536586761475, -0.09312095493078232, -0.031170256435871124, 0.9942947626113892, -0.04623004421591759, 0.04104042053222656, 1.499267578125, 1.408447265625, 0.0485382080078125, 1.494140625, 1.434814453125, 10.0, 1.0, 10.0, 1.4025368690490723
13454, -0.1727275848388672, 1.6154553890228271, -0.5344772934913635, -0.005612754728645086, 0.0006419639103114605, -3.986851930618286, -0.058762311935424805, 0.00676609156653285, -0.6756620407104492, -0.8183415532112122, -0.9776328206062317, 0.0591750293970108, 0.12804928742014432, -0.32714067287992066, 0.23955818663987422, 9362.0, 30146.0, 35388.0, 9362.0, 7.8942155838012695, 0.1670548915863037, 0.2639003396034241, 0.48011350631713867, -0.09333431720733643, -0.02999560721218586, 0.993781328201294, -0.04623004421591759, 0.04104042053222656, 1.499267578125, 1.42529296875, 0.0688018798828125, 1.493408203125, 1.43994140625, 10.0, 1.0, 10.0, 1.4026002883911133
13464, -0.17258398234844208, 1.6132876873016357, -0.5321534276008606, -0.0062141213566064835, 0.0007112219464033842, -3.9936115741729736, -0.06151099130511284, 0.007085524033755064, -0.6762871146202087, -0.8183740973472595, -0.977635383605957, 0.05914389342069626, 0.14304665826608173, -0.3381772689583613, 0.21816532932782265, 9362.0, 30146.0, 35388.0, 9362.0, 7.8942155838012695, 0.009145763702690601, -0.20647871494293213, -0.24542132019996643, -0.09600328654050827, -0.03257625922560692, 0.9940516948699951, -0.04623004421591759, 0.04104042053222656, 1.499267578125, 1.450927734375, 0.1063690185546875, 1.493408203125, 1.41357421875, 10.0, 1.0, 10.0, 1.402309775352478
13474, -0.17219220101833344, 1.6134250164031982, -0.5349836349487305, -0.006842959672212601, 0.0007836748845875263, -4.000377655029297, -0.0642566978931427, 0.00740495789796114, -0.6769297122955322, -0.8183278441429138, -0.9775547981262207, 0.059228863567113876, 0.18664798916324077, -0.3588702648605988, 0.24428494348616886, 9362.0, 30146.0, 35388.0, 9362.0, 7.8942155838012695, 0.29304367303848267, -0.08814004063606262, -0.11724499613046646, -0.09545955806970596, -0.031232105568051338, 0.9930534958839417, -0.04623004421591759, 0.04104042053222656, 1.499267578125, 1.38134765625, 0.025177001953125, 1.490478515625, 1.4267578125, 10.0, 1.0, 10.0, 1.4022544622421265
13484, -0.17074967920780182, 1.6124792098999023, -0.53731769323349, -0.007499238010495901, 0.0008593203965574503, -4.007150173187256, -0.0669989213347435, 0.007724279072135687, -0.6775636076927185, -0.8183016777038574, -0.9777171015739441, 0.05928106606006622, 0.1858632454064737, -0.36236192133713985, 0.23180793167265987, 9362.0, 30146.0, 35388.0, 9362.0, 7.8942155838012695, 0.04525236040353775, 0.27645090222358704, 0.08792111277580261, -0.09455249458551407, -0.029176410287618637, 0.9948550462722778, -0.0440032072365284, 0.1485614776611328, 1.508056640625, 1.40185546875, 0.0417938232421875, 1.490478515625, 1.21142578125, 10.0, 1.0, 10.0, 1.402234435081482
13494, -0.17129731178283691, 1.6103649139404297, -0.5373527407646179, -0.008182927034795284, 0.0009381550480611622, -4.01392936706543, -0.0697389543056488, 0.0080427760258317, -0.6782844066619873, -0.8183116316795349, -0.977666974067688, 0.05930251628160477, 0.15490460338011944, -0.35475527791317063, 0.24244988568075324, 9362.0, 30146.0, 35388.0, 9362.0, 7.8942155838012695, 0.1920933574438095, 0.23888742923736572, 0.053787752985954285, -0.0946100577712059, -0.028578177094459534, 0.9941646456718445, -0.0440032072365284, 0.1485614776611328, 1.508056640625, 1.373291015625, 0.0207366943359375, 1.49560546875, 1.327880859375, 10.0, 1.0, 10.0, 1.402228593826294
13504, -0.1709095537662506, 1.607926607131958, -0.5374438166618347, -0.008894030936062336, 0.0010201653931289911, -4.020715236663818, -0.07248176634311676, 0.008359290659427643, -0.6788496375083923, -0.8183610439300537, -0.977655291557312, 0.05924355238676071, 0.16672514985856854, -0.37013458764070606, 0.22063141050553217, 9362.0, 30146.0, 35388.0, 9362.0, 7.8942155838012695, -0.1227973997592926, -0.10277057439088821, 0.10869790613651276, -0.0944201797246933, -0.029972828924655914, 0.9922721982002258, -0.0440032072365284, 0.1485614776611328, 1.508056640625, 1.435546875, 0.0829315185546875, 1.49560546875, 1.443603515625, 10.0, 1.0, 10.0, 1.4022578001022339
13514, -0.17144739627838135, 1.608048677444458, -0.5363780856132507, -0.009632536210119724, 0.0011053445050492883, -4.0275068283081055, -0.07521937787532806, 0.008676531724631786, -0.6794716715812683, -0.818329930305481, -0.9776978492736816, 0.05925659090280533, 0.20107439171438699, -0.38392117944675874, 0.2161013100846247, 9362.0, 30146.0, 35388.0, 9362.0, 7.8942155838012695, 0.1877770721912384, 0.26662689447402954, 0.1837962120771408, -0.09354796260595322, -0.030765067785978317, 0.994036078453064, -0.0440032072365284, 0.1485614776611328, 1.508056640625, 1.41650390625, 0.0577545166015625, 1.494873046875, 1.388671875, 10.0, 1.0, 10.0, 1.4023642539978027
13544, -0.1698365956544876, 1.6066958904266357, -0.5365040302276611, -0.012012005783617496, 0.0013798772124573588, -4.0479230880737305, -0.08341457694768906, 0.009625260718166828, -0.6814181804656982, -0.8183526396751404, -0.9776576161384583, 0.05925381928682327, 0.17295863970762396, -0.37016584467971825, 0.21261725721144056, 9362.0, 30146.0, 35388.0, 9362.0, 7.8942155838012695, -0.06030237674713135, -0.16589076817035675, -0.08258973807096481, -0.09404435753822327, -0.02935105375945568, 0.996849775314331, -0.0440032072365284, 0.1485614776611328, 1.508056640625, 1.318359375, 0.028656005859375, 1.494873046875, 1.412109375, 10.0, 1.0, 10.0, 1.401875615119934
13554, -0.16938267648220062, 1.6076817512512207, -0.5377097725868225, -0.012012005783617496, 0.0013798772124573588, -4.0479230880737305, -0.08341457694768906, 0.009625260718166828, -0.6814181804656982, -0.8183181881904602, -0.9776601195335388, 0.05926444008946419, 0.15150163659536847, -0.35671230441451485, 0.2450708842346968, 9362.0, 30146.0, 35388.0, 9362.0, 7.8942155838012695, 0.1276768296957016, 0.41623613238334656, -0.07824677973985672, -0.09592413157224655, -0.027541227638721466, 0.995524525642395, -0.0440032072365284, 0.1485614776611328, 1.508056640625, 1.318359375, 0.028656005859375, 1.502197265625, 1.40771484375, 10.0, 1.0, 10.0, 1.401875615119934
13564, -0.1680223047733307, 1.6047254800796509, -0.5388598442077637, -0.013735007494688034, 0.0015786797739565372, -4.061559677124023, -0.08888765424489975, 0.010255471803247929, -0.682216227054596, -0.8183547854423523, -0.9776525497436523, 0.0592394582927227, 0.16908070264348313, -0.3690416227191804, 0.23049441369085677, 9362.0, 30146.0, 35388.0, 9362.0, 7.8942155838012695, 0.03702092170715332, -0.35753464698791504, -0.3296554684638977, -0.09592413157224655, -0.027541227638721466, 0.995524525642395, -0.0440032072365284, 0.1485614776611328, 1.508056640625, 1.318359375, 0.028656005859375, 1.502197265625, 1.40771484375, 10.0, 1.0, 10.0, 1.4011164903640747
13574, -0.16737456619739532, 1.6060847043991089, -0.5415754914283752, -0.013735007494688034, 0.0015786797739565372, -4.061559677124023, -0.08888765424489975, 0.010255471803247929, -0.682216227054596, -0.8182910680770874, -0.9775778651237488, 0.059290286153554916, 0.17141184022967054, -0.34377797182904146, 0.25846814113647304, 9362.0, 30146.0, 35388.0, 9362.0, 7.8942155838012695, 0.11812447011470795, 0.03671136125922203, -0.3711308240890503, -0.09455456584692001, -0.02766568399965763, 0.9980728626251221, -0.0440032072365284, 0.1485614776611328, 1.508056640625, 1.318359375, 0.028656005859375, 1.49560546875, 1.420166015625, 10.0, 1.0, 10.0, 1.4011164903640747
13594, -0.16814522445201874, 1.604967474937439, -0.5435729026794434, -0.01652481220662594, 0.0019004549831151962, -4.0820441246032715, -0.09710051119327545, 0.011194505728781223, -0.6833165884017944, -0.8183461427688599, -0.9776479601860046, 0.05925453081727028, 0.17048233655827097, -0.36621928442303897, 0.21184213283550132, 9362.0, 30146.0, 35388.0, 9362.0, 7.8942155838012695, -0.22396259009838104, -0.04221009835600853, -0.10228751599788666, -0.09482575207948685, -0.030163975432515144, 0.9950365424156189, -0.0440032072365284, 0.1485614776611328, 1.508056640625, 1.318359375, 0.028656005859375, 1.49560546875, 1.420166015625, 10.0, 1.0, 10.0, 1.4013335704803467
13604, -0.16893813014030457, 1.6059218645095825, -0.5441771149635315, -0.017509492114186287, 0.002013955730944872, -4.0888800621032715, -0.09983553737401962, 0.011505606584250927, -0.6838369369506836, -0.8183572292327881, -0.9776549935340881, 0.05923851579427719, 0.1705669663706116, -0.3671376182189192, 0.2174481974279791, 9362.0, 30146.0, 35388.0, 9362.0, 7.8942155838012695, 0.05945805832743645, 0.1769416630268097, 0.3106779456138611, -0.09355279803276062, -0.029126880690455437, 0.9942528009414673, -0.0440032072365284, 0.1485614776611328, 1.508056640625, 1.42529296875, 0.0688018798828125, 1.49560546875, 1.420166015625, 10.0, 1.0, 10.0, 1.4013469219207764
13614, -0.16790498793125153, 1.6050963401794434, -0.5412869453430176, -0.017509492114186287, 0.002013955730944872, -4.0888800621032715, -0.09983553737401962, 0.011505606584250927, -0.6838369369506836, -0.8183524012565613, -0.9776641130447388, 0.05925700068473816, 0.16348836066636044, -0.36718500120579733, 0.22663964338594494, 9362.0, 30146.0, 35388.0, 9362.0, 7.8942155838012695, -0.04125069081783295, -0.39917701482772827, -0.5390994548797607, -0.09599073976278305, -0.029568888247013092, 0.9915036559104919, -0.0440032072365284, 0.1485614776611328, 1.508056640625, 1.42529296875, 0.0688018798828125, 1.49560546875, 1.439208984375, 10.0, 1.0, 10.0, 1.4013469219207764
13624, -0.16777461767196655, 1.6075221300125122, -0.543126106262207, -0.019560830667614937, 0.0022503228392452, -4.102567195892334, -0.10529828816652298, 0.012131541967391968, -0.6849276423454285, -0.8183521628379822, -0.9776531457901001, 0.05924004316329956, 0.1663443564314899, -0.37344011027943225, 0.2282437364777059, 9362.0, 30146.0, 35388.0, 9362.0, 7.8942155838012695, 0.07869986444711685, -0.3178021311759949, -0.12481947243213654, -0.09454035758972168, -0.028366543352603912, 0.9952423572540283, -0.0440032072365284, 0.1485614776611328, 1.508056640625, 1.42529296875, 0.0688018798828125, 1.49560546875, 1.42529296875, 10.0, 1.0, 10.0, 1.4013469219207764
13634, -0.16748785972595215, 1.6093324422836304, -0.5444615483283997, -0.019560830667614937, 0.0022503228392452, -4.102567195892334, -0.10529828816652298, 0.012131541967391968, -0.6849276423454285, -0.818353533744812, -0.9776551723480225, 0.0592275895178318, 0.16789760095603912, -0.3686772057070584, 0.2201029913132997, 9362.0, 30146.0, 35388.0, 9362.0, 7.8942155838012695, -0.11281055212020874, 0.04639776423573494, -0.061576128005981445, -0.09251292794942856, -0.029115691781044006, 0.9952470064163208, -0.0440032072365284, 0.1485614776611328, 1.508056640625, 1.42529296875, 0.0688018798828125, 1.49853515625, 1.3798828125, 10.0, 1.0, 10.0, 1.4013469219207764
13644, -0.16774167120456696, 1.6085749864578247, -0.5448411703109741, -0.02172134630382061, 0.002499180380254984, -4.116279602050781, -0.11075875908136368, 0.012754622846841812, -0.6862048506736755, -0.8183562755584717, -0.9776652455329895, 0.0592292919754982, 0.17134412730882845, -0.3682476240222172, 0.22069353776762288, 9362.0, 30146.0, 35388.0, 9362.0, 7.8942155838012695, 0.013827568851411343, 0.2174879014492035, -0.2018934041261673, -0.09251292794942856, -0.029115691781044006, 0.9952470064163208, -0.0440032072365284, 0.1485614776611328, 1.508056640625, 1.42529296875, 0.0688018798828125, 1.49853515625, 1.3798828125, 10.0, 1.0, 10.0, 1.4014440774917603
13654, -0.16742132604122162, 1.6085816621780396, -0.5453110337257385, -0.02172134630382061, 0.002499180380254984, -4.116279602050781, -0.11075875908136368, 0.012754622846841812, -0.6862048506736755, -0.8183549642562866, -0.9776623845100403, 0.05923329293727875, 0.1664788442993463, -0.37173976819022414, 0.2245044089476995, 9362.0, 30146.0, 35388.0, 9362.0, 7.8942155838012695, -0.14233164489269257, 0.19086532294750214, -0.0072838193736970425, -0.09251292794942856, -0.029115691781044006, 0.9952470064163208, -0.0440032072365284, 0.1485614776611328, 1.508056640625, 1.42529296875, 0.0688018798828125, 1.49560546875, 1.3798828125, 10.0, 1.0, 10.0, 1.4016722440719604
13674, -0.16698452830314636, 1.6061686277389526, -0.5485492944717407, -0.0239912960678339, 0.002760504139587283, -4.130013942718506, -0.11623485386371613, 0.013377891853451729, -0.6872466802597046, -0.8183424472808838, -0.9776961207389832, 0.0592661052942276, 0.1956795271338529, -0.38062599533401453, 0.21652112652636657, 9362.0, 30146.0, 35388.0, 9362.0, 7.8942155838012695, 0.05502820387482643, 0.012334653176367283, -0.24800069630146027, -0.09488495439291, -0.02926686592400074, 0.9933215975761414, -0.0440032072365284, 0.1485614776611328, 1.508056640625, 1.42529296875, 0.0688018798828125, 1.494140625, 1.39892578125, 10.0, 1.0, 10.0, 1.4017360210418701
13694, -0.1658739149570465, 1.6065400838851929, -0.5506138205528259, -0.0239912960678339, 0.002760504139587283, -4.130013942718506, -0.11623485386371613, 0.013377891853451729, -0.6872466802597046, -0.8183432221412659, -0.9777072668075562, 0.05923919752240181, 0.2005463174990474, -0.3811873908692007, 0.22049038728598797, 9362.0, 30146.0, 35388.0, 9362.0, 7.8942155838012695, -0.15304821729660034, 0.19449366629123688, -0.02660880982875824, -0.09472814202308655, -0.028203530237078667, 0.9942538142204285, -0.0589628666639328, -0.0037593841552734375, 1.49560546875, 1.42529296875, 0.0688018798828125, 1.494140625, 1.423095703125, 10.0, 1.0, 10.0, 1.4017360210418701
13704, -0.16627070307731628, 1.6048589944839478, -0.5510107278823853, -0.028859451413154602, 0.003320475574582815, -4.157549858093262, -0.12716765701770782, 0.014618633314967155, -0.6895909905433655, -0.8183526992797852, -0.9776531457901001, 0.059237997978925705, 0.1648222566927196, -0.3678591550045667, 0.2217891871071874, 9362.0, 30146.0, 35388.0, 9362.0, 7.8942155838012695, 0.0021449520718306303, 0.14671169221401215, 0.07459542155265808, -0.09472814202308655, -0.028203530237078667, 0.9942538142204285, -0.0589628666639328, -0.0037593841552734375, 1.49560546875, 1.42529296875, 0.0688018798828125, 1.494140625, 1.423095703125, 10.0, 1.0, 10.0, 1.4016278982162476
13714, -0.16609646379947662, 1.6029235124588013, -0.5499809384346008, -0.028859451413154602, 0.003320475574582815, -4.157549858093262, -0.12716765701770782, 0.014618633314967155, -0.6895909905433655, -0.8183578252792358, -0.9776516556739807, 0.05924287438392639, 0.1668099933260378, -0.36672292700640696, 0.2259184761021296, 9362.0, 30146.0, 35388.0, 9362.0, 7.8942155838012695, 0.061417706310749054, -0.09273982048034668, 0.05736982822418213, -0.09453942626714706, -0.028967199847102165, 0.9932460784912109, -0.0589628666639328, -0.0037593841552734375, 1.49560546875, 1.42529296875, 0.0688018798828125, 1.494873046875, 1.423095703125, 10.0, 1.0, 10.0, 1.4016278982162476
13724, -0.1666540652513504, 1.603174090385437, -0.5493255257606506, -0.03145743906497955, 0.0036190261598676443, -4.171353340148926, -0.13262955844402313, 0.01523670181632042, -0.6907447576522827, -0.8183383345603943, -0.9777063131332397, 0.0592440590262413, 0.20350419450010337, -0.384550954900277, 0.22393421646656728, 9362.0, 30146.0, 35388.0, 9362.0, 7.8942155838012695, 0.1144075021147728, -0.11304822564125061, -0.023052919656038284, -0.09453942626714706, -0.028967199847102165, 0.9932460784912109, -0.0589628666639328, -0.0037593841552734375, 1.49560546875, 1.42529296875, 0.0688018798828125, 1.494873046875, 1.423095703125, 10.0, 1.0, 10.0, 1.4013978242874146
13734, -0.16586078703403473, 1.6043704748153687, -0.5494778752326965, -0.03145743906497955, 0.0036190261598676443, -4.171353340148926, -0.13262955844402313, 0.01523670181632042, -0.6907447576522827, -0.8183345794677734, -0.9777018427848816, 0.059231821447610855, 0.1997805128495845, -0.3788673007477428, 0.21634667171507502, 9362.0, 30146.0, 35388.0, 9362.0, 7.8942155838012695, -0.08491656929254532, -0.09621827304363251, -0.3220232129096985, -0.09453942626714706, -0.028967199847102165, 0.9932460784912109, -0.0589628666639328, -0.0037593841552734375, 1.49560546875, 1.42529296875, 0.0688018798828125, 1.49560546875, 1.434814453125, 10.0, 1.0, 10.0, 1.4013978242874146
13754, -0.16727390885353088, 1.6027549505233765, -0.5506900548934937, -0.034164540469646454, 0.003929942846298218, -4.185180187225342, -0.13808470964431763, 0.015855878591537476, -0.6918149590492249, -0.8183443546295166, -0.977643609046936, 0.05921278893947601, 0.15668206197343232, -0.33478564617817597, 0.22964833048174302, 9362.0, 30146.0, 35388.0, 9362.0, 7.8942155838012695, 0.03560552000999451, 0.19134488701820374, 0.07004144042730331, -0.0953880026936531, -0.029815156012773514, 0.992398738861084, -0.0589628666639328, -0.0037593841552734375, 1.49560546875, 1.42529296875, 0.0688018798828125, 1.48974609375, 1.421630859375, 10.0, 1.0, 10.0, 1.4016132354736328
13764, -0.16712072491645813, 1.6004308462142944, -0.5502145290374756, -0.03698090836405754, 0.0042532519437372684, -4.199024200439453, -0.14354674518108368, 0.016475146636366844, -0.6927559971809387, -0.8183376789093018, -0.9776954054832458, 0.05925532802939415, 0.19545504188999915, -0.3770048870605365, 0.22153805762001882, 9362.0, 30146.0, 35388.0, 9362.0, 7.8942155838012695, 0.32723745703697205, 0.30090150237083435, 0.10287884622812271, -0.09532488882541656, -0.028004301711916924, 0.9939952492713928, -0.0589628666639328, -0.0037593841552734375, 1.49560546875, 1.42529296875, 0.0688018798828125, 1.48974609375, 1.421630859375, 10.0, 1.0, 10.0, 1.4016027450561523
13774, -0.16534194350242615, 1.598642110824585, -0.5502156615257263, -0.03698090836405754, 0.0042532519437372684, -4.199024200439453, -0.14354674518108368, 0.016475146636366844, -0.6927559971809387, -0.8183802962303162, -0.977645993232727, 0.05918135866522789, 0.17185643602077325, -0.34869419930203094, 0.2060879344120869, 9362.0, 30146.0, 35388.0, 9362.0, 7.8942155838012695, 0.07955974340438843, 0.3048628568649292, 0.09701187908649445, -0.09496020525693893, -0.029007699340581894, 0.9972350001335144, -0.0589628666639328, -0.0037593841552734375, 1.49560546875, 1.42529296875, 0.0688018798828125, 1.500732421875, 1.418701171875, 10.0, 1.0, 10.0, 1.4016027450561523
13794, -0.16568824648857117, 1.5958306789398193, -0.5491739511489868, -0.03990625962615013, 0.004588964860886335, -4.212893486022949, -0.14898845553398132, 0.017096204683184624, -0.6941296458244324, -0.8183870911598206, -0.9776323437690735, 0.05916452780365944, 0.16585777363167747, -0.3490803256316326, 0.21741750702802443, 9362.0, 30146.0, 35388.0, 9362.0, 7.8942155838012695, 0.12428539246320724, -0.20823824405670166, -0.11803627759218216, -0.09496020525693893, -0.029007699340581894, 0.9972350001335144, -0.0586625412106514, 0.0052013397216796875, 1.496337890625, 1.42529296875, 0.0688018798828125, 1.49560546875, 1.389404296875, 10.0, 1.0, 10.0, 1.4018683433532715
13804, -0.16482076048851013, 1.5964889526367188, -0.5497753024101257, -0.04294051602482796, 0.004937057849019766, -4.22678279876709, -0.15443454682826996, 0.017713235691189766, -0.6948966383934021, -0.8183877468109131, -0.9776550531387329, 0.059158988296985626, 0.15799076569265602, -0.33167998767427775, 0.21896170946683755, 9362.0, 30146.0, 35388.0, 9362.0, 7.8942155838012695, -0.15727145969867706, 0.22813630104064941, -0.02439175173640251, -0.09496020525693893, -0.029007699340581894, 0.9972350001335144, -0.0586625412106514, 0.0052013397216796875, 1.496337890625, 1.42529296875, 0.0688018798828125, 1.49560546875, 1.389404296875, 10.0, 1.0, 10.0, 1.4017374515533447
13814, -0.1643727868795395, 1.595677375793457, -0.5510453581809998, -0.04294051602482796, 0.004937057849019766, -4.22678279876709, -0.15443454682826996, 0.017713235691189766, -0.6948966383934021, -0.8182408809661865, -0.9775053262710571, 0.05892735347151756, 0.2679387779495792, -0.2531641211505189, 0.1369175367195314, 9362.0, 30146.0, 35388.0, 9362.0, 7.8942155838012695, -0.08068517595529556, -0.061979763209819794, -0.1309412717819214, -0.09677749872207642, -0.02743604965507984, 0.9946748614311218, -0.0586625412106514, 0.0052013397216796875, 1.496337890625, 1.42529296875, 0.0688018798828125, 1.494140625, 1.436279296875, 10.0, 1.0, 10.0, 1.4017374515533447
13824, -0.16422362625598907, 1.5965116024017334, -0.5522298216819763, -0.04294051602482796, 0.004937057849019766, -4.22678279876709, -0.15443454682826996, 0.017713235691189766, -0.6948966383934021, -0.818393349647522, -0.9775964021682739, 0.05908384174108505, 0.1882820320729164, -0.32147479332635953, 0.17206593023179856, 9362.0, 30146.0, 35388.0, 9362.0, 7.8942155838012695, 0.1751585751771927, -0.07904521375894547, -0.12905961275100708, -0.09524407982826233, -0.03129149228334427, 0.9941485524177551, -0.0586625412106514, 0.0052013397216796875, 1.496337890625, 1.42529296875, 0.0688018798828125, 1.494140625, 1.436279296875, 10.0, 1.0, 10.0, 1.4017374515533447
13834, -0.16332301497459412, 1.596720814704895, -0.5532910823822021, -0.04294051602482796, 0.004937057849019766, -4.22678279876709, -0.15443454682826996, 0.017713235691189766, -0.6948966383934021, -0.8183676600456238, -0.9776173233985901, 0.05915738642215729, 0.18639332950486281, -0.3442948926571887, 0.19337217190346348, 9362.0, 30146.0, 35388.0, 9362.0, 7.8942155838012695, 0.15208759903907776, -0.11370003968477249, 0.09633889049291611, -0.09336347877979279, -0.03043699637055397, 0.9955365657806396, -0.0586625412106514, 0.0052013397216796875, 1.496337890625, 1.42529296875, 0.0688018798828125, 1.494140625, 1.39306640625, 10.0, 1.0, 10.0, 1.4017374515533447
13844, -0.16214218735694885, 1.5963821411132812, -0.5525642037391663, -0.04933498427271843, 0.005670154467225075, -4.254627704620361, -0.16529013216495514, 0.01893981173634529, -0.6973098516464233, -0.8183702230453491, -0.9776235222816467, 0.05915820226073265, 0.19189801315828067, -0.35109757189459856, 0.19167651237935207, 9362.0, 30146.0, 35388.0, 9362.0, 7.8942155838012695, 0.06796671450138092, 0.014372306875884533, 0.0444817952811718, -0.09275209158658981, -0.029267186298966408, 0.9962570071220398, -0.0586625412106514, 0.0052013397216796875, 1.496337890625, 1.42529296875, 0.0688018798828125, 1.494140625, 1.464111328125, 10.0, 1.0, 10.0, 1.4017374515533447
13854, -0.16117200255393982, 1.5955829620361328, -0.5523963570594788, -0.04933498427271843, 0.005670154467225075, -4.254627704620361, -0.16529013216495514, 0.01893981173634529, -0.6973098516464233, -0.8183241486549377, -0.9776462316513062, 0.05921056494116783, 0.17701958541739685, -0.32278270636618345, 0.2183544822571939, 9362.0, 30146.0, 35388.0, 9362.0, 7.8942155838012695, -0.04903929680585861, 0.48635682463645935, 0.003698913613334298, -0.09275209158658981, -0.029267186298966408, 0.9962570071220398, -0.0586625412106514, 0.0052013397216796875, 1.496337890625, 1.42529296875, 0.0688018798828125, 1.494140625, 1.464111328125, 10.0, 1.0, 10.0, 1.401464581489563
13864, -0.16078081727027893, 1.5936918258666992, -0.5519658327102661, -0.052695151418447495, 0.006055033300071955, -4.268583297729492, -0.17072731256484985, 0.0195471178740263, -0.6982348561286926, -0.8184057474136353, -0.9776067733764648, 0.059103697538375854, 0.18686393496948692, -0.3308252606030919, 0.18273304960171222, 9362.0, 30146.0, 35388.0, 9362.0, 7.8942155838012695, 0.0006421901052817702, -0.0004181009717285633, 0.21885144710540771, -0.09275209158658981, -0.029267186298966408, 0.9962570071220398, -0.0586625412106514, 0.0052013397216796875, 1.496337890625, 1.42529296875, 0.0688018798828125, 1.494140625, 1.420166015625, 10.0, 1.0, 10.0, 1.4015055894851685
13874, -0.16117830574512482, 1.5944520235061646, -0.5510757565498352, -0.052695151418447495, 0.006055033300071955, -4.268583297729492, -0.17072731256484985, 0.0195471178740263, -0.6982348561286926, -0.818367600440979, -0.9776168465614319, 0.05917653068900108, 0.18422420491670508, -0.3411123677865646, 0.19998998910970983, 9362.0, 30146.0, 35388.0, 9362.0, 7.8942155838012695, 0.1443806290626526, -0.18263305723667145, -0.08280593156814575, -0.09208926558494568, -0.030845994129776955, 0.9945272207260132, -0.0586625412106514, 0.0052013397216796875, 1.496337890625, 1.27587890625, 0.092620849609375, 1.494140625, 1.420166015625, 10.0, 1.0, 10.0, 1.4014763832092285
13884, -0.1618189513683319, 1.5958508253097534, -0.5523132085800171, -0.05616401135921478, 0.0064519899897277355, -4.282557487487793, -0.1761581003665924, 0.02014828473329544, -0.6991555690765381, -0.818370521068573, -0.9776186943054199, 0.05917232483625412, 0.1903039679367793, -0.3392965496963427, 0.19666817239191908, 9362.0, 30146.0, 35388.0, 9362.0, 7.8942155838012695, -0.03638450428843498, -0.31229668855667114, -0.19209828972816467, -0.09208926558494568, -0.030845994129776955, 0.9945272207260132, -0.046974290162324905, 0.014162063598632812, 1.4970703125, 1.27587890625, 0.092620849609375, 1.494140625, 1.396728515625, 10.0, 1.0, 10.0, 1.4014763832092285
13894, -0.1619298756122589, 1.5987534523010254, -0.5541900396347046, -0.05616401135921478, 0.0064519899897277355, -4.282557487487793, -0.1761581003665924, 0.02014828473329544, -0.6991555690765381, -0.818332850933075, -0.9776437282562256, 0.05919467285275459, 0.17571166998470608, -0.323688197178285, 0.2181279658722457, 9362.0, 30146.0, 35388.0, 9362.0, 7.8942155838012695, 0.21527615189552307, 0.14083807170391083, -0.13413745164871216, -0.0956333577632904, -0.02956274338066578, 0.9940293431282043, -0.046974290162324905, 0.014162063598632812, 1.4970703125, 1.27587890625, 0.092620849609375, 1.497802734375, 1.396728515625, 10.0, 1.0, 10.0, 1.4009758234024048
13904, -0.16114777326583862, 1.597110629081726, -0.5547170042991638, -0.05616401135921478, 0.0064519899897277355, -4.282557487487793, -0.1761581003665924, 0.02014828473329544, -0.6991555690765381, -0.8183414340019226, -0.9776567220687866, 0.05913932994008064, 0.2078259824422894, -0.3135110583801861, 0.19799266500580964, 9362.0, 30146.0, 35388.0, 9362.0, 7.8942155838012695, -0.01785256527364254, 0.036604102700948715, 0.2582996189594269, -0.0931629091501236, -0.029059601947665215, 0.9943761229515076, -0.046974290162324905, 0.014162063598632812, 1.4970703125, 1.27587890625, 0.092620849609375, 1.497802734375, 1.424560546875, 10.0, 1.0, 10.0, 1.4009758234024048
13914, -0.16177797317504883, 1.5969898700714111, -0.5533513426780701, -0.05616401135921478, 0.0064519899897277355, -4.282557487487793, -0.1761581003665924, 0.02014828473329544, -0.6991555690765381, -0.8182865381240845, -0.9773087501525879, 0.05894012376666069, 0.15143550729870656, -0.20808382982221474, -0.024244803064760522, 9362.0, 30146.0, 35388.0, 9362.0, 7.8942155838012695, -0.2085016369819641, 0.35136398673057556, 0.23693159222602844, -0.09448853880167007, -0.03175302594900131, 0.9960389137268066, -0.046974290162324905, 0.014162063598632812, 1.4970703125, 1.27587890625, 0.092620849609375, 1.49560546875, 1.424560546875, 10.0, 1.0, 10.0, 1.4010183811187744
13924, -0.16334715485572815, 1.5959736108779907, -0.5523756146430969, -0.06342741847038269, 0.007282015401870012, -4.310571193695068, -0.18701724708080292, 0.021353133022785187, -0.7015494704246521, -0.8183062076568604, -0.9773464798927307, 0.058896683156490326, 0.1851818436275245, -0.2377307390335659, -0.05254328385310162, 9362.0, 30146.0, 35388.0, 9362.0, 7.8942155838012695, 0.1388607919216156, 0.22203820943832397, 0.3660661578178406, -0.09450846910476685, -0.028875701129436493, 0.9933933615684509, -0.046974290162324905, 0.014162063598632812, 1.4970703125, 1.27587890625, 0.092620849609375, 1.49560546875, 1.424560546875, 10.0, 1.0, 10.0, 1.4010183811187744
13934, -0.1622098684310913, 1.5943269729614258, -0.5501899719238281, -0.06342741847038269, 0.007282015401870012, -4.310571193695068, -0.18701724708080292, 0.021353133022785187, -0.7015494704246521, -0.8183839917182922, -0.9775943756103516, 0.05905897542834282, 0.16540501922159892, -0.31427363289859045, 0.1942835079060873, 9362.0, 30146.0, 35388.0, 9362.0, 7.8942155838012695, -0.11593163013458252, 0.4147156774997711, -0.07148199528455734, -0.09315686672925949, -0.027654603123664856, 0.9941668510437012, -0.046974290162324905, 0.014162063598632812, 1.4970703125, 1.27587890625, 0.092620849609375, 1.494873046875, 1.36376953125, 10.0, 1.0, 10.0, 1.4010183811187744
13954, -0.16270355880260468, 1.5888675451278687, -0.5510576963424683, -0.06722211092710495, 0.007715127896517515, -4.324612617492676, -0.1924479752779007, 0.021959036588668823, -0.7026979923248291, -0.8183661103248596, -0.9775204062461853, 0.059063252061605453, 0.20051429494731232, -0.3162480185130221, 0.12142492852974435, 9362.0, 30146.0, 35388.0, 9362.0, 7.8942155838012695, 0.12672698497772217, -0.092872254550457, 0.07254263013601303, -0.09475034475326538, -0.029818447306752205, 0.9965254068374634, -0.046974290162324905, 0.014162063598632812, 1.4970703125, 1.314697265625, 0.0319061279296875, 1.494873046875, 1.36376953125, 10.0, 1.0, 10.0, 1.400078535079956
13964, -0.16290806233882904, 1.5897445678710938, -0.5501618981361389, -0.07112527638673782, 0.008160354569554329, -4.338677883148193, -0.19786904752254486, 0.022563941776752472, -0.7037250995635986, -0.8183465003967285, -0.97760009765625, 0.059106193482875824, 0.14904482542933678, -0.30060149514039836, 0.20638283852959208, 9362.0, 30146.0, 35388.0, 9362.0, 7.8942155838012695, 0.019126862287521362, 0.2329215407371521, 0.05647856369614601, -0.09409989416599274, -0.02877991273999214, 0.9941273927688599, -0.046974290162324905, 0.014162063598632812, 1.4970703125, 1.314697265625, 0.0319061279296875, 1.494873046875, 1.430419921875, 10.0, 1.0, 10.0, 1.400078535079956
13974, -0.16326536238193512, 1.5872012376785278, -0.5492194294929504, -0.07112527638673782, 0.008160354569554329, -4.338677883148193, -0.19786904752254486, 0.022563941776752472, -0.7037250995635986, -0.8183756470680237, -0.9774677157402039, 0.05901912599802017, 0.16639827383959208, -0.27713803142833626, 0.14366120848409428, 9362.0, 30146.0, 35388.0, 9362.0, 7.8942155838012695, 0.08912467211484909, 0.14292117953300476, 0.1968814879655838, -0.09391294419765472, -0.028020644560456276, 0.9926737546920776, -0.046974290162324905, 0.014162063598632812, 1.4970703125, 1.314697265625, 0.0319061279296875, 1.496337890625, 1.43115234375, 10.0, 1.0, 10.0, 1.400078535079956
13984, -0.16253764927387238, 1.5870667695999146, -0.5484551787376404, -0.07513678073883057, 0.00861770287156105, -4.352761268615723, -0.20327873528003693, 0.02317066304385662, -0.7047516703605652, -0.8183492422103882, -0.9775969386100769, 0.059106532484292984, 0.1514744043805267, -0.2969716172237895, 0.2144632117577652, 9362.0, 30146.0, 35388.0, 9362.0, 7.8942155838012695, -0.08920566737651825, 0.30918774008750916, 0.4831028878688812, -0.09391294419765472, -0.028020644560456276, 0.9926737546920776, -0.046974290162324905, 0.014162063598632812, 1.4970703125, 1.314697265625, 0.0319061279296875, 1.496337890625, 1.43115234375, 10.0, 1.0, 10.0, 1.3995673656463623
13994, -0.1632821410894394, 1.5846912860870361, -0.5455617308616638, -0.07513678073883057, 0.00861770287156105, -4.352761268615723, -0.20327873528003693, 0.02317066304385662, -0.7047516703605652, -0.8183726072311401, -0.977636456489563, 0.05905454605817795, 0.1946602470507067, -0.3276793224199537, 0.18514818806284136, 9362.0, 30146.0, 35388.0, 9362.0, 7.8942155838012695, -0.0020920061506330967, 0.07360213249921799, -0.08471740037202835, -0.09391294419765472, -0.028020644560456276, 0.9926737546920776, -0.046974290162324905, 0.014162063598632812, 1.4970703125, 1.314697265625, 0.0319061279296875, 1.497802734375, 1.37841796875, 10.0, 1.0, 10.0, 1.3995673656463623
14004, -0.1637585461139679, 1.584017276763916, -0.5455096364021301, -0.07925629615783691, 0.009087181650102139, -4.3668694496154785, -0.20867545902729034, 0.023776767775416374, -0.7059797644615173, -0.8183911442756653, -0.9775945544242859, 0.059054359793663025, 0.16880307796836663, -0.3212868718134416, 0.1897971343776742, 9362.0, 30146.0, 35388.0, 9362.0, 7.8942155838012695, -0.03581386059522629, 0.39659547805786133, 0.1861867606639862, -0.09573306888341904, -0.028796352446079254, 0.9974914789199829, -0.046974290162324905, 0.014162063598632812, 1.4970703125, 1.314697265625, 0.0319061279296875, 1.497802734375, 1.37841796875, 10.0, 1.0, 10.0, 1.3995673656463623
14014, -0.16400466859340668, 1.5808542966842651, -0.5448402166366577, -0.07925629615783691, 0.009087181650102139, -4.3668694496154785, -0.20867545902729034, 0.023776767775416374, -0.7059797644615173, -0.8183835744857788, -0.9775930643081665, 0.059076692909002304, 0.16257604655508445, -0.3165099341060795, 0.19388683391827352, 9362.0, 30146.0, 35388.0, 9362.0, 7.8942155838012695, 0.043300021439790726, -0.267880916595459, 0.07045266032218933, -0.09350049495697021, -0.029901137575507164, 0.9972981214523315, -0.046974290162324905, 0.014162063598632812, 1.4970703125, 1.314697265625, 0.0319061279296875, 1.496337890625, 1.33740234375, 10.0, 1.0, 10.0, 1.3995673656463623
14024, -0.1634816825389862, 1.5823932886123657, -0.5444110035896301, -0.08348378539085388, 0.009568803943693638, -4.380998134613037, -0.21407528221607208, 0.024386126548051834, -0.7067515850067139, -0.8183823227882385, -0.9775905609130859, 0.05906735360622406, 0.1648289574511648, -0.3167405002203054, 0.1978757516225181, 9362.0, 30146.0, 35388.0, 9362.0, 7.8942155838012695, 0.03280249610543251, 0.03773805871605873, -0.23220427334308624, -0.09467579424381256, -0.028768079355359077, 0.9940834641456604, -0.046974290162324905, 0.014162063598632812, 1.4970703125, 1.314697265625, 0.0319061279296875, 1.496337890625, 1.43701171875, 10.0, 1.0, 10.0, 1.3995673656463623
14044, -0.16176289319992065, 1.5812863111495972, -0.5459377765655518, -0.0878191739320755, 0.010062630288302898, -4.395141124725342, -0.21946105360984802, 0.02499563992023468, -0.7076943516731262, -0.8183752298355103, -0.9776440858840942, 0.05905519053339958, 0.18431938139263435, -0.32668003956121083, 0.18183303550090266, 9362.0, 30146.0, 35388.0, 9362.0, 7.8942155838012695, 0.05805577337741852, 0.3898358643054962, -0.20457902550697327, -0.09523958712816238, -0.030542563647031784, 0.9962895512580872, -0.046974290162324905, 0.014162063598632812, 1.4970703125, 1.314697265625, 0.0319061279296875, 1.49853515625, 1.449462890625, 10.0, 1.0, 10.0, 1.3996214866638184
14054, -0.16034488379955292, 1.5792820453643799, -0.5468787550926208, -0.0878191739320755, 0.010062630288302898, -4.395141124725342, -0.21946105360984802, 0.02499563992023468, -0.7076943516731262, -0.8183290958404541, -0.9776517152786255, 0.05909297987818718, 0.1794788127077951, -0.3042324297333039, 0.2098928393158775, 9362.0, 30146.0, 35388.0, 9362.0, 7.8942155838012695, 0.12459460645914078, -0.04344264417886734, 0.21201154589653015, -0.09317603707313538, -0.02790617197751999, 0.9960162043571472, -0.046974290162324905, 0.014162063598632812, 1.4970703125, 1.314697265625, 0.0319061279296875, 1.48974609375, 1.449462890625, 10.0, 1.0, 10.0, 1.3996214866638184
14064, -0.15967872738838196, 1.5790886878967285, -0.5461550354957581, -0.0878191739320755, 0.010062630288302898, -4.395141124725342, -0.21946105360984802, 0.02499563992023468, -0.7076943516731262, -0.8183785080909729, -0.9776237607002258, 0.059050291776657104, 0.19338742909214593, -0.327534677781955, 0.1879422045945018, 9362.0, 30146.0, 35388.0, 9362.0, 7.8942155838012695, 0.2314671128988266, 0.5160393714904785, 0.08796775341033936, -0.09317603707313538, -0.02790617197751999, 0.9960162043571472, -0.046974290162324905, 0.014162063598632812, 1.4970703125, 1.314697265625, 0.0319061279296875, 1.48974609375, 1.428955078125, 10.0, 1.0, 10.0, 1.3992964029312134
14074, -0.1582379937171936, 1.5739802122116089, -0.5462812781333923, -0.0878191739320755, 0.010062630288302898, -4.395141124725342, -0.21946105360984802, 0.02499563992023468, -0.7076943516731262, -0.8183484673500061, -0.977605938911438, 0.05908777192234993, 0.1487728783451308, -0.29628723806305857, 0.20219171540242895, 9362.0, 30146.0, 35388.0, 9362.0, 7.8942155838012695, 0.14512012898921967, 0.46017080545425415, 0.04557691514492035, -0.09317603707313538, -0.02790617197751999, 0.9960162043571472, -0.046974290162324905, 0.014162063598632812, 1.4970703125, 1.314697265625, 0.0319061279296875, 1.4970703125, 1.399658203125, 10.0, 1.0, 10.0, 1.3992964029312134
14094, -0.15709954500198364, 1.5718914270401, -0.5457209944725037, -0.09681298583745956, 0.011086513288319111, -4.423486709594727, -0.23022422194480896, 0.02619517780840397, -0.7096061706542969, -0.8183843493461609, -0.977493166923523, 0.05905945226550102, 0.1763934154555532, -0.3073914624798988, 0.12973717870420695, 9362.0, 30146.0, 35388.0, 9362.0, 7.8942155838012695, 0.06706231087446213, 0.125954732298851, -0.1473362296819687, -0.09589184075593948, -0.029350103810429573, 0.9950289726257324, -0.046974290162324905, 0.014162063598632812, 1.4970703125, 1.314697265625, 0.0319061279296875, 1.50146484375, 1.377685546875, 10.0, 1.0, 10.0, 1.399550199508667
14104, -0.15747857093811035, 1.5708853006362915, -0.5456363558769226, -0.09681298583745956, 0.011086513288319111, -4.423486709594727, -0.23022422194480896, 0.02619517780840397, -0.7096061706542969, -0.8184112310409546, -0.9775658845901489, 0.05900358408689499, 0.16744917697669723, -0.29835180047081167, 0.1740184791018847, 9362.0, 30146.0, 35388.0, 9362.0, 7.8942155838012695, -0.05373755097389221, 0.14409363269805908, 0.16323193907737732, -0.09523824602365494, -0.028925562277436256, 0.9940688014030457, -0.046974290162324905, 0.014162063598632812, 1.4970703125, 1.314697265625, 0.0319061279296875, 1.50146484375, 1.478759765625, 10.0, 1.0, 10.0, 1.399550199508667
14124, -0.157654270529747, 1.574236512184143, -0.5455025434494019, -0.10623595118522644, 0.012157865799963474, -4.451916694641113, -0.24092036485671997, 0.027370966970920563, -0.711888313293457, -0.8183615207672119, -0.9776323437690735, 0.0590197890996933, 0.17707893618367912, -0.28585488115876956, 0.20198879694227084, 9362.0, 30146.0, 35388.0, 9362.0, 7.8942155838012695, 0.10270893573760986, -0.13651876151561737, -0.01799187995493412, -0.09434773027896881, -0.029338423162698746, 0.9942716956138611, -0.046974290162324905, 0.014162063598632812, 1.4970703125, 1.314697265625, 0.0319061279296875, 1.50146484375, 1.44287109375, 10.0, 1.0, 10.0, 1.3996301889419556
14134, -0.1565953493118286, 1.5745021104812622, -0.5460780262947083, -0.10623595118522644, 0.012157865799963474, -4.451916694641113, -0.24092036485671997, 0.027370966970920563, -0.711888313293457, -0.8183477520942688, -0.9773305058479309, 0.05894208699464798, 0.1688538746372574, -0.25877517417356444, 0.004569755067481005, 9362.0, 30146.0, 35388.0, 9362.0, 7.8942155838012695, 0.2279917299747467, -0.3113369643688202, -0.10381221771240234, -0.09400364756584167, -0.027654169127345085, 0.9958242177963257, -0.046974290162324905, 0.014162063598632812, 1.4970703125, 1.314697265625, 0.0319061279296875, 1.49560546875, 1.44287109375, 10.0, 1.0, 10.0, 1.3996301889419556
14144, -0.15540671348571777, 1.575103521347046, -0.5460076332092285, -0.11110775917768478, 0.012711167335510254, -4.466168403625488, -0.24626518785953522, 0.027959125116467476, -0.713223934173584, -0.8183304667472839, -0.9775334000587463, 0.059084001928567886, 0.19150112329336047, -0.30009370925077405, 0.13419126844261428, 9362.0, 30146.0, 35388.0, 9362.0, 7.8942155838012695, 0.05570417642593384, -0.05358162894845009, 0.04178242012858391, -0.09400364756584167, -0.027654169127345085, 0.9958242177963257, -0.046974290162324905, 0.014162063598632812, 1.4970703125, 1.314697265625, 0.0319061279296875, 1.49560546875, 1.44287109375, 10.0, 1.0, 10.0, 1.399163842201233
14154, -0.1548941433429718, 1.5755395889282227, -0.5454556345939636, -0.11110775917768478, 0.012711167335510254, -4.466168403625488, -0.24626518785953522, 0.027959125116467476, -0.713223934173584, -0.8183836340904236, -0.9774858355522156, 0.059053946286439896, 0.18131857140167937, -0.3173001547168042, 0.13378178146413744, 9362.0, 30146.0, 35388.0, 9362.0, 7.8942155838012695, 0.18711155652999878, 0.30125105381011963, 0.04490183666348457, -0.09400364756584167, -0.027654169127345085, 0.9958242177963257, -0.046974290162324905, 0.014162063598632812, 1.4970703125, 1.314697265625, 0.0319061279296875, 1.496337890625, 1.44287109375, 10.0, 1.0, 10.0, 1.3992750644683838
14164, -0.15362782776355743, 1.5738556385040283, -0.5451409816741943, -0.11608665436506271, 0.013276185840368271, -4.480443477630615, -0.25162118673324585, 0.028541341423988342, -0.7144141793251038, -0.8183539509773254, -0.9775269627571106, 0.05901072546839714, 0.18965812480998967, -0.28241490412366943, 0.13275840087365334, 9362.0, 30146.0, 35388.0, 9362.0, 7.8942155838012695, 0.2988639175891876, -0.07077886909246445, -0.09891939908266068, -0.09400364756584167, -0.027654169127345085, 0.9958242177963257, -0.046974290162324905, 0.014162063598632812, 1.4970703125, 1.314697265625, 0.0319061279296875, 1.496337890625, 1.44287109375, 10.0, 1.0, 10.0, 1.3994325399398804
14174, -0.15255886316299438, 1.5735841989517212, -0.544842541217804, -0.11608665436506271, 0.013276185840368271, -4.480443477630615, -0.25162118673324585, 0.028541341423988342, -0.7144141793251038, -0.8183882236480713, -0.9775996208190918, 0.05906764790415764, 0.1646958701169417, -0.3138849990968424, 0.18313106627223988, 9362.0, 30146.0, 35388.0, 9362.0, 7.8942155838012695, 0.18981090188026428, -0.000738619128242135, 0.13371720910072327, -0.09400364756584167, -0.027654169127345085, 0.9958242177963257, -0.046974290162324905, 0.014162063598632812, 1.4970703125, 1.314697265625, 0.0319061279296875, 1.4970703125, 1.39306640625, 10.0, 1.0, 10.0, 1.3994325399398804
14194, -0.15230415761470795, 1.570455551147461, -0.5426453351974487, -0.12117266654968262, 0.013852788135409355, -4.4947428703308105, -0.2569787800312042, 0.029117770493030548, -0.7155337333679199, -0.8183321356773376, -0.9776464104652405, 0.05908752977848053, 0.17643324589237774, -0.3051849980241741, 0.20698459963332483, 9362.0, 30146.0, 35388.0, 9362.0, 7.8942155838012695, 0.14170625805854797, 0.11702453345060349, -0.029222287237644196, -0.09499593824148178, -0.029086094349622726, 0.9948599338531494, -0.047217871993780136, -0.10231781005859375, 1.487548828125, 1.314697265625, 0.0319061279296875, 1.490478515625, 1.46044921875, 10.0, 1.0, 10.0, 1.3994325399398804
