timeTick, roll, pitch, yaw, stateX, stateY, stateZ, stateVX, stateVY, stateVZ, otX0, otY0, otZ0, otRoll0, otPitch0, otYaw0, left wing, pitch motor, yaw motor, right wing, voltage, roll rate, pitch rate, yaw rate, A_x, A_y, A_z, current, i_raw, v_raw, airflow_voltage, airflow_speed, pot_Pitch
13973, -2.7656044960021973, -2.9685862064361572, 27.477893829345703, 0, 0, 0, 0, 0, 0, -0.7290442585945129, -1.1977646350860596, 0.07093615084886551, -0.8831115861238157, -1.0992135796814466, 1.0989466898605225, 0, 0, 0, 0, 0, 0, 0, 0, 0, 0, 0, 0, 0, 0, 0, 0, 0
13983, -2.765533924102783, -2.967130661010742, 27.4502010345459, -0.001005689729936421, -0.002832843456417322, -26.53900146484375, -0.09944983571767807, -0.2801360487937927, -4.292605876922607, -0.7290434837341309, -1.1977943181991577, 0.07097397744655609, -0.8801570894416325, -1.1049676332014826, 1.0829239859240456, 9362.0, 30146.0, 35388.0, 9362.0, 7.854546070098877, 1.194089651107788, -0.2834467887878418, 5.602909088134766, -0.04653095826506615, 0.0014847606653347611, 0.9634075164794922, -0.010640006512403488, 0.09480094909667969, 1.503662109375, 0, 0, 0
13993, -2.7615740299224854, -2.965566635131836, 27.460933685302734, -0.001989011187106371, -0.005602667108178139, -26.581945419311523, -0.09721138328313828, -0.27382972836494446, -4.2963433265686035, -0.7290472984313965, -1.1977999210357666, 0.07096128165721893, -0.8762558117558924, -1.1083625695357853, 1.0856572758038108, 9362.0, 30146.0, 35388.0, 9362.0, 7.854546070098877, -0.7166850566864014, 0.5602737665176392, 9.150755882263184, -0.040156565606594086, 0.008227885700762272, 0.9640551805496216, -0.0005151345976628363, -0.01271820068359375, 1.494873046875, 1.436279296875, 0.0838775634765625, 1.493408203125
14003, -2.761763334274292, -2.9694979190826416, 27.484830856323242, -0.0029499547090381384, -0.008309470489621162, -26.624927520751953, -0.094978466629982, -0.2675303518772125, -4.300175666809082, -0.7291181087493896, -1.1977934837341309, 0.07097446918487549, -0.9000797858966038, -1.0962094071439878, 1.09594033246796, 9362.0, 30146.0, 35388.0, 9362.0, 7.854546070098877, -1.1195303201675415, -0.21376213431358337, -2.8258321285247803, -0.027213675901293755, 0.002340733539313078, 0.9658249020576477, 0.009604728780686855, 0.0052013397216796875, 1.496337890625, 1.746826171875, 0.800201416015625, 1.494140625
14013, -2.7643797397613525, -2.9699342250823975, 27.486431121826172, -0.0038885544054210186, -0.01095326617360115, -26.66794776916504, -0.0927443876862526, -0.2612279951572418, -4.303866863250732, -0.7291253805160522, -1.1978049278259277, 0.07098008692264557, -0.8965196889238156, -1.1004310451970127, 1.0934100041153132, 9362.0, 30146.0, 35388.0, 9362.0, 7.854546070098877, 0.35619738698005676, 0.28848108649253845, -10.570147514343262, -0.03285059705376625, -0.008945215493440628, 0.9649246335029602, 0.013344240374863148, -0.08439826965332031, 1.489013671875, 1.9072265625, 1.4620513916015625, 1.497802734375
14023, -2.766913890838623, -2.970754861831665, 27.45848846435547, -0.004804784432053566, -0.01353397686034441, -26.71100425720215, -0.09050173312425613, -0.2549143135547638, -4.30743932723999, -0.7291067242622375, -1.197799563407898, 0.07097792625427246, -0.898936845979105, -1.0926683778557162, 1.098751685596934, 9362.0, 30146.0, 35388.0, 9362.0, 7.854546070098877, 1.3438606262207031, -0.3042148947715759, 0.09905827045440674, -0.04363177716732025, -0.004737230949103832, 0.9632282257080078, 0.009644437581300735, 0.03208160400390625, 1.49853515625, 1.613525390625, 0.44940185546875, 1.493408203125
14033, -2.7634854316711426, -2.968759298324585, 27.452808380126953, -0.005698615685105324, -0.016051586717367172, -26.75409698486328, -0.0882614329457283, -0.2486090213060379, -4.311183452606201, -0.7291355729103088, -1.1978003978729248, 0.07095616310834885, -0.8972320471866533, -1.1004170997976814, 1.0964028014112717, 9362.0, 30146.0, 35388.0, 9362.0, 7.854546070098877, -0.19548870623111725, 0.12593257427215576, 10.096558570861816, -0.04003962129354477, 0.007237725425511599, 0.9647076725959778, 0.02732747420668602, 0.30088043212890625, 1.5205078125, 1.2861328125, 0.0716094970703125, 1.49267578125
14043, -2.7616875171661377, -2.970202684402466, 27.480440139770508, -0.006570048164576292, -0.01850617304444313, -26.79722785949707, -0.08602438867092133, -0.24230799078941345, -4.315057754516602, -0.7291085720062256, -1.1978174448013306, 0.07098983973264694, -0.8822417557535852, -1.118098761261308, 1.0937014589657492, 9362.0, 30146.0, 35388.0, 9362.0, 7.854546070098877, -1.5973680019378662, 0.012207094579935074, 0.6251711249351501, -0.03155742213129997, 0.004521185532212257, 0.9648821353912354, 0.030459757894277573, -0.14711761474609375, 1.48388671875, 1.6787109375, 0.6116943359375, 1.49267578125
14053, -2.7656524181365967, -2.9707741737365723, 27.48689079284668, -0.007419081870466471, -0.02089770697057247, -26.840396881103516, -0.08378549665212631, -0.23599766194820404, -4.318708896636963, -0.7291345000267029, -1.1977943181991577, 0.07096768915653229, -0.8940423141148499, -1.097059036299612, 1.099947847339099, 9362.0, 30146.0, 35388.0, 9362.0, 7.854546070098877, 0.1782819777727127, -0.07612737268209457, -8.733002662658691, -0.03130047023296356, -0.008609237149357796, 0.9657097458839417, 0.022852823138237, -0.0037593841552734375, 1.49560546875, 1.70947265625, 0.693572998046875, 1.49560546875
14063, -2.7677416801452637, -2.968825340270996, 27.461259841918945, -0.008245717734098434, -0.023226121440529823, -26.883602142333984, -0.08154233545064926, -0.22968511283397675, -4.322303771972656, -0.7291251420974731, -1.1978057622909546, 0.07096987962722778, -0.8955707995510866, -1.0977024341837591, 1.0979908984791902, 9362.0, 30146.0, 35388.0, 9362.0, 7.854546070098877, 1.3535374402999878, -0.17226018011569977, 0.3473423421382904, -0.044489212334156036, -0.006091242656111717, 0.9662381410598755, -0.0011087304446846247, -0.18295860290527344, 1.48095703125, 1.723388671875, 0.7321929931640625, 1.493408203125
14073, -2.76442813873291, -2.9680778980255127, 27.460721969604492, -0.009049944579601288, -0.025491399690508842, -26.926843643188477, -0.07929997146129608, -0.2233714759349823, -4.325963020324707, -0.7291210293769836, -1.1978212594985962, 0.070938840508461, -0.8829201734744546, -1.1043668376429707, 1.0974727021066613, 9362.0, 30146.0, 35388.0, 9362.0, 7.854546070098877, 0.04249173775315285, 0.3427370488643646, 8.492803573608398, -0.04204239323735237, 0.006596310995519161, 0.9657904505729675, 0.007404434494674206, -0.01271820068359375, 1.494873046875, 1.8515625, 1.178253173828125, 1.48974609375
14083, -2.7622921466827393, -2.972430944442749, 27.485191345214844, -0.009831751696765423, -0.027693526819348335, -26.970121383666992, -0.07706141471862793, -0.2170538306236267, -4.329588890075684, -0.7291202545166016, -1.1978123188018799, 0.07095098495483398, -0.9003501561220054, -1.1003287810609947, 1.0988100640980787, 9362.0, 30146.0, 35388.0, 9362.0, 7.854546070098877, -1.4772908687591553, -0.12463322281837463, 0.7861860394477844, -0.033328063786029816, 0.008053508587181568, 0.964361310005188, 0.013777962885797024, -0.03959846496582031, 1.49267578125, 1.06201171875, 1.8035430908203125, 1.496337890625
14093, -2.763993740081787, -2.9721477031707764, 27.494043350219727, -0.010591155849397182, -0.02983247861266136, -27.01343536376953, -0.07482246309518814, -0.21073545515537262, -4.33313512802124, -0.7290977239608765, -1.197786569595337, 0.07095775753259659, -0.8886348230430197, -1.0827499087638444, 1.0847017127526943, 9362.0, 30146.0, 35388.0, 9362.0, 7.854546070098877, -0.11840728670358658, -0.11603764444589615, -9.243552207946777, -0.03151516616344452, -0.004130195360630751, 0.9647747874259949, 0.002202007221058011, -0.01271820068359375, 1.494873046875, 0.83203125, 8.73065185546875, 1.493408203125
14103, -2.7669310569763184, -2.969400644302368, 27.470905303955078, -0.011328156106173992, -0.031908273696899414, -27.056785583496094, -0.07257858663797379, -0.20442356169223785, -4.336784839630127, -0.7290710806846619, -1.1977801322937012, 0.0709415152668953, -0.8564723688471866, -1.0975232120524652, 1.099850240230374, 9362.0, 30146.0, 35388.0, 9362.0, 7.854546070098877, 1.616536259651184, -0.07080104202032089, -1.7812050580978394, -0.04327535256743431, -0.00826277770102024, 0.9622377753257751, 0.004390778951346874, -0.1291980743408203, 1.4853515625, 1.663330078125, 0.5723114013671875, 1.494140625
14113, -2.7631335258483887, -2.9681406021118164, 27.45868682861328, -0.012042745016515255, -0.03392097353935242, -27.10017204284668, -0.07033632695674896, -0.19811765849590302, -4.340545177459717, -0.7290709614753723, -1.1977784633636475, 0.07094675302505493, -0.8580447907742639, -1.0976506782579634, 1.1046023256047464, 9362.0, 30146.0, 35388.0, 9362.0, 7.854546070098877, 0.6301793456077576, -0.0023853445891290903, 9.997353553771973, -0.0452379435300827, 0.00396557804197073, 0.9623189568519592, 0.015234620310366154, 0.1933612823486328, 1.51171875, 1.760009765625, 0.8404998779296875, 1.497802734375
14123, -2.7599775791168213, -2.968475103378296, 27.482589721679688, -0.012734946794807911, -0.03587065637111664, -27.143596649169922, -0.06810266524553299, -0.19181929528713226, -4.344448089599609, -0.7290937304496765, -1.1977890729904175, 0.070928193628788, -0.8644710768046214, -1.0943878022227977, 1.1004034242793552, 9362.0, 30146.0, 35388.0, 9362.0, 7.854546070098877, -1.2149897813796997, 0.18107326328754425, 5.683170795440674, -0.033869799226522446, 0.008738859556615353, 0.9643239378929138, 0.030205482617020607, -0.2546367645263672, 1.47509765625, 1.22021484375, 0.2799530029296875, 1.4912109375
14133, -2.760950803756714, -2.969893455505371, 27.503097534179688, -0.013404794968664646, -0.037757378071546555, -27.187061309814453, -0.06586964428424835, -0.18552394211292267, -4.348310947418213, -0.7290635108947754, -1.1977803707122803, 0.07091856002807617, -0.8505907362535609, -1.0947662959330273, 1.1114137526252612, 9362.0, 30146.0, 35388.0, 9362.0, 7.854546070098877, -0.6860818266868591, -0.14117461442947388, -9.545778274536133, -0.030316386371850967, -0.0031680127140134573, 0.9645331501960754, 0.030797066166996956, 0.1396007537841797, 1.50732421875, 1.77978515625, 0.9038543701171875, 1.49560546875
14143, -2.7647275924682617, -2.9697437286376953, 27.482954025268555, -0.014052290469408035, -0.03958110511302948, -27.230562210083008, -0.06363176554441452, -0.17922046780586243, -4.351995944976807, -0.7290641069412231, -1.1977922916412354, 0.07093949615955353, -0.8562849128363214, -1.098516308276288, 1.1082209435699075, 9362.0, 30146.0, 35388.0, 9362.0, 7.854546070098877, 1.2649720907211304, 0.005350027233362198, -5.277585029602051, -0.04123685136437416, -0.00785357691347599, 0.9644030332565308, 0.0034550658892840147, -0.18295860290527344, 1.48095703125, 1.081787109375, 1.5082244873046875, 1.49560546875
14153, -2.761681079864502, -2.9684531688690186, 27.46268653869629, -0.014677419327199459, -0.04134180024266243, -27.27410125732422, -0.06139158457517624, -0.17291952669620514, -4.355742931365967, -0.7290670275688171, -1.197765588760376, 0.07091473042964935, -0.8516147615838406, -1.1036355199480283, 1.08564608822635, 9362.0, 30146.0, 35388.0, 9362.0, 7.854546070098877, 0.599557101726532, 0.14270836114883423, 7.803005218505859, -0.044170159846544266, 0.0036808911245316267, 0.9638671875, 0.030187182128429413, 0.17543983459472656, 1.51025390625, 1.22021484375, 0.2799530029296875, 1.49267578125
14163, -2.7585840225219727, -2.969921112060547, 27.48284149169922, -0.015280154533684254, -0.0430394746363163, -27.317678451538086, -0.05915328860282898, -0.16661596298217773, -4.359524250030518, -0.7290201783180237, -1.1978003978729248, 0.07092335820198059, -0.8390326300004625, -1.1240167117911994, 1.1193671487328098, 9362.0, 30146.0, 35388.0, 9362.0, 7.854546070098877, -1.2990785837173462, 0.16806188225746155, 5.5007829666137695, -0.03498425707221031, 0.008530463092029095, 0.9644315242767334, 0.03427539020776749, 0.06792068481445312, 1.50146484375, 0.4892578125, 39.93412780761719, 1.4912109375
14173, -2.759735107421875, -2.971388578414917, 27.501440048217773, -0.01586049236357212, -0.044674139469861984, -27.361291885375977, -0.05691653862595558, -0.16031616926193237, -4.363293170928955, -0.729006290435791, -1.1977988481521606, 0.07090801000595093, -0.8379493017819991, -1.1229552082242549, 1.1275154989435723, 9362.0, 30146.0, 35388.0, 9362.0, 7.854546070098877, -0.7291710376739502, 0.2092602252960205, -7.5784711837768555, -0.026932597160339355, -0.003490226808935404, 0.9673246145248413, 0.03820439428091049, 0.06792068481445312, 1.50146484375, 1.81201171875, 1.017120361328125, 1.4970703125
14183, -2.7637877464294434, -2.9720561504364014, 27.483591079711914, -0.01641843654215336, -0.04624577984213829, -27.404943466186523, -0.05467449128627777, -0.15401145815849304, -4.366943836212158, -0.7290565371513367, -1.1977105140686035, 0.07089362293481827, -0.8847029341974998, -1.1062017021712336, 1.084942312372686, 9362.0, 30146.0, 35388.0, 9362.0, 7.854546070098877, 1.407108187675476, 0.01812378689646721, -4.0922651290893555, -0.0401899516582489, -0.01081149186939001, 0.9671128988265991, 0.03262917697429657, -0.04855918884277344, 1.491943359375, 1.820068359375, 1.047821044921875, 1.4970703125
14193, -2.760310649871826, -2.9708003997802734, 27.465822219848633, -0.016953948885202408, -0.04775431379675865, -27.448631286621094, -0.05242610722780228, -0.1476965844631195, -4.3704729080200195, -0.7290154099464417, -1.197737216949463, 0.07088451087474823, -0.8698263216852075, -1.1253805565699224, 1.0757715094473705, 9362.0, 30146.0, 35388.0, 9362.0, 7.854546070098877, 0.9984447360038757, 0.15717114508152008, 6.847066879272461, -0.04820972681045532, 0.0001945080584846437, 0.9623222351074219, 0.011548382230103016, -0.030637741088867188, 1.493408203125, 0.97705078125, 3.5305023193359375, 1.4970703125
14203, -2.755488395690918, -2.9715986251831055, 27.47572135925293, -0.017466973513364792, -0.049199655652046204, -27.492353439331055, -0.05017701908946037, -0.14137263596057892, -4.373958110809326, -0.7290322184562683, -1.197727918624878, 0.07083301991224289, -0.8662841781889512, -1.133226530517362, 1.0653435549525934, 9362.0, 30146.0, 35388.0, 9362.0, 7.854546070098877, -1.0837547779083252, 0.20551826059818268, 8.50959587097168, -0.03741962090134621, 0.009562498889863491, 0.9649987816810608, 0.017381126061081886, -0.03959846496582031, 1.49267578125, 1.6962890625, 0.657958984375, 1.497802734375
14213, -2.7574758529663086, -2.973475933074951, 27.50222396850586, -0.01795753836631775, -0.0505819171667099, -27.53611183166504, -0.04793722182512283, -0.13507935404777527, -4.377818584442139, -0.7290263772010803, -1.1976966857910156, 0.07074499130249023, -0.862651185444323, -1.176444866129998, 1.1243986604896892, 9362.0, 30146.0, 35388.0, 9362.0, 7.854546070098877, -0.8826894164085388, 0.32592567801475525, -6.315916061401367, -0.02513503096997738, 0.0002556884428486228, 0.9684184193611145, 0.01556646078824997, -0.11127853393554688, 1.48681640625, 1.0810546875, 1.5185089111328125, 1.493408203125
14223, -2.7612056732177734, -2.9747698307037354, 27.49355125427246, -0.01842566393315792, -0.05190121382474899, -27.57990837097168, -0.04569075256586075, -0.12877875566482544, -4.381481170654297, -0.729040265083313, -1.1976312398910522, 0.07070861011743546, -0.870021462966895, -1.1625488322755757, 1.1211215988890904, 9362.0, 30146.0, 35388.0, 9362.0, 7.854546070098877, 0.8851795196533203, -0.009359252639114857, -9.851760864257812, -0.03392932564020157, -0.011173790320754051, 0.9661526679992676, -0.010375906713306904, -0.2904777526855469, 1.47216796875, 0.837890625, 8.452560424804688, 1.494140625
14233, -2.7614614963531494, -2.972604274749756, 27.462743759155273, -0.01887129619717598, -0.05315737426280975, -27.62373924255371, -0.043434660881757736, -0.12245375663042068, -4.3848395347595215, -0.72906494140625, -1.1976231336593628, 0.07070863991975784, -0.862715923673998, -1.1632046209655869, 1.1242455398006301, 9362.0, 30146.0, 35388.0, 9362.0, 7.854546070098877, 1.3978509902954102, 0.2628031075000763, 3.639051675796509, -0.045632775872945786, -0.0009484204347245395, 0.9643315672874451, -0.02323015220463276, -0.03959846496582031, 1.49267578125, 0.717041015625, 15.633148193359375, 1.49853515625
14303, -2.755098819732666, -2.973215341567993, 27.517311096191406, -0.02107267454266548, -0.05937008187174797, -27.88750457763672, -0.029941044747829437, -0.08462599664926529, -4.407172679901123, -0.7290290594100952, -1.1977139711380005, 0.07077781111001968, -0.8663657974145277, -1.147597435484272, 1.146210891573995, 9362.0, 30146.0, 35388.0, 9362.0, 7.854546070098877, -1.516406536102295, 0.02009602263569832, -1.881638526916504, -0.034676458686590195, -0.010007975623011589, 0.9653088450431824, -0.022690031677484512, 0.05000114440917969, 1.5, 1.736572265625, 0.7700042724609375, 1.491943359375
14313, -2.7561514377593994, -2.973970651626587, 27.489280700683594, -0.021626507863402367, -0.06093662232160568, -27.97572135925293, -0.0254439115524292, -0.0720304325222969, -4.414496421813965, -0.7290446162223816, -1.1977089643478394, 0.07077598571777344, -0.8661258128542808, -1.1574358458632332, 1.1402558009321773, 9362.0, 30146.0, 35388.0, 9362.0, 7.854546070098877, -1.516406536102295, 0.02009602263569832, -1.881638526916504, -0.04334843158721924, -0.004785237368196249, 0.9641449451446533, -0.022690031677484512, 0.05000114440917969, 1.5, 1.736572265625, 0.7700042724609375, 1.491943359375
14343, -2.7564938068389893, -2.9796411991119385, 27.526926040649414, -0.022090427577495575, -0.062251318246126175, -28.0640869140625, -0.020947609096765518, -0.0594378262758255, -4.422000885009766, -0.7289354801177979, -1.1977882385253906, 0.0709768682718277, -0.9032252863878647, -1.0981289664614735, 1.052575888590137, 9362.0, 30146.0, 35388.0, 9362.0, 7.854546070098877, 0.5603888630867004, 0.3904155492782593, -3.0797345638275146, -0.02925090678036213, 0.004314846359193325, 0.9659809470176697, -0.022690031677484512, 0.05000114440917969, 1.5, 1.736572265625, 0.7700042724609375, 1.491943359375
14363, -2.7494070529937744, -2.990358352661133, 27.54836082458496, -0.022617608308792114, -0.06375101208686829, -28.19691276550293, -0.014192341826856136, -0.04053477942943573, -4.433020114898682, -0.728905200958252, -1.1978429555892944, 0.07100378721952438, -0.8866161063895386, -1.1169611113974156, 1.04344216683048, 9362.0, 30146.0, 35388.0, 9362.0, 7.854546070098877, -1.2232089042663574, 0.30632564425468445, 4.955163955688477, -0.042823292315006256, 0.0017327283276244998, 0.9632883071899414, -0.00909348763525486, -0.05751800537109375, 1.4912109375, 1.736572265625, 0.7700042724609375, 1.491943359375
14403, -2.7463343143463135, -3.0041801929473877, 27.59340476989746, -0.023004034534096718, -0.06486774235963821, -28.374528884887695, -0.00510834064334631, -0.015278363600373268, -4.4476141929626465, -0.7289934754371643, -1.1977981328964233, 0.07096390426158905, -0.85876294349762, -1.1841502021655117, 1.1505211914234443, 9362.0, 30146.0, 35388.0, 9362.0, 7.854546070098877, 0.6195172071456909, 0.7215588688850403, 9.564010620117188, -0.030271127820014954, 0.003693662816658616, 0.9646368622779846, 0.005130164325237274, 0.1396007537841797, 1.50732421875, 1.736572265625, 0.7700042724609375, 1.491943359375
14413, -2.7512154579162598, -3.0063042640686035, 27.585216522216797, -0.023004034534096718, -0.06486774235963821, -28.374528884887695, -0.00510834064334631, -0.015278363600373268, -4.4476141929626465, -0.7289925813674927, -1.1977994441986084, 0.07094499468803406, -0.8553691450683527, -1.200065199515393, 1.1423701973773817, 9362.0, 30146.0, 35388.0, 9362.0, 7.854546070098877, 0.6195172071456909, 0.7215588688850403, 9.564010620117188, -0.047958988696336746, -0.006684435065835714, 0.963719367980957, 0.005130164325237274, 0.1396007537841797, 1.50732421875, 1.736572265625, 0.7700042724609375, 1.491943359375
14423, -2.7523488998413086, -3.0069327354431152, 27.564878463745117, -0.023004034534096718, -0.06486774235963821, -28.374528884887695, -0.00510834064334631, -0.015278363600373268, -4.4476141929626465, -0.7289617657661438, -1.1978070735931396, 0.07103259861469269, -0.8793967959434089, -1.1628274966124081, 1.1108748848503762, 9362.0, 30146.0, 35388.0, 9362.0, 7.854546070098877, 0.6195172071456909, 0.7215588688850403, 9.564010620117188, -0.04020661860704422, 0.0033943362068384886, 0.9640867710113525, 0.005130164325237274, 0.1396007537841797, 1.50732421875, 1.736572265625, 0.7700042724609375, 1.491943359375
14453, -2.753247022628784, -3.0177698135375977, 27.561004638671875, -0.023004034534096718, -0.06486774235963821, -28.374528884887695, -0.00510834064334631, -0.015278363600373268, -4.4476141929626465, -0.729000449180603, -1.197798728942871, 0.07099665701389313, -0.9078777245427021, -1.0658652664236286, 1.0387654057074744, 9362.0, 30146.0, 35388.0, 9362.0, 7.854546070098877, 0.8293625712394714, 0.5205187201499939, 5.566540718078613, -0.03928837180137634, -0.007965284399688244, 0.9654316902160645, 0.009852408431470394, -0.0037593841552734375, 1.49560546875, 1.540283203125, 0.280364990234375, 1.491943359375
14473, -2.750565767288208, -3.026498794555664, 27.58875274658203, -0.022800637409090996, -0.06438931077718735, -28.686771392822266, 0.010962899774312973, 0.02898511290550232, -4.473428726196289, -0.7290571331977844, -1.197928547859192, 0.07111845910549164, -0.8896277623467926, -1.1500635960691454, 1.0733937238113038, 9362.0, 30146.0, 35388.0, 9362.0, 7.854546070098877, -0.6098520159721375, 0.5724859833717346, 7.009842872619629, -0.028137950226664543, 0.000690809334628284, 0.9657102227210999, 0.009852408431470394, -0.0037593841552734375, 1.49560546875, 1.540283203125, 0.280364990234375, 1.491943359375
14543, -2.748612880706787, -3.0072319507598877, 27.4813289642334, -0.021725237369537354, -0.06150912493467331, -28.955833435058594, 0.024887260049581528, 0.06701472401618958, -4.495400905609131, -0.729063868522644, -1.1978912353515625, 0.07114576548337936, -0.9035867682044524, -1.1355428453592253, 1.0790655523202777, 9362.0, 30146.0, 35388.0, 9362.0, 7.854546070098877, -1.087760329246521, -0.44906920194625854, 7.888301372528076, -0.03617028519511223, 0.00927657075226307, 0.964766800403595, 0.0011115629458799958, -0.07543754577636719, 1.48974609375, 1.540283203125, 0.280364990234375, 1.491943359375
14553, -2.748079299926758, -3.0041489601135254, 27.508771896362305, -0.021725237369537354, -0.06150912493467331, -28.955833435058594, 0.024887260049581528, 0.06701472401618958, -4.495400905609131, -0.7290571331977844, -1.1978950500488281, 0.07113486528396606, -0.9104486625368542, -1.1355669279013227, 1.0709317536342, 9362.0, 30146.0, 35388.0, 9362.0, 7.854546070098877, -1.087760329246521, -0.44906920194625854, 7.888301372528076, -0.031193628907203674, -0.0017299478640779853, 0.9677868485450745, 0.0011115629458799958, -0.07543754577636719, 1.48974609375, 1.540283203125, 0.280364990234375, 1.491943359375
14583, -2.7454230785369873, -2.997675657272339, 27.481016159057617, -0.02019275724887848, -0.057368189096450806, -29.181074142456055, 0.03640524297952652, 0.09862180799245834, -4.513866424560547, -0.7290367484092712, -1.1979008913040161, 0.07114198803901672, -0.9058580720597558, -1.1504316651350166, 1.0699320275096051, 9362.0, 30146.0, 35388.0, 9362.0, 7.854546070098877, -0.7835201025009155, 0.1560467630624771, 9.472108840942383, -0.03181474283337593, 0.009822049178183079, 0.9627403616905212, -0.01165622379630804, -0.14711761474609375, 1.48388671875, 1.540283203125, 0.280364990234375, 1.491943359375
14643, -2.7544169425964355, -3.0243635177612305, 27.53300666809082, -0.01808624155819416, -0.05164944753050804, -29.407243728637695, 0.047873515635728836, 0.1301661878824234, -4.532555103302002, -0.7290249466896057, -1.1978453397750854, 0.07106828689575195, -0.8942109130413254, -1.2066080103418813, 1.120922091168928, 9362.0, 30146.0, 35388.0, 9362.0, 7.854546070098877, -0.13454632461071014, 0.2715398669242859, -8.15890121459961, -0.041479695588350296, -0.009200550615787506, 0.9655972719192505, -0.010411967523396015, 0.023120880126953125, 1.497802734375, 1.540283203125, 0.280364990234375, 1.491943359375
14663, -2.7563934326171875, -3.034372091293335, 27.516124725341797, -0.016546064987778664, -0.04745963215827942, -29.54338264465332, 0.05481789633631706, 0.14916251599788666, -4.543437957763672, -0.7290283441543579, -1.1978296041488647, 0.07103895395994186, -0.9093736330989195, -1.1876132259898782, 1.1127216717110138, 9362.0, 30146.0, 35388.0, 9362.0, 7.854546070098877, -0.47324609756469727, 0.6847308278083801, 7.867241859436035, -0.03973228484392166, 0.007027732208371162, 0.9653135538101196, -0.011273475363850594, 0.13064002990722656, 1.506591796875, 1.540283203125, 0.280364990234375, 1.491943359375
14683, -2.7626161575317383, -3.046717882156372, 27.535167694091797, -0.015403213910758495, -0.04434940963983536, -29.63432502746582, 0.059471141546964645, 0.16186392307281494, -4.550778865814209, -0.7290375828742981, -1.1978185176849365, 0.07106105238199234, -0.9074151056320466, -1.207422912249541, 1.1195905402225048, 9362.0, 30146.0, 35388.0, 9362.0, 7.854546070098877, -0.47324609756469727, 0.6847308278083801, 7.867241859436035, -0.04126259684562683, -0.011952727101743221, 0.966762125492096, -0.01772817224264145, -0.06647872924804688, 1.490478515625, 1.540283203125, 0.280364990234375, 1.491943359375
14703, -2.7596147060394287, -3.0480878353118896, 27.51482582092285, -0.014796762727200985, -0.04269890859723091, -29.67984962463379, 0.06182006374001503, 0.16823507845401764, -4.55423641204834, -0.7290089726448059, -1.1977949142456055, 0.07095218449831009, -0.860714327471649, -1.168668590080074, 1.1426244491461128, 9362.0, 30146.0, 35388.0, 9362.0, 7.854546070098877, -0.5374338626861572, 0.4324793517589569, 9.459015846252441, -0.04287068918347359, 0.006697738077491522, 0.9629897475242615, -0.022302068769931793, -0.13815879821777344, 1.484619140625, 1.540283203125, 0.280364990234375, 1.491943359375
14733, -2.7652032375335693, -3.0437076091766357, 27.49565887451172, -0.012836340814828873, -0.03736504539847374, -29.816640853881836, 0.06887107342481613, 0.18734584748744965, -4.565209865570068, -0.7290205955505371, -1.1977992057800293, 0.07097499072551727, -0.8631832410435756, -1.159831728049852, 1.1513572660370788, 9362.0, 30146.0, 35388.0, 9362.0, 7.854546070098877, 0.6146135330200195, -0.1354435384273529, -9.083580017089844, -0.049709729850292206, -0.0012191389687359333, 0.9652649760246277, -0.014648282900452614, -0.18295860290527344, 1.48095703125, 1.540283203125, 0.280364990234375, 1.491943359375
14763, -2.7614383697509766, -3.0377635955810547, 27.52161407470703, -0.010664330795407295, -0.031458016484975815, -29.953763961791992, 0.07592453062534332, 0.20646069943904877, -4.576162815093994, -0.7290175557136536, -1.1977617740631104, 0.07090791314840317, -0.883307502647189, -1.1112970368298818, 1.1054954762608626, 9362.0, 30146.0, 35388.0, 9362.0, 7.854546070098877, -1.3646985292434692, -0.7076770067214966, -7.17568826675415, -0.039079729467630386, -0.00950878020375967, 0.9642587900161743, -0.014648282900452614, -0.18295860290527344, 1.48095703125, 1.540283203125, 0.280364990234375, 1.491943359375
14783, -2.754829168319702, -3.0229005813598633, 27.49094009399414, -0.008281141519546509, -0.024978121742606163, -30.091215133666992, 0.08295068889856339, 0.2255246788263321, -4.587428092956543, -0.7289930582046509, -1.1977996826171875, 0.07092122733592987, -0.8645090274017095, -1.1279735340652053, 1.0975903683618446, 9362.0, 30146.0, 35388.0, 9362.0, 7.854546070098877, 0.0494842603802681, -0.08575621992349625, 11.279580116271973, -0.04044375941157341, 0.007674406282603741, 0.9635004997253418, -0.011596351861953735, 0.014162063598632812, 1.4970703125, 1.540283203125, 0.280364990234375, 1.491943359375
14813, -2.7559242248535156, -3.0144236087799072, 27.49087905883789, -0.005688038654625416, -0.017927078530192375, -30.229005813598633, 0.08991753309965134, 0.24454452097415924, -4.598507881164551, -0.7290222644805908, -1.1977609395980835, 0.07089158147573471, -0.8862147550055074, -1.1110769462223686, 1.1058886192951884, 9362.0, 30146.0, 35388.0, 9362.0, 7.854546070098877, 0.2824338674545288, -0.27062100172042847, -10.916668891906738, -0.04112498462200165, -0.006856594234704971, 0.9646231532096863, -0.014839865267276764, -0.07543754577636719, 1.48974609375, 1.540283203125, 0.280364990234375, 1.491943359375
14853, -2.755152463912964, -3.0157978534698486, 27.517169952392578, -0.00190634501632303, -0.007638938724994659, -30.41324234008789, 0.09915748238563538, 0.2698478400707245, -4.613441467285156, -0.7289726138114929, -1.197756290435791, 0.07088787108659744, -0.8776145812302176, -1.1371539394468755, 1.0999762312483978, 9362.0, 30146.0, 35388.0, 9362.0, 7.854546070098877, -0.6392831206321716, 0.10349981486797333, -9.646777153015137, -0.034383516758680344, -0.01140475831925869, 0.9647004008293152, -0.01347600668668747, 0.014162063598632812, 1.4970703125, 1.540283203125, 0.280364990234375, 1.491943359375
14863, -2.7543516159057617, -3.018465518951416, 27.494277954101562, -0.00190634501632303, -0.007638938724994659, -30.41324234008789, 0.09915748238563538, 0.2698478400707245, -4.613441467285156, -0.7289756536483765, -1.1977519989013672, 0.07090918719768524, -0.8854721647301241, -1.1286305888731647, 1.1101310511127438, 9362.0, 30146.0, 35388.0, 9362.0, 7.854546070098877, -0.6392831206321716, 0.10349981486797333, -9.646777153015137, -0.0413874126970768, 0.001522996579296887, 0.9662759900093079, -0.01347600668668747, 0.014162063598632812, 1.4970703125, 1.540283203125, 0.280364990234375, 1.491943359375
14873, -2.7518701553344727, -3.0232534408569336, 27.517162322998047, -0.00190634501632303, -0.007638938724994659, -30.41324234008789, 0.09915748238563538, 0.2698478400707245, -4.613441467285156, -0.7289916276931763, -1.197737693786621, 0.0708787739276886, -0.8899464675367063, -1.1296971585607025, 1.1037652507778852, 9362.0, 30146.0, 35388.0, 9362.0, 7.854546070098877, -1.1827383041381836, 0.7037684917449951, 7.935102462768555, -0.035317614674568176, 0.011172445490956306, 0.9655218124389648, -0.01347600668668747, 0.014162063598632812, 1.4970703125, 1.540283203125, 0.280364990234375, 1.491943359375
14903, -2.7603628635406494, -3.040158987045288, 27.50687026977539, 0.003340639639645815, 0.0066447788849473, -30.644376754760742, 0.11074426770210266, 0.3015274405479431, -4.6317291259765625, -0.7289149165153503, -1.1977139711380005, 0.07082605361938477, -0.8529727143727472, -1.0989674850617064, 1.073130519469339, 9362.0, 30146.0, 35388.0, 9362.0, 7.854546070098877, -1.5131388902664185, 0.2731240689754486, -5.510312557220459, -0.047868840396404266, 0.0003489708178676665, 0.9631128311157227, 0.010664946399629116, 0.03208160400390625, 1.49853515625, 1.540283203125, 0.280364990234375, 1.491943359375
14913, -2.7574799060821533, -3.0450384616851807, 27.523456573486328, 0.003340639639645815, 0.0066447788849473, -30.644376754760742, 0.11074426770210266, 0.3015274405479431, -4.6317291259765625, -0.7289479970932007, -1.1976839303970337, 0.07080091536045074, -0.8735836820918288, -1.0800738895437973, 1.085262567762852, 9362.0, 30146.0, 35388.0, 9362.0, 7.854546070098877, -1.5131388902664185, 0.2731240689754486, -5.510312557220459, -0.03749540448188782, 0.009311815723776817, 0.9639189839363098, 0.010664946399629116, 0.03208160400390625, 1.49853515625, 1.540283203125, 0.280364990234375, 1.491943359375
14933, -2.7665176391601562, -3.0522801876068115, 27.536569595336914, 0.006768032908439636, 0.015976225957274437, -30.78350257873535, 0.11775773763656616, 0.3205795884132385, -4.643136024475098, -0.7289246916770935, -1.197722315788269, 0.07079651206731796, -0.8470858283530889, -1.092045559864033, 1.073861342702234, 9362.0, 30146.0, 35388.0, 9362.0, 7.854546070098877, -1.4199352264404297, -0.08596228063106537, -6.987295150756836, -0.04004765301942825, -0.009974169544875622, 0.9657333493232727, 0.020639559254050255, 0.12168121337890625, 1.505859375, 1.540283203125, 0.280364990234375, 1.491943359375
14943, -2.765894889831543, -3.0547640323638916, 27.508346557617188, 0.006768032908439636, 0.015976225957274437, -30.78350257873535, 0.11775773763656616, 0.3205795884132385, -4.643136024475098, -0.7289365530014038, -1.1976996660232544, 0.07080981135368347, -0.8660612868280666, -1.0716975784384317, 1.0824929468119973, 9362.0, 30146.0, 35388.0, 9362.0, 7.854546070098877, 1.199001669883728, 0.3311365246772766, 5.199596881866455, -0.04954021796584129, -0.003129941411316395, 0.9633086323738098, 0.020639559254050255, 0.12168121337890625, 1.505859375, 1.540283203125, 0.280364990234375, 1.491943359375
14953, -2.7623555660247803, -3.057643175125122, 27.519729614257812, 0.006768032908439636, 0.015976225957274437, -30.78350257873535, 0.11775773763656616, 0.3205795884132385, -4.643136024475098, -0.7289462685585022, -1.1976826190948486, 0.07080081105232239, -0.8743777083318643, -1.0717816682974615, 1.0818131363043457, 9362.0, 30146.0, 35388.0, 9362.0, 7.854546070098877, -0.7458521723747253, 0.1820465326309204, 8.268531799316406, -0.04177609458565712, 0.008836613968014717, 0.9630454778671265, 0.020639559254050255, 0.12168121337890625, 1.505859375, 1.540283203125, 0.280364990234375, 1.491943359375
14973, -2.7665412425994873, -3.0605852603912354, 27.538105010986328, 0.006768032908439636, 0.015976225957274437, -30.78350257873535, 0.11775773763656616, 0.3205795884132385, -4.643136024475098, -0.7289866209030151, -1.1977903842926025, 0.07088889181613922, -0.866464121311721, -1.1302473449588035, 1.1019995834494674, 9362.0, 30146.0, 35388.0, 9362.0, 7.854546070098877, -0.7458521723747253, 0.1820465326309204, 8.268531799316406, -0.037504907697439194, -0.010168702341616154, 0.9665353894233704, 0.0028512352146208286, -0.14711761474609375, 1.48388671875, 1.540283203125, 0.280364990234375, 1.491943359375
15003, -2.759861469268799, -3.0519747734069824, 27.53626251220703, 0.01558864675462246, 0.039978500455617905, -31.109432220458984, 0.13427400588989258, 0.3652149736881256, -4.6690850257873535, -0.7289879322052002, -1.19778311252594, 0.07090995460748672, -0.8794619896482764, -1.1167699858464744, 1.1045267729631223, 9362.0, 30146.0, 35388.0, 9362.0, 7.854546070098877, 0.18235917389392853, 0.09445084631443024, 11.137517929077148, -0.031221743673086166, 0.005986573174595833, 0.9643021821975708, 0.009926787577569485, -0.01271820068359375, 1.494873046875, 1.540283203125, 0.280364990234375, 1.491943359375
15013, -2.7602384090423584, -3.0511698722839355, 27.55291748046875, 0.01694316603243351, 0.043662507086992264, -31.15614128112793, 0.13662642240524292, 0.37158820033073425, -4.672778606414795, -0.728996217250824, -1.1977812051773071, 0.07090252637863159, -0.8703417070267939, -1.118164409201654, 1.1061350423447425, 9362.0, 30146.0, 35388.0, 9362.0, 7.854546070098877, -0.22394543886184692, -0.8984807133674622, -11.883339881896973, -0.031221743673086166, 0.005986573174595833, 0.9643021821975708, 0.009926787577569485, -0.01271820068359375, 1.494873046875, 1.540283203125, 0.280364990234375, 1.491943359375
15203, -2.7674624919891357, -3.053187608718872, 27.510326385498047, 0.04712231457233429, 0.12573763728141785, -32.05055618286133, 0.1810113787651062, 0.492407888174057, -4.741950988769531, -0.728987455368042, -1.1977460384368896, 0.0708690956234932, -0.8814585395388282, -1.1118770843335142, 1.1088341793773675, 9362.0, 30146.0, 35388.0, 9362.0, 7.854546070098877, 1.6661604642868042, 0.3894142508506775, -2.246428966522217, -0.04838263615965843, 0.0009453414240851998, 0.9626662135124207, 0.028349589556455612, 0.1396007537841797, 1.50732421875, 1.540283203125, 0.280364990234375, 1.491943359375
15233, -2.7660329341888428, -3.0518383979797363, 27.53753089904785, 0.052658338099718094, 0.1407967358827591, -32.19298553466797, 0.18806439638137817, 0.5115366578102112, -4.75318717956543, -0.7289687991142273, -1.197756052017212, 0.07087462395429611, -0.8728672980232358, -1.1183237886758377, 1.1160030196625426, 9362.0, 30146.0, 35388.0, 9362.0, 7.854546070098877, -0.9114624857902527, -0.7182576060295105, -9.778228759765625, -0.03816618025302887, -0.013945702463388443, 0.9668025374412537, 0.04707740619778633, -0.05751800537109375, 1.4912109375, 1.540283203125, 0.280364990234375, 1.491943359375
15243, -2.762542486190796, -3.047283887863159, 27.510107040405273, 0.052658338099718094, 0.1407967358827591, -32.19298553466797, 0.18806439638137817, 0.5115366578102112, -4.75318717956543, -0.7289806008338928, -1.1977543830871582, 0.07086440175771713, -0.878084886195221, -1.1187188887605828, 1.1151504599845905, 9362.0, 30146.0, 35388.0, 9362.0, 7.854546070098877, 1.2496592998504639, -0.19518056511878967, 5.05929708480835, -0.03816618025302887, -0.013945702463388443, 0.9668025374412537, 0.025168152526021004, 0.1485614776611328, 1.508056640625, 1.540283203125, 0.280364990234375, 1.491943359375
15253, -2.756345510482788, -3.045334577560425, 27.519193649291992, 0.052658338099718094, 0.1407967358827591, -32.19298553466797, 0.18806439638137817, 0.5115366578102112, -4.75318717956543, -0.7289583086967468, -1.1977300643920898, 0.07081247121095657, -0.8873677241809098, -1.092935730023214, 1.081387554280507, 9362.0, 30146.0, 35388.0, 9362.0, 7.854546070098877, 1.2496592998504639, -0.19518056511878967, 5.05929708480835, -0.04107767343521118, 0.00653692614287138, 0.9642561078071594, 0.025168152526021004, 0.1485614776611328, 1.508056640625, 1.540283203125, 0.280364990234375, 1.491943359375
15283, -2.7586123943328857, -3.033942699432373, 27.517047882080078, 0.0623563751578331, 0.1671711504459381, -32.43109130859375, 0.1998348981142044, 0.5433986783027649, -4.771223545074463, -0.7289800047874451, -1.1977143287658691, 0.07078613340854645, -0.9008423847288995, -1.087083964682705, 1.07068947223584, 9362.0, 30146.0, 35388.0, 9362.0, 7.854546070098877, 1.608152985572815, -0.2354239821434021, 0.35801222920417786, -0.033687517046928406, -0.008596929721534252, 0.9655193090438843, 0.0006546179065480828, -0.07543754577636719, 1.48974609375, 1.540283203125, 0.280364990234375, 1.491943359375
15303, -2.7487375736236572, -3.0294604301452637, 27.54530906677246, 0.0623563751578331, 0.1671711504459381, -32.43109130859375, 0.1998348981142044, 0.5433986783027649, -4.771223545074463, -0.7289397120475769, -1.197667121887207, 0.07078061252832413, -0.8799150539733106, -1.0742794671936053, 1.0862503336916978, 9362.0, 30146.0, 35388.0, 9362.0, 7.854546070098877, 0.1019597128033638, -0.24786558747291565, 11.83146858215332, -0.030571317300200462, 0.009002252481877804, 0.9642147421836853, 0.0006546179065480828, -0.07543754577636719, 1.48974609375, 1.540283203125, 0.280364990234375, 1.491943359375
15313, -2.7533445358276367, -3.026935577392578, 27.55665397644043, 0.0623563751578331, 0.1671711504459381, -32.43109130859375, 0.1998348981142044, 0.5433986783027649, -4.771223545074463, -0.7289340496063232, -1.1976628303527832, 0.07077405601739883, -0.8788079648307554, -1.0714944229337107, 1.085290064595907, 9362.0, 30146.0, 35388.0, 9362.0, 7.854546070098877, 0.1019597128033638, -0.24786558747291565, 11.83146858215332, -0.02910594828426838, -0.004970003385096788, 0.9652040600776672, 0.0006546179065480828, -0.07543754577636719, 1.48974609375, 1.540283203125, 0.280364990234375, 1.491943359375
15343, -2.753246784210205, -3.0235729217529297, 27.536609649658203, 0.07053668051958084, 0.1894150823354721, -32.62223434448242, 0.20917360484600067, 0.5687907338142395, -4.785877227783203, -0.7289292812347412, -1.1976827383041382, 0.07078474014997482, -0.8709070923737504, -1.0824127026143344, 1.0855847876868117, 9362.0, 30146.0, 35388.0, 9362.0, 7.854546070098877, 0.1019597128033638, -0.24786558747291565, 11.83146858215332, -0.046188682317733765, 0.0045556784607470036, 0.9648773074150085, -0.01383487693965435, 0.20232009887695312, 1.512451171875, 1.540283203125, 0.280364990234375, 1.491943359375
15413, -2.7676730155944824, -3.0394363403320312, 27.526859283447266, 0.09030148386955261, 0.24317443370819092, -33.054466247558594, 0.2300516963005066, 0.625889003276825, -4.819367408752441, -0.728929340839386, -1.197688102722168, 0.07076552510261536, -0.8561121708778007, -1.082212681354548, 1.0873219472124833, 9362.0, 30146.0, 35388.0, 9362.0, 7.854546070098877, 1.1134629249572754, 0.18523916602134705, -7.23549222946167, -0.049313902854919434, -0.0039189956150949, 0.9672147631645203, -0.012200351804494858, -0.030637741088867188, 1.493408203125, 1.540283203125, 0.280364990234375, 1.491943359375
15433, -2.7627789974212646, -3.045963764190674, 27.5560359954834, 0.09030148386955261, 0.24317443370819092, -33.054466247558594, 0.2300516963005066, 0.625889003276825, -4.819367408752441, -0.7289224863052368, -1.1976850032806396, 0.07075468450784683, -0.8555635426929251, -1.0823277086629446, 1.0818960286969792, 9362.0, 30146.0, 35388.0, 9362.0, 7.854546070098877, -0.497783899307251, 0.3228815197944641, 9.729957580566406, -0.032777391374111176, -0.00032571048359386623, 0.9634056091308594, -0.012200351804494858, -0.030637741088867188, 1.493408203125, 1.540283203125, 0.280364990234375, 1.491943359375
15493, -2.7638845443725586, -3.051602602005005, 27.540769577026367, 0.10697799175977707, 0.2885477542877197, -33.39271926879883, 0.24644017219543457, 0.6704859733581543, -4.845290660858154, -0.7289292812347412, -1.1976748704910278, 0.07079867273569107, -0.860320017161398, -1.0672636120770562, 1.089481458154516, 9362.0, 30146.0, 35388.0, 9362.0, 7.854546070098877, -0.2556911110877991, -0.21881496906280518, -9.2649564743042, -0.0406954325735569, -0.014452081173658371, 0.9666622877120972, -0.02455633506178856, -0.1739978790283203, 1.481689453125, 1.51904296875, 0.2346954345703125, 1.491943359375
15503, -2.7605745792388916, -3.0483617782592773, 27.519990921020508, 0.10697799175977707, 0.2885477542877197, -33.39271926879883, 0.24644017219543457, 0.6704859733581543, -4.845290660858154, -0.7289109230041504, -1.1976964473724365, 0.07079653441905975, -0.8483933108117655, -1.081892741471222, 1.0851472265706206, 9362.0, 30146.0, 35388.0, 9362.0, 7.854546070098877, -0.2556911110877991, -0.21881496906280518, -9.2649564743042, -0.0467429980635643, -0.0001985116396099329, 0.9646549224853516, -0.02455633506178856, -0.1739978790283203, 1.481689453125, 1.51904296875, 0.2346954345703125, 1.491943359375
15513, -2.7555103302001953, -3.049077272415161, 27.53321075439453, 0.10697799175977707, 0.2885477542877197, -33.39271926879883, 0.24644017219543457, 0.6704859733581543, -4.845290660858154, -0.728939414024353, -1.1976726055145264, 0.07077961415052414, -0.8651565718898415, -1.0628946994366117, 1.0834777284642862, 9362.0, 30146.0, 35388.0, 9362.0, 7.854546070098877, -0.2556911110877991, -0.21881496906280518, -9.2649564743042, -0.03940727934241295, 0.008168600499629974, 0.9619173407554626, -0.02455633506178856, -0.1739978790283203, 1.481689453125, 1.51904296875, 0.2346954345703125, 1.491943359375
15533, -2.7588419914245605, -3.0478389263153076, 27.561887741088867, 0.10697799175977707, 0.2885477542877197, -33.39271926879883, 0.24644017219543457, 0.6704859733581543, -4.845290660858154, -0.7289247512817383, -1.1976627111434937, 0.07078726589679718, -0.869467025751982, -1.0608235007651956, 1.0849327260081316, 9362.0, 30146.0, 35388.0, 9362.0, 7.854546070098877, 0.6119504570960999, -0.44178569316864014, -11.408299446105957, -0.03488210216164589, -0.0069778840988874435, 0.9664422273635864, -0.02455633506178856, -0.1739978790283203, 1.481689453125, 1.51904296875, 0.2346954345703125, 1.491943359375
15543, -2.759580373764038, -3.04264760017395, 27.52615737915039, 0.10697799175977707, 0.2885477542877197, -33.39271926879883, 0.24644017219543457, 0.6704859733581543, -4.845290660858154, -0.7289223074913025, -1.197677731513977, 0.07078520208597183, -0.862084581236929, -1.0770793476226288, 1.090800069772844, 9362.0, 30146.0, 35388.0, 9362.0, 7.854546070098877, 1.4366590976715088, -0.15888942778110504, 1.606316089630127, -0.03488210216164589, -0.0069778840988874435, 0.9664422273635864, -0.02455633506178856, -0.1739978790283203, 1.481689453125, 1.51904296875, 0.2346954345703125, 1.491943359375
15633, -2.7638211250305176, -3.0428695678710938, 27.53390884399414, 0.1437838226556778, 0.3886530101299286, -34.07469177246094, 0.279295414686203, 0.7595112323760986, -4.897454738616943, -0.7289067506790161, -1.197695255279541, 0.07079164683818817, -0.8517871000744426, -1.0901223350501823, 1.090201576060208, 9362.0, 30146.0, 35388.0, 9362.0, 7.854546070098877, 1.0542744398117065, 0.15990354120731354, 7.139573574066162, -0.04916439205408096, -0.002691094297915697, 0.9647605419158936, 0.022862935438752174, -0.030637741088867188, 1.493408203125, 1.51904296875, 0.2346954345703125, 1.491943359375
15643, -2.7600836753845215, -3.0446605682373047, 27.547489166259766, 0.1437838226556778, 0.3886530101299286, -34.07469177246094, 0.279295414686203, 0.7595112323760986, -4.897454738616943, -0.7289310097694397, -1.1976983547210693, 0.07081186771392822, -0.8685205055670498, -1.0733432011411708, 1.0876583399851378, 9362.0, 30146.0, 35388.0, 9362.0, 7.854546070098877, -0.9120314121246338, 0.13550978899002075, 10.756157875061035, -0.04916439205408096, -0.002691094297915697, 0.9647605419158936, 0.022862935438752174, -0.030637741088867188, 1.493408203125, 1.51904296875, 0.2346954345703125, 1.491943359375
15663, -2.768876075744629, -3.048478603363037, 27.57663917541504, 0.15514299273490906, 0.4195423722267151, -34.2708854675293, 0.2886601686477661, 0.784964919090271, -4.912300109863281, -0.7289045453071594, -1.197709083557129, 0.07081158459186554, -0.853517592309844, -1.0827796118538515, 1.0852413432643087, 9362.0, 30146.0, 35388.0, 9362.0, 7.854546070098877, -0.9120314121246338, 0.13550978899002075, 10.756157875061035, -0.03584631159901619, -0.012360014021396637, 0.9669522643089294, 0.022862935438752174, -0.030637741088867188, 1.493408203125, 1.51904296875, 0.2346954345703125, 1.491943359375
15703, -2.7707974910736084, -3.050347089767456, 27.583831787109375, 0.16390830278396606, 0.4433784484863281, -34.41841506958008, 0.29568955302238464, 0.8041114211082458, -4.923130035400391, -0.7289125919342041, -1.1977156400680542, 0.07081536203622818, -0.8488983577825625, -1.0818584176915635, 1.0838244487255644, 9362.0, 30146.0, 35388.0, 9362.0, 7.854546070098877, 0.37505725026130676, -0.1963120698928833, -10.326650619506836, -0.03220309317111969, 0.005395256448537111, 0.9635316729545593, 0.003793118055909872, 0.1396007537841797, 1.50732421875, 1.51904296875, 0.2346954345703125, 1.491943359375
15713, -2.7712666988372803, -3.047804117202759, 27.5581111907959, 0.16390830278396606, 0.4433784484863281, -34.41841506958008, 0.29568955302238464, 0.8041114211082458, -4.923130035400391, -0.7289207577705383, -1.1977145671844482, 0.0708218365907669, -0.861252306744081, -1.0718076960396843, 1.0799547674330856, 9362.0, 30146.0, 35388.0, 9362.0, 7.854546070098877, 0.37505725026130676, -0.1963120698928833, -10.326650619506836, -0.04606524854898453, -0.008444586768746376, 0.9648953080177307, 0.003793118055909872, 0.1396007537841797, 1.50732421875, 1.51904296875, 0.2346954345703125, 1.491943359375
15743, -2.765313148498535, -3.0470974445343018, 27.58615493774414, 0.17898517847061157, 0.48438116908073425, -34.6650390625, 0.30738669633865356, 0.8359999060630798, -4.9417643547058105, -0.7289315462112427, -1.1977105140686035, 0.0707956850528717, -0.8645724579955708, -1.0696053901935727, 1.0777994720130457, 9362.0, 30146.0, 35388.0, 9362.0, 7.854546070098877, -0.21890272200107574, -0.2049339860677719, -9.427783012390137, -0.03292783722281456, -0.006007152609527111, 0.9654561281204224, -0.026281481608748436, -0.05751800537109375, 1.4912109375, 1.51904296875, 0.2346954345703125, 1.491943359375
15763, -2.7636823654174805, -3.038313865661621, 27.54470443725586, 0.17898517847061157, 0.48438116908073425, -34.6650390625, 0.30738669633865356, 0.8359999060630798, -4.9417643547058105, -0.7289428114891052, -1.1976815462112427, 0.07080758363008499, -0.8733687974194572, -1.0593799503658659, 1.084851420871288, 9362.0, 30146.0, 35388.0, 9362.0, 7.854546070098877, -0.21890272200107574, -0.2049339860677719, -9.427783012390137, -0.04362037032842636, 0.0042686681263148785, 0.9618366360664368, -0.007036141119897366, 0.1844005584716797, 1.510986328125, 1.51904296875, 0.2346954345703125, 1.491943359375
15773, -2.7588956356048584, -3.0378758907318115, 27.563417434692383, 0.17898517847061157, 0.48438116908073425, -34.6650390625, 0.30738669633865356, 0.8359999060630798, -4.9417643547058105, -0.7289134860038757, -1.1976945400238037, 0.07080606371164322, -0.8575203037637762, -1.0736896617054015, 1.0859130438528173, 9362.0, 30146.0, 35388.0, 9362.0, 7.854546070098877, -0.21890272200107574, -0.2049339860677719, -9.427783012390137, -0.04362037032842636, 0.0042686681263148785, 0.9618366360664368, -0.030263230204582214, -0.04855918884277344, 1.491943359375, 1.51904296875, 0.2346954345703125, 1.491943359375
15793, -2.7636239528656006, -3.0360169410705566, 27.566011428833008, 0.17898517847061157, 0.48438116908073425, -34.6650390625, 0.30738669633865356, 0.8359999060630798, -4.9417643547058105, -0.7289267778396606, -1.197696328163147, 0.0708056390285492, -0.8644761954439548, -1.0650270659884313, 1.0886605566462941, 9362.0, 30146.0, 35388.0, 9362.0, 7.854546070098877, 0.8687210083007812, -0.07316660135984421, -6.095043659210205, -0.04532455652952194, -0.006227850914001465, 0.9643280506134033, -0.016171373426914215, 0.20232009887695312, 1.512451171875, 1.51904296875, 0.2346954345703125, 1.491943359375
15803, -2.7629427909851074, -3.0349040031433105, 27.53780746459961, 0.17898517847061157, 0.48438116908073425, -34.6650390625, 0.30738669633865356, 0.8359999060630798, -4.9417643547058105, -0.7289482951164246, -1.1976741552352905, 0.07079319655895233, -0.87592362529427, -1.06354893008114, 1.089024289469293, 9362.0, 30146.0, 35388.0, 9362.0, 7.854546070098877, 0.8687210083007812, -0.07316660135984421, -6.095043659210205, -0.04341111332178116, 0.0027347730938345194, 0.9636660218238831, -0.016171373426914215, 0.20232009887695312, 1.512451171875, 1.51904296875, 0.2346954345703125, 1.491943359375
15833, -2.765878438949585, -3.036328077316284, 27.56809425354004, 0.20432373881340027, 0.5532981753349304, -35.06157684326172, 0.32604849338531494, 0.8868887424468994, -4.971828460693359, -0.7289345860481262, -1.1976908445358276, 0.07078903168439865, -0.8693766604495238, -1.0666353707396752, 1.081511149657123, 9362.0, 30146.0, 35388.0, 9362.0, 7.854546070098877, 0.4903866946697235, -0.28685277700424194, -8.806329727172852, -0.036116525530815125, -0.00893027987331152, 0.9679334759712219, -0.016171373426914215, 0.20232009887695312, 1.512451171875, 1.51904296875, 0.2346954345703125, 1.491943359375
15863, -2.7639331817626953, -3.038849353790283, 27.579618453979492, 0.21421009302139282, 0.580190896987915, -35.210899353027344, 0.33304375410079956, 0.9059767723083496, -4.982835292816162, -0.728915274143219, -1.1977150440216064, 0.0707816630601883, -0.8509114368304569, -1.0809778411658044, 1.0857339265470027, 9362.0, 30146.0, 35388.0, 9362.0, 7.854546070098877, 1.148500919342041, -0.028153331950306892, 3.8834433555603027, -0.032240744680166245, 0.008837109431624413, 0.9656310081481934, -0.016677986830472946, 0.21128082275390625, 1.51318359375, 1.51904296875, 0.2346954345703125, 1.491943359375
15893, -2.767756938934326, -3.040853977203369, 27.552452087402344, 0.22771786153316498, 0.6169393658638, -35.41050720214844, 0.3423560559749603, 0.931458055973053, -4.9974212646484375, -0.7289338707923889, -1.1977035999298096, 0.07080168277025223, -0.8697638918457051, -1.0666387476547357, 1.0801810411907384, 9362.0, 30146.0, 35388.0, 9362.0, 7.854546070098877, 1.13611900806427, 0.07152514159679413, -0.7568650841712952, -0.04384874552488327, 0.006281507667154074, 0.9641621112823486, -0.0025374102406203747, 0.21128082275390625, 1.51318359375, 1.51904296875, 0.2346954345703125, 1.491943359375
15943, -2.7650322914123535, -3.040154218673706, 27.57790756225586, 0.2451268583536148, 0.6643087863922119, -35.66084289550781, 0.3540022373199463, 0.9633145928382874, -5.0160813331604, -0.7289261221885681, -1.1977001428604126, 0.07080080360174179, -0.8647724185076362, -1.061211452936817, 1.0930417032754418, 9362.0, 30146.0, 35388.0, 9362.0, 7.854546070098877, -1.5597333908081055, -0.08864150941371918, 3.4650537967681885, -0.035123199224472046, 0.0043159169144928455, 0.96487957239151, -0.021182361990213394, -0.021678924560546875, 1.494140625, 1.51904296875, 0.2346954345703125, 1.491943359375
15963, -2.770859718322754, -3.036238193511963, 27.580669403076172, 0.2451268583536148, 0.6643087863922119, -35.66084289550781, 0.3540022373199463, 0.9633145928382874, -5.0160813331604, -0.7289302945137024, -1.197706699371338, 0.07078394293785095, -0.8680439336626105, -1.060306905964552, 1.086871921035329, 9362.0, 30146.0, 35388.0, 9362.0, 7.854546070098877, -1.5597333908081055, -0.08864150941371918, 3.4650537967681885, -0.03833819553256035, -0.013275517150759697, 0.9658567905426025, -0.017110975459218025, 0.15752029418945312, 1.5087890625, 1.51904296875, 0.2346954345703125, 1.491943359375
15973, -2.76910400390625, -3.0338122844696045, 27.557233810424805, 0.2451268583536148, 0.6643087863922119, -35.66084289550781, 0.3540022373199463, 0.9633145928382874, -5.0160813331604, -0.7289267778396606, -1.19770348072052, 0.07078193873167038, -0.8652748846033093, -1.067466491095871, 1.0773419751323994, 9362.0, 30146.0, 35388.0, 9362.0, 7.854546070098877, 1.431164026260376, 0.12916254997253418, 5.334290504455566, -0.03833819553256035, -0.013275517150759697, 0.9658567905426025, -0.017110975459218025, 0.15752029418945312, 1.5087890625, 1.51904296875, 0.2346954345703125, 1.491943359375
16013, -2.7650022506713867, -3.0334527492523193, 27.56560707092285, 0.27047693729400635, 0.7333027720451355, -36.012855529785156, 0.3702813684940338, 1.0079363584518433, -5.041406154632568, -0.7289470434188843, -1.1976903676986694, 0.07075931131839752, -0.8799560930511161, -1.0479704626160071, 1.0798410444118307, 9362.0, 30146.0, 35388.0, 9362.0, 7.854546070098877, 1.3724411725997925, 0.2821139693260193, 3.544660806655884, -0.0298240277916193, 0.0025807791389524937, 0.9655809998512268, 0.024430347606539726, 0.0052013397216796875, 1.496337890625, 1.51904296875, 0.2346954345703125, 1.491943359375
16023, -2.7600889205932617, -3.0341408252716064, 27.567033767700195, 0.27047693729400635, 0.7333027720451355, -36.012855529785156, 0.3702813684940338, 1.0079363584518433, -5.041406154632568, -0.7289391756057739, -1.1976999044418335, 0.07078160345554352, -0.8688446420800139, -1.0662080748025176, 1.0815524132564551, 9362.0, 30146.0, 35388.0, 9362.0, 7.854546070098877, -0.32857170701026917, -0.12898293137550354, 10.338052749633789, -0.04196348413825035, 0.008782260119915009, 0.9627215266227722, 0.024430347606539726, 0.0052013397216796875, 1.496337890625, 1.51904296875, 0.2346954345703125, 1.491943359375
16033, -2.758615255355835, -3.033761978149414, 27.59813690185547, 0.27047693729400635, 0.7333027720451355, -36.012855529785156, 0.3702813684940338, 1.0079363584518433, -5.041406154632568, -0.7289248704910278, -1.197695016860962, 0.07078099995851517, -0.8675815663975985, -1.0668283619324939, 1.082935616656422, 9362.0, 30146.0, 35388.0, 9362.0, 7.854546070098877, -0.32857170701026917, -0.12898293137550354, 10.338052749633789, -0.02838476561009884, 0.006016915664076805, 0.9649378061294556, 0.024430347606539726, 0.0052013397216796875, 1.496337890625, 1.51904296875, 0.2346954345703125, 1.491943359375
16043, -2.7626540660858154, -3.0347063541412354, 27.589210510253906, 0.27047693729400635, 0.7333027720451355, -36.012855529785156, 0.3702813684940338, 1.0079363584518433, -5.041406154632568, -0.7289031147956848, -1.1977136135101318, 0.0707731619477272, -0.8503740722225838, -1.0777523367218294, 1.0932703085673612, 9362.0, 30146.0, 35388.0, 9362.0, 7.854546070098877, 0.41058310866355896, -0.22136007249355316, -9.59094524383545, -0.03547726944088936, -0.009961673989892006, 0.9662559032440186, 0.024430347606539726, 0.0052013397216796875, 1.496337890625, 1.51904296875, 0.2346954345703125, 1.491943359375
16093, -2.7670388221740723, -3.031141996383667, 27.56490707397461, 0.3008420169353485, 0.8159709572792053, -36.41738510131836, 0.388845294713974, 1.0587646961212158, -5.071573734283447, -0.72889643907547, -1.1977123022079468, 0.0707787275314331, -0.8488659060802152, -1.0690989903702643, 1.0856730666772594, 9362.0, 30146.0, 35388.0, 9362.0, 7.854546070098877, 1.2465424537658691, 0.0652238056063652, -2.260096788406372, -0.02871926873922348, -0.006707962602376938, 0.9659874439239502, -0.010639489628374577, 0.08584022521972656, 1.5029296875, 1.51904296875, 0.2346954345703125, 1.491943359375
16103, -2.7651259899139404, -3.030536413192749, 27.55263900756836, 0.3008420169353485, 0.8159709572792053, -36.41738510131836, 0.388845294713974, 1.0587646961212158, -5.071573734283447, -0.7289286851882935, -1.197704553604126, 0.07076948136091232, -0.8650571616291877, -1.0582285488645766, 1.0886878382088043, 9362.0, 30146.0, 35388.0, 9362.0, 7.854546070098877, 1.2465424537658691, 0.0652238056063652, -2.260096788406372, -0.04584044590592384, 0.004534503910690546, 0.964479386806488, -0.010639489628374577, 0.08584022521972656, 1.5029296875, 1.51904296875, 0.2346954345703125, 1.491943359375
16143, -2.7695086002349854, -3.0316061973571777, 27.55999755859375, 0.31261178851127625, 0.8480201959609985, -36.569698333740234, 0.3958022892475128, 1.077850580215454, -5.082636833190918, -0.7289033532142639, -1.1977177858352661, 0.0707826167345047, -0.8515706872452308, -1.0727952114527568, 1.0848759915787345, 9362.0, 30146.0, 35388.0, 9362.0, 7.854546070098877, 0.9727766513824463, -0.03196543827652931, 9.336541175842285, -0.042577728629112244, -0.009575323201715946, 0.9649757742881775, -0.010759962722659111, 0.07688140869140625, 1.502197265625, 1.51904296875, 0.2346954345703125, 1.491943359375
16163, -2.7700130939483643, -3.0346319675445557, 27.602895736694336, 0.3286295235157013, 0.8916437029838562, -36.77329635620117, 0.405076265335083, 1.1033189296722412, -5.097395420074463, -0.7289146184921265, -1.1977193355560303, 0.07076209783554077, -0.8526662420421554, -1.0779497650062524, 1.0852640361481667, 9362.0, 30146.0, 35388.0, 9362.0, 7.854546070098877, -1.5176622867584229, 0.4797496497631073, 5.138028621673584, -0.029933197423815727, -0.002601384883746505, 0.9663640856742859, -0.010759962722659111, 0.07688140869140625, 1.502197265625, 1.51904296875, 0.2346954345703125, 1.491943359375
16173, -2.775104522705078, -3.031810760498047, 27.59064292907715, 0.3286295235157013, 0.8916437029838562, -36.77329635620117, 0.405076265335083, 1.1033189296722412, -5.097395420074463, -0.7289144396781921, -1.197719693183899, 0.07078363001346588, -0.8548368661799799, -1.0762015742284632, 1.0829722654848535, 9362.0, 30146.0, 35388.0, 9362.0, 7.854546070098877, -1.5176622867584229, 0.4797496497631073, 5.138028621673584, -0.029933197423815727, -0.002601384883746505, 0.9663640856742859, 0.004430570174008608, -0.01271820068359375, 1.494873046875, 1.51904296875, 0.2346954345703125, 1.491943359375
16183, -2.77555513381958, -3.0310916900634766, 27.56804656982422, 0.3286295235157013, 0.8916437029838562, -36.77329635620117, 0.405076265335083, 1.1033189296722412, -5.097395420074463, -0.7289063930511475, -1.1977185010910034, 0.07077255845069885, -0.8596703167745257, -1.077618663427188, 1.0840838887514832, 9362.0, 30146.0, 35388.0, 9362.0, 7.854546070098877, -1.5176622867584229, 0.4797496497631073, 5.138028621673584, -0.04720926657319069, 0.0007195600774139166, 0.9644879698753357, 0.004430570174008608, -0.01271820068359375, 1.494873046875, 1.51904296875, 0.2346954345703125, 1.491943359375
