timeTick, roll, pitch, yaw, stateX, stateY, stateZ, stateVX, stateVY, stateVZ, otX0, otY0, otZ0, otRoll0, otPitch0, otYaw0, left wing, pitch motor, yaw motor, right wing, voltage, roll rate, pitch rate, yaw rate, A_x, A_y, A_z, current, i_raw, v_raw, airflow_voltage, airflow_speed, pot_Pitch
17892, -0.8061032295227051, -0.9424258470535278, 0.12502548098564148, 0, 0, 0, 0, 0, 0, -0.7978401184082031, -1.0201624631881714, 0.07095668464899063, -0.2251414051869094, -0.9309600006177732, 3.581718187825103, 0, 0, 0, 0, 0, 0, 0, 0, 0, 0, 0, 0, 0, 0, 0, 0, 0
17902, -0.805908739566803, -0.9450039863586426, 0.1258019208908081, 6.865987234050408e-05, 5.893927300348878e-05, 0.902484118938446, 0.005042704753577709, 0.004327220376580954, 0.11055426299571991, -0.7978482246398926, -1.0201683044433594, 0.07094314694404602, -0.22858922269947407, -0.9314443486546224, 3.5915536474236935, 9362.0, 30146.0, 35388.0, 9362.0, 8.152067184448242, -0.09152562916278839, -0.07600808143615723, -0.19842010736465454, -0.029828879982233047, 0.011016489937901497, 0.9998854994773865, -0.037590160965919495, -0.12023735046386719, 1.486083984375, 0, 0, 0
17912, -0.805365264415741, -0.9418026804924011, 0.12435697764158249, 0.0001271302462555468, 0.00010912252764683217, 0.9035890102386475, 0.006651345640420914, 0.005709453020244837, 0.11042917519807816, -0.7978309392929077, -1.0201570987701416, 0.07096744328737259, -0.22687260693973088, -0.9340362250588328, 3.5870543052817845, 9362.0, 30146.0, 35388.0, 9362.0, 8.152067184448242, 0.001971642253920436, -0.17905370891094208, -0.02886611968278885, -0.03189529478549957, 0.010265973396599293, 0.9994251728057861, -0.04118320718407631, 0.11272048950195312, 1.505126953125, 1.094970703125, 1.3307952880859375, 1.48974609375
17922, -0.8056799173355103, -0.9408939480781555, 0.12444250285625458, 0.00020171445794403553, 0.0001731312950141728, 0.9046930074691772, 0.008265536278486252, 0.007092261221259832, 0.11037082970142365, -0.7978426218032837, -1.020154595375061, 0.07096709311008453, -0.22615031194497, -0.9281173609454925, 3.589705059566151, 9362.0, 30146.0, 35388.0, 9362.0, 8.152067184448242, 0.0898263081908226, 0.3261215388774872, -0.06243918463587761, -0.03025624342262745, 0.00965484045445919, 0.99923175573349, -0.04243125766515732, 0.014162063598632812, 1.4970703125, 0.84228515625, 8.248245239257812, 1.489013671875
17932, -0.8056249618530273, -0.941842257976532, 0.12621363997459412, 0.00029241410084068775, 0.00025096387253142893, 0.905796468257904, 0.009874391369521618, 0.008474255912005901, 0.11032132059335709, -0.7978448867797852, -1.0201609134674072, 0.07096116244792938, -0.22841772298712426, -0.930888834907563, 3.5815594790279097, 9362.0, 30146.0, 35388.0, 9362.0, 8.152067184448242, -0.15267032384872437, -0.13721980154514313, 0.3394998013973236, -0.028695937246084213, 0.008107023313641548, 0.9977784156799316, -0.05343946814537048, -0.31735801696777344, 1.469970703125, 1.595947265625, 0.4075927734375, 1.49267578125
17942, -0.8058381080627441, -0.9406172037124634, 0.12558910250663757, 0.00039918397669680417, 0.00034261003020219505, 0.9068987965583801, 0.011479540728032589, 0.009855025447905064, 0.11014344543218613, -0.7978397011756897, -1.020150899887085, 0.07096973061561584, -0.22281730225847646, -0.9287067277003018, 3.5837825213549506, 9362.0, 30146.0, 35388.0, 9362.0, 8.152067184448242, -0.08545783907175064, -0.013681326992809772, -0.32769519090652466, -0.031371328979730606, 0.010571767576038837, 0.9994544982910156, -0.05052851513028145, -0.030637741088867188, 1.493408203125, 1.68896484375, 0.6385955810546875, 1.489013671875
17952, -0.8063330054283142, -0.9380719065666199, 0.12249322235584259, 0.0005220127641223371, 0.00044806324876844883, 0.9079993367195129, 0.013086236082017422, 0.011235600337386131, 0.109959676861763, -0.7978417277336121, -1.0201826095581055, 0.07095780223608017, -0.22494754586637808, -0.928533846277702, 3.585900271875492, 9362.0, 30146.0, 35388.0, 9362.0, 8.152067184448242, 0.09360051900148392, -0.06646450608968735, -0.2765137255191803, -0.03307029977440834, 0.009634600952267647, 0.9990129470825195, -0.053848352283239365, -0.04855918884277344, 1.491943359375, 0.849609375, 7.915618896484375, 1.491943359375
17962, -0.8062462210655212, -0.9391051530838013, 0.12182534486055374, 0.0006609049742110074, 0.0005673298728652298, 0.9090984463691711, 0.014692285098135471, 0.012617633678019047, 0.10985985398292542, -0.7978415489196777, -1.020167589187622, 0.07096827775239944, -0.22910787880730452, -0.9338267670270852, 3.580584871255661, 9362.0, 30146.0, 35388.0, 9362.0, 8.152067184448242, -0.032940659672021866, 0.16237547993659973, -0.2776014506816864, -0.031221533194184303, 0.009816998615860939, 1.000828504562378, -0.05351412296295166, -0.030637741088867188, 1.493408203125, 0.882568359375, 6.5365447998046875, 1.49267578125
17972, -0.8066732287406921, -0.9379691481590271, 0.1216997429728508, 0.0008158394484780729, 0.0007004233193583786, 0.9101967215538025, 0.016294626519083977, 0.014001036062836647, 0.10979901254177094, -0.797840416431427, -1.0201480388641357, 0.0709572359919548, -0.2273079591522458, -0.9321212061449273, 3.5844877060296945, 9362.0, 30146.0, 35388.0, 9362.0, 8.152067184448242, 0.003369132522493601, -0.2565648853778839, 0.041885241866111755, -0.030584178864955902, 0.010000231675803661, 0.9989953637123108, -0.052095942199230194, -0.08439826965332031, 1.489013671875, 0.859130859375, 7.4976959228515625, 1.493408203125
17982, -0.8079573512077332, -0.9369276165962219, 0.12193694710731506, 0.000986811937764287, 0.0008473547641187906, 0.9112947583198547, 0.017899861559271812, 0.015385257080197334, 0.10980669409036636, -0.797839343547821, -1.0201760530471802, 0.07098563015460968, -0.23001793409446994, -0.9313735356233224, 3.584790507121256, 9362.0, 30146.0, 35388.0, 9362.0, 8.152067184448242, 0.13253313302993774, 0.25609922409057617, 0.1442558467388153, -0.030630921944975853, 0.010164241306483746, 1.0009125471115112, -0.04854247719049454, -0.12023735046386719, 1.486083984375, 1.65234375, 0.5445709228515625, 1.493408203125
17992, -0.807744026184082, -0.9375711679458618, 0.12223843485116959, 0.0011738232569769025, 0.0010081288637593389, 0.9123926162719727, 0.019502397626638412, 0.016769563779234886, 0.1097685769200325, -0.7978439331054688, -1.0201541185379028, 0.07096833735704422, -0.23005488129620022, -0.930239444047885, 3.5894719172847367, 9362.0, 30146.0, 35388.0, 9362.0, 8.152067184448242, -0.10773876309394836, 0.10466089844703674, 0.2828449308872223, -0.03195502236485481, 0.008317217230796814, 0.9990765452384949, -0.04392453655600548, 0.0052013397216796875, 1.496337890625, 0.936767578125, 4.65411376953125, 1.493408203125
18002, -0.8079819679260254, -0.9372411966323853, 0.12179451435804367, 0.0013768544886261225, 0.001182759995572269, 0.9134902954101562, 0.021103832870721817, 0.01815667934715748, 0.10977313667535782, -0.7978495359420776, -1.02017080783844, 0.07095839083194733, -0.2235604169983098, -0.9365027592760953, 3.5839838207774526, 9362.0, 30146.0, 35388.0, 9362.0, 8.152067184448242, 0.007306984160095453, -0.1851905882358551, -0.2135808914899826, -0.030728299170732498, 0.008142530918121338, 0.9993606209754944, -0.0403631329536438, 0.05000114440917969, 1.5, 0.985107421875, 3.3311920166015625, 1.489013671875
18012, -0.8077523112297058, -0.9364338517189026, 0.12282542884349823, 0.0015958971343934536, 0.0013712532818317413, 0.9145875573158264, 0.0227047149091959, 0.019541973248124123, 0.10967547446489334, -0.7978347539901733, -1.0201689004898071, 0.07095490396022797, -0.227212143427442, -0.9360718142193889, 3.583142995852949, 9362.0, 30146.0, 35388.0, 9362.0, 8.152067184448242, -0.2063673734664917, 0.22753188014030457, 0.24998345971107483, -0.03005323000252247, 0.010509183630347252, 0.9991738200187683, -0.0536382719874382, -0.030637741088867188, 1.493408203125, 0.515625, 36.22950744628906, 1.4912109375
18022, -0.8083075881004333, -0.9344969391822815, 0.12070728838443756, 0.0018309431616216898, 0.0015735991764813662, 0.9156836867332458, 0.024304481223225594, 0.020927246659994125, 0.10954559594392776, -0.7978465557098389, -1.020155668258667, 0.07096754014492035, -0.22501067887425255, -0.9331188932790155, 3.587596080871775, 9362.0, 30146.0, 35388.0, 9362.0, 8.152067184448242, 0.05692113935947418, -0.09222236275672913, -0.3289852738380432, -0.030919522047042847, 0.010811898857355118, 1.0002869367599487, -0.05737088620662689, -0.07543754577636719, 1.48974609375, 1.760009765625, 0.8404998779296875, 1.490478515625
18032, -0.8084158897399902, -0.9346135854721069, 0.1187567487359047, 0.0020819862838834524, 0.0017898016376420856, 0.9167788624763489, 0.025904208421707153, 0.022313181310892105, 0.10949511080980301, -0.7978304624557495, -1.0201647281646729, 0.07096514105796814, -0.21923908865706493, -0.9322646532459942, 3.588554869335991, 9362.0, 30146.0, 35388.0, 9362.0, 8.152067184448242, 0.044882532209157944, -0.3140597641468048, -0.04527972266077995, -0.030582744628190994, 0.010892491787672043, 0.9992639422416687, -0.06264782696962357, -0.01271820068359375, 1.494873046875, 1.571044921875, 0.349578857421875, 1.49267578125
18042, -0.8081611394882202, -0.9338618516921997, 0.11910530179738998, 0.0023490143939852715, 0.0020198712591081858, 0.9178737998008728, 0.02750144712626934, 0.023700684309005737, 0.10949218273162842, -0.7978407144546509, -1.020156741142273, 0.07095599919557571, -0.2225507781915265, -0.9353410449077444, 3.583268414906002, 9362.0, 30146.0, 35388.0, 9362.0, 8.152067184448242, -0.1450735330581665, 0.36763742566108704, 0.23322252929210663, -0.03266403079032898, 0.008960435166954994, 1.00028657913208, -0.05756325647234917, 0.014162063598632812, 1.4970703125, 0.629150390625, 23.092926025390625, 1.4912109375
18052, -0.8080664277076721, -0.9340769052505493, 0.11791642010211945, 0.0026320097967982292, 0.0022638109512627125, 0.9189683198928833, 0.02909761667251587, 0.02508728951215744, 0.10941209644079208, -0.7978360652923584, -1.0201594829559326, 0.07096228748559952, -0.22607329469745152, -0.9306725079093496, 3.59256896488759, 9362.0, 30146.0, 35388.0, 9362.0, 8.152067184448242, -0.08563528209924698, 0.07962821424007416, 0.009298283606767654, -0.03127250447869301, 0.010760529898107052, 1.0001076459884644, -0.05296195298433304, -0.030637741088867188, 1.493408203125, 1.090576171875, 1.3882598876953125, 1.4912109375
18062, -0.8084189295768738, -0.9353758096694946, 0.11783643066883087, 0.002930970396846533, 0.0025216233916580677, 0.9200626611709595, 0.03069450706243515, 0.026475144550204277, 0.10945380479097366, -0.7978551387786865, -1.0201715230941772, 0.0709439218044281, -0.2262694503866076, -0.93316990676243, 3.586467801168211, 9362.0, 30146.0, 35388.0, 9362.0, 8.152067184448242, -0.12930411100387573, -0.09439001232385635, 0.11307112872600555, -0.03071472980082035, 0.008739177137613297, 0.996544361114502, -0.05365082621574402, -0.01271820068359375, 1.494873046875, 0.9521484375, 4.1992034912109375, 1.490478515625
18072, -0.8087332844734192, -0.9346596598625183, 0.11906080693006516, 0.003245883621275425, 0.0027932976372539997, 0.9211562871932983, 0.03228814899921417, 0.02785968780517578, 0.10927292704582214, -0.7978357076644897, -1.0201600790023804, 0.07096706330776215, -0.22273354970070344, -0.9309356274706033, 3.5758338906043194, 9362.0, 30146.0, 35388.0, 9362.0, 8.152067184448242, -0.27798861265182495, 0.20379003882408142, -0.03370106220245361, -0.03003060072660446, 0.00903638917952776, 0.9985758662223816, -0.050169769674539566, 0.0052013397216796875, 1.496337890625, 0.61669921875, 24.328094482421875, 1.493408203125
18082, -0.8078020215034485, -0.9374784231185913, 0.11779621243476868, 0.0035767334047704935, 0.0030788108706474304, 0.9222474694252014, 0.03388180583715439, 0.02924298122525215, 0.10895849019289017, -0.7978363633155823, -1.0201612710952759, 0.07095476239919662, -0.2228559234533091, -0.9341411964930444, 3.588019164182375, 9362.0, 30146.0, 35388.0, 9362.0, 8.152067184448242, 0.11869484931230545, 0.16243423521518707, -0.2894853353500366, -0.029584065079689026, 0.010104072280228138, 0.9988444447517395, -0.04782122001051903, 0.03208160400390625, 1.49853515625, 1.72998046875, 0.7509765625, 1.493408203125
18092, -0.8069788217544556, -0.9350427985191345, 0.11644567549228668, 0.003923527430742979, 0.0033781719394028187, 0.9233363270759583, 0.035477057099342346, 0.030629213899374008, 0.10881581157445908, -0.7978414297103882, -1.0201681852340698, 0.07097344845533371, -0.23100876936645032, -0.9327831539581553, 3.5836499704400477, 9362.0, 30146.0, 35388.0, 9362.0, 8.152067184448242, -0.16986145079135895, -0.12820857763290405, -0.04764006659388542, -0.03236064314842224, 0.009543015621602535, 1.000098705291748, -0.04392081871628761, 0.05000114440917969, 1.5, 1.78857421875, 0.9334259033203125, 1.49560546875
18102, -0.8069140911102295, -0.9344707727432251, 0.11671111732721329, 0.004286299925297499, 0.0036913887597620487, 0.92442387342453, 0.037077512592077255, 0.03201410546898842, 0.10869333893060684, -0.7978353500366211, -1.0201618671417236, 0.07096210867166519, -0.23032791539168035, -0.9328578413181674, 3.5899929239589206, 9362.0, 30146.0, 35388.0, 9362.0, 8.152067184448242, 0.129364013671875, 0.020756106823682785, 0.1953108012676239, -0.03447998687624931, 0.008875718340277672, 1.001200795173645, -0.04542361944913864, 0.10376167297363281, 1.50439453125, 1.412109375, 0.0526123046875, 1.487548828125
18112, -0.8068303465843201, -0.9345961809158325, 0.11651741713285446, 0.0046650730073452, 0.0040184613317251205, 0.9255111813545227, 0.03867705911397934, 0.03340042382478714, 0.10877173393964767, -0.7978438138961792, -1.020161747932434, 0.07095681130886078, -0.22751725629145292, -0.9344847369726494, 3.593934484098471, 9362.0, 30146.0, 35388.0, 9362.0, 8.152067184448242, -0.10425500571727753, 0.1703120768070221, -0.07719343900680542, -0.03038189746439457, 0.009504944086074829, 1.0002877712249756, -0.052594318985939026, -0.021678924560546875, 1.494140625, 1.365234375, 0.0175933837890625, 1.49267578125
18122, -0.8079493045806885, -0.9318385124206543, 0.11749769747257233, 0.005059830844402313, 0.004359391983598471, 0.9265989661216736, 0.040274519473314285, 0.03478566184639931, 0.10878204554319382, -0.7978344559669495, -1.0201621055603027, 0.07095503062009811, -0.22829352602146605, -0.9337848932104862, 3.584646674339557, 9362.0, 30146.0, 35388.0, 9362.0, 8.152067184448242, -0.2925366461277008, -0.4222775995731354, 0.019472554326057434, -0.030647488310933113, 0.009408215060830116, 1.0006165504455566, -0.04143557325005531, -0.030637741088867188, 1.493408203125, 1.500732421875, 0.1970977783203125, 1.493408203125
18132, -0.8078534007072449, -0.9309353232383728, 0.11511824280023575, 0.005470565985888243, 0.004714175593107939, 0.9276869297027588, 0.041872479021549225, 0.03617105633020401, 0.10881123691797256, -0.7978312373161316, -1.0201538801193237, 0.07096538692712784, -0.22927461332211638, -0.9248917632982625, 3.582428735030532, 9362.0, 30146.0, 35388.0, 9362.0, 8.152067184448242, 0.1994256228208542, 0.10497714579105377, -0.321771502494812, -0.0317264124751091, 0.008608273230493069, 0.9977586269378662, -0.05289357528090477, -0.04855918884277344, 1.491943359375, 0.81298828125, 9.679901123046875, 1.48828125
18142, -0.8074756860733032, -0.9335527420043945, 0.11747044324874878, 0.005897247698158026, 0.005082814488559961, 0.9287745952606201, 0.043463900685310364, 0.03755665570497513, 0.1087253987789154, -0.7978262901306152, -1.0201635360717773, 0.07094947248697281, -0.2289491953970847, -0.9364305562223194, 3.577325214267492, 9362.0, 30146.0, 35388.0, 9362.0, 8.152067184448242, 0.09778555482625961, 0.03192038834095001, 0.40584179759025574, -0.03362557664513588, 0.008904978632926941, 0.9975259900093079, -0.04200971499085426, -0.05751800537109375, 1.4912109375, 1.5849609375, 0.381805419921875, 1.49267578125
18152, -0.8070533275604248, -0.934209942817688, 0.1170392856001854, 0.006339819170534611, 0.005465293303132057, 0.9298603534698486, 0.04505034163594246, 0.038939218968153, 0.10843178629875183, -0.7978426814079285, -1.0201616287231445, 0.07095027714967728, -0.22223806421486983, -0.9327634737753954, 3.5858685997903152, 9362.0, 30146.0, 35388.0, 9362.0, 8.152067184448242, 0.09539928287267685, 0.1681717038154602, -0.05612608417868614, -0.03174617886543274, 0.00890600960701704, 0.999579906463623, -0.047088779509067535, 0.05000114440917969, 1.5, 1.358642578125, 0.0159912109375, 1.4912109375
18162, -0.8060523271560669, -0.9358443021774292, 0.1186133399605751, 0.006798283662647009, 0.005861600860953331, 0.9309436082839966, 0.04664256423711777, 0.040322259068489075, 0.10821745544672012, -0.7978396415710449, -1.0201547145843506, 0.07097657024860382, -0.22633708071765196, -0.9229300069753208, 3.58333859465822, 9362.0, 30146.0, 35388.0, 9362.0, 8.152067184448242, -0.03859029337763786, 0.17968125641345978, 0.16448254883289337, -0.03301331773400307, 0.009665245190262794, 0.9992349147796631, -0.04130798205733299, -0.12023735046386719, 1.486083984375, 1.0927734375, 1.3592987060546875, 1.490478515625
18172, -0.8055239915847778, -0.9374728798866272, 0.1173655241727829, 0.007272686343640089, 0.006271744146943092, 0.9320253729820251, 0.04823795706033707, 0.04170643165707588, 0.10813108086585999, -0.7978360056877136, -1.0201482772827148, 0.07097674906253815, -0.23162695688017493, -0.9251819249103903, 3.5909049426149404, 9362.0, 30146.0, 35388.0, 9362.0, 8.152067184448242, -0.25466635823249817, 0.09167417883872986, -0.025281161069869995, -0.031408581882715225, 0.008850202895700932, 1.0007904767990112, -0.040928494185209274, -0.04855918884277344, 1.491943359375, 1.65087890625, 0.5408935546875, 1.490478515625
18182, -0.8072175979614258, -0.9373631477355957, 0.118740975856781, 0.007763063535094261, 0.006695726420730352, 0.9331066608428955, 0.04983745515346527, 0.04308996722102165, 0.10812338441610336, -0.7978687882423401, -1.0201716423034668, 0.070985347032547, -0.23287218365351045, -0.9193124641543022, 3.5850144859105026, 9362.0, 30146.0, 35388.0, 9362.0, 8.152067184448242, -0.08855284750461578, -0.11445123702287674, 0.28737372159957886, -0.031301937997341156, 0.009855047799646854, 1.001230001449585, -0.04414369538426399, -0.13815879821777344, 1.484619140625, 1.03857421875, 2.2020111083984375, 1.494140625
18192, -0.8076142072677612, -0.9359500408172607, 0.11818400025367737, 0.008269456215202808, 0.007133544888347387, 0.9341882467269897, 0.05144105479121208, 0.044473797082901, 0.1081971675157547, -0.7978918552398682, -1.0201727151870728, 0.07101484388113022, -0.22870920122178723, -0.9223845453232116, 3.5892970348315982, 9362.0, 30146.0, 35388.0, 9362.0, 8.152067184448242, 0.027276840060949326, -0.0665731206536293, 0.1477188766002655, -0.03045753389596939, 0.009474731050431728, 0.9995331168174744, -0.04173029214143753, -0.03959846496582031, 1.49267578125, 1.742431640625, 0.7872772216796875, 1.496337890625
18212, -0.8084398508071899, -0.9388694167137146, 0.12041888386011124, 0.008791879750788212, 0.007585213519632816, 0.935270369052887, 0.05304374173283577, 0.04585988074541092, 0.10822652280330658, -0.7978888154029846, -1.0201834440231323, 0.07100921124219894, -0.22606739338841905, -0.9247196081315963, 3.5836158107533977, 9362.0, 30146.0, 35388.0, 9362.0, 8.152067184448242, -0.029082531109452248, 0.11363320052623749, 0.10987818986177444, -0.03045753389596939, 0.009474731050431728, 0.9995331168174744, -0.030107326805591583, 0.08584022521972656, 1.5029296875, 1.734375, 0.7635955810546875, 1.496337890625
18222, -0.8085251450538635, -0.9352242350578308, 0.12022005766630173, 0.008791879750788212, 0.007585213519632816, 0.935270369052887, 0.05304374173283577, 0.04585988074541092, 0.10822652280330658, -0.7978911995887756, -1.020187497138977, 0.07100962102413177, -0.22984912010339392, -0.9231295111385407, 3.588141765914587, 9362.0, 30146.0, 35388.0, 9362.0, 8.152067184448242, 0.06273334473371506, -0.027874581515789032, -0.06320852041244507, -0.03045753389596939, 0.009474731050431728, 0.9995331168174744, -0.04117283225059509, -0.14711761474609375, 1.48388671875, 1.734375, 0.7635955810546875, 1.496337890625
18232, -0.8087085485458374, -0.9338446259498596, 0.12012658268213272, 0.008791879750788212, 0.007585213519632816, 0.935270369052887, 0.05304374173283577, 0.04585988074541092, 0.10822652280330658, -0.7978981137275696, -1.020185112953186, 0.07101579010486603, -0.22743828314737533, -0.9203648049224, 3.591356522562907, 9362.0, 30146.0, 35388.0, 9362.0, 8.152067184448242, 0.05570589005947113, 0.1437610685825348, 0.14514121413230896, -0.0322020947933197, 0.007139479275792837, 0.9994621276855469, -0.04117283225059509, -0.14711761474609375, 1.48388671875, 1.734375, 0.7635955810546875, 1.496337890625
18252, -0.8080631494522095, -0.933815062046051, 0.12142717838287354, 0.011644013226032257, 0.010051462799310684, 0.9406764507293701, 0.061040494590997696, 0.05279448628425598, 0.1081448644399643, -0.7978971004486084, -1.0201772451400757, 0.07102378457784653, -0.22860771743601105, -0.927095111532168, 3.587015554965741, 9362.0, 30146.0, 35388.0, 9362.0, 8.152067184448242, -0.030303655192255974, -0.07949219644069672, -0.07042038440704346, -0.0322020947933197, 0.007139479275792837, 0.9994621276855469, -0.056847188621759415, -0.030637741088867188, 1.493408203125, 1.734375, 0.7635955810546875, 1.496337890625
18262, -0.8077174425125122, -0.9334158301353455, 0.12113941460847855, 0.011644013226032257, 0.010051462799310684, 0.9406764507293701, 0.061040494590997696, 0.05279448628425598, 0.1081448644399643, -0.7978782653808594, -1.0201690196990967, 0.07098529487848282, -0.2256088133296142, -0.9307001974516425, 3.5943635469540913, 9362.0, 30146.0, 35388.0, 9362.0, 8.152067184448242, 0.03372401371598244, -0.111285001039505, 0.17296883463859558, -0.0322020947933197, 0.007139479275792837, 0.9994621276855469, -0.056847188621759415, -0.030637741088867188, 1.493408203125, 1.734375, 0.7635955810546875, 1.496337890625
18282, -0.8077543377876282, -0.9336866140365601, 0.12140563130378723, 0.011644013226032257, 0.010051462799310684, 0.9406764507293701, 0.061040494590997696, 0.05279448628425598, 0.1081448644399643, -0.7978776693344116, -1.0201772451400757, 0.07098155468702316, -0.229965299912892, -0.9271638422879391, 3.5962366395484975, 9362.0, 30146.0, 35388.0, 9362.0, 8.152067184448242, -0.1797875612974167, -0.044971827417612076, -0.0964675173163414, -0.0322020947933197, 0.007139479275792837, 0.9994621276855469, -0.04393761605024338, -0.03959846496582031, 1.49267578125, 1.734375, 0.7635955810546875, 1.496337890625
18292, -0.8071109652519226, -0.9348101615905762, 0.12140747159719467, 0.011644013226032257, 0.010051462799310684, 0.9406764507293701, 0.061040494590997696, 0.05279448628425598, 0.1081448644399643, -0.7978780269622803, -1.0201810598373413, 0.07098034769296646, -0.2250100501969668, -0.9190095470813731, 3.5995878811252298, 9362.0, 30146.0, 35388.0, 9362.0, 8.152067184448242, 0.015190953388810158, 0.46136340498924255, 0.013772844336926937, -0.0322020947933197, 0.007139479275792837, 0.9994621276855469, -0.04393761605024338, -0.03959846496582031, 1.49267578125, 1.734375, 0.7635955810546875, 1.496337890625
18322, -0.8070130348205566, -0.9335858225822449, 0.12079913169145584, 0.015593483112752438, 0.013468700461089611, 0.9471588730812073, 0.0706072449684143, 0.061109766364097595, 0.10773097723722458, -0.7978650331497192, -1.0201728343963623, 0.07090777903795242, -0.24298574895583963, -0.9326823934160586, 3.5914424593073666, 9362.0, 30146.0, 35388.0, 9362.0, 8.152067184448242, -0.002196514280512929, -0.16202767193317413, -0.28885504603385925, -0.030286692082881927, 0.010457394644618034, 1.0013688802719116, -0.05087481066584587, -0.0037593841552734375, 1.49560546875, 1.734375, 0.7635955810546875, 1.496337890625
18332, -0.8077253103256226, -0.933123767375946, 0.11900867521762848, 0.015593483112752438, 0.013468700461089611, 0.9471588730812073, 0.0706072449684143, 0.061109766364097595, 0.10773097723722458, -0.7978793382644653, -1.020175576210022, 0.07099658250808716, -0.2323159607210286, -0.9251231416361918, 3.59424435421592, 9362.0, 30146.0, 35388.0, 9362.0, 8.152067184448242, -0.11626273393630981, 0.19362135231494904, 0.19487272202968597, -0.030286692082881927, 0.010457394644618034, 1.0013688802719116, -0.05087481066584587, -0.0037593841552734375, 1.49560546875, 1.734375, 0.7635955810546875, 1.496337890625
18352, -0.8076696991920471, -0.9310098886489868, 0.11745189875364304, 0.015593483112752438, 0.013468700461089611, 0.9471588730812073, 0.0706072449684143, 0.061109766364097595, 0.10773097723722458, -0.797885000705719, -1.0201691389083862, 0.07099267840385437, -0.23153836623167975, -0.9269152808273589, 3.5909751483863976, 9362.0, 30146.0, 35388.0, 9362.0, 8.152067184448242, 0.06433390825986862, -0.230596661567688, -0.14347286522388458, -0.03377021849155426, 0.008806195110082626, 0.9986651539802551, -0.04311500862240791, -0.08439826965332031, 1.489013671875, 1.734375, 0.7635955810546875, 1.496337890625
18402, -0.8072254657745361, -0.9281511306762695, 0.11918776482343674, 0.022594735026359558, 0.01952967420220375, 0.956852912902832, 0.08494237065315247, 0.0735747441649437, 0.10738631337881088, -0.7978830933570862, -1.0201748609542847, 0.07098384946584702, -0.223529152832723, -0.9243218449988717, 3.587830334734846, 9362.0, 30146.0, 35388.0, 9362.0, 8.152067184448242, -0.07199293375015259, -0.12294948101043701, -0.12057814002037048, -0.031676728278398514, 0.00912664458155632, 0.9995022416114807, -0.032435521483421326, -0.03959846496582031, 1.49267578125, 1.734375, 0.7635955810546875, 1.496337890625
18412, -0.8070457577705383, -0.9276164770126343, 0.11921108514070511, 0.022594735026359558, 0.01952967420220375, 0.956852912902832, 0.08494237065315247, 0.0735747441649437, 0.10738631337881088, -0.7978841662406921, -1.0201886892318726, 0.07095286250114441, -0.222066363762749, -0.9355988737932535, 3.5799928609318656, 9362.0, 30146.0, 35388.0, 9362.0, 8.152067184448242, -0.13364022970199585, 0.2329404056072235, 0.01873786933720112, -0.031676728278398514, 0.00912664458155632, 0.9995022416114807, -0.039101213216781616, -0.3352775573730469, 1.468505859375, 1.734375, 0.7635955810546875, 1.496337890625
18422, -0.8075307607650757, -0.927159309387207, 0.11842634528875351, 0.022594735026359558, 0.01952967420220375, 0.956852912902832, 0.08494237065315247, 0.0735747441649437, 0.10738631337881088, -0.7978832721710205, -1.0201873779296875, 0.07096769660711288, -0.22797887384114845, -0.9267375728975651, 3.5869233502620395, 9362.0, 30146.0, 35388.0, 9362.0, 8.152067184448242, -0.03713178634643555, 0.02174093760550022, -0.23184077441692352, -0.031676728278398514, 0.00912664458155632, 0.9995022416114807, -0.03956778720021248, -0.20087814331054688, 1.4794921875, 1.734375, 0.7635955810546875, 1.496337890625
18432, -0.8078316450119019, -0.9270346164703369, 0.1178496778011322, 0.02521430142223835, 0.021799135953187943, 0.9600671529769897, 0.08969444036483765, 0.07772374153137207, 0.10692601650953293, -0.7978726029396057, -1.020186185836792, 0.07095246016979218, -0.22833040148204392, -0.9375480493833379, 3.5889011428315625, 9362.0, 30146.0, 35388.0, 9362.0, 8.152067184448242, -0.0223311148583889, 0.035793352872133255, -0.27599021792411804, -0.031676728278398514, 0.00912664458155632, 0.9995022416114807, -0.03904597833752632, 0.014162063598632812, 1.4970703125, 1.734375, 0.7635955810546875, 1.496337890625
18442, -0.8077375888824463, -0.9275890588760376, 0.11954119056463242, 0.02521430142223835, 0.021799135953187943, 0.9600671529769897, 0.08969444036483765, 0.07772374153137207, 0.10692601650953293, -0.7978692650794983, -1.0201746225357056, 0.07094192504882812, -0.22115588849942872, -0.9290047885951367, 3.590494531587398, 9362.0, 30146.0, 35388.0, 9362.0, 8.152067184448242, 0.13339854776859283, -0.12104760110378265, 0.2970762252807617, -0.031676728278398514, 0.00912664458155632, 0.9995022416114807, -0.19227340817451477, -5.953173637390137, 1.00927734375, 1.734375, 0.7635955810546875, 1.496337890625
18452, -0.8069974780082703, -0.9263487458229065, 0.12013501673936844, 0.02521430142223835, 0.021799135953187943, 0.9600671529769897, 0.08969444036483765, 0.07772374153137207, 0.10692601650953293, -0.7978742122650146, -1.0201835632324219, 0.07095874845981598, -0.2258499276148562, -0.9270981332121266, 3.5896630687120803, 9362.0, 30146.0, 35388.0, 9362.0, 8.152067184448242, 0.08622417598962784, 0.17736877501010895, -0.106344074010849, -0.031676728278398514, 0.00912664458155632, 0.9995022416114807, -0.16181594133377075, -0.0037593841552734375, 1.49560546875, 1.734375, 0.7635955810546875, 1.496337890625
18492, -0.8069470524787903, -0.9237744808197021, 0.11706867814064026, 0.02989698015153408, 0.025858504697680473, 0.9654064774513245, 0.0976065844297409, 0.08464626967906952, 0.10639834403991699, -0.7978735566139221, -1.0201821327209473, 0.07094992697238922, -0.23114025078158948, -0.9366382288019679, 3.58588743897782, 9362.0, 30146.0, 35388.0, 9362.0, 8.152067184448242, 0.07323083281517029, 0.06524156033992767, 0.05729718506336212, -0.031138679012656212, 0.01028685737401247, 0.9989241361618042, -0.10859577357769012, 0.07688140869140625, 1.502197265625, 1.734375, 0.7635955810546875, 1.496337890625
18532, -0.8065597414970398, -0.9246799349784851, 0.12319789081811905, 0.03497476503252983, 0.03026367351412773, 0.9707084894180298, 0.1055072695016861, 0.09156141430139542, 0.10571401566267014, -0.7978678941726685, -1.02017080783844, 0.07097695022821426, -0.22145389568161214, -0.9257657137314652, 3.601572548748998, 9362.0, 30146.0, 35388.0, 9362.0, 8.152067184448242, -0.1845361590385437, 0.07874967902898788, 0.09938882291316986, -0.031948402523994446, 0.01147439144551754, 0.9984673857688904, -0.07853137701749802, -0.09335899353027344, 1.48828125, 1.734375, 0.7635955810546875, 1.496337890625
18562, -0.8075712323188782, -0.9239810109138489, 0.12207169830799103, 0.0382111594080925, 0.033072832971811295, 0.9738807678222656, 0.11024858057498932, 0.0957193449139595, 0.10588649660348892, -0.7978560328483582, -1.0201858282089233, 0.07093388587236404, -0.22624666135640234, -0.9256293943749654, 3.5765278380834915, 9362.0, 30146.0, 35388.0, 9362.0, 8.152067184448242, 0.045013427734375, 0.2937900722026825, -0.013434545136988163, -0.030580822378396988, 0.009868507273495197, 1.0035737752914429, -0.06680204719305038, 0.04104042053222656, 1.499267578125, 1.734375, 0.7635955810546875, 1.496337890625
18582, -0.8084976673126221, -0.9183104634284973, 0.12029906362295151, 0.040447771549224854, 0.03501502424478531, 0.9760036468505859, 0.11341235786676407, 0.09849867224693298, 0.10633295029401779, -0.7978325486183167, -1.0201665163040161, 0.07096849381923676, -0.20475093674209455, -0.9346512149759008, 3.5748935331335026, 9362.0, 30146.0, 35388.0, 9362.0, 8.152067184448242, -0.061951834708452225, -0.1580209881067276, 0.08347190916538239, -0.030580822378396988, 0.009868507273495197, 1.0035737752914429, -0.054396335035562515, -0.0037593841552734375, 1.49560546875, 1.734375, 0.7635955810546875, 1.496337890625
18602, -0.8084563612937927, -0.9149907827377319, 0.12019998580217361, 0.042747389525175095, 0.03701268881559372, 0.9781272411346436, 0.11654990166425705, 0.10127002745866776, 0.10611981153488159, -0.7978428602218628, -1.0201815366744995, 0.0709136351943016, -0.21624789515919146, -0.9320703782630346, 3.574967717753299, 9362.0, 30146.0, 35388.0, 9362.0, 8.152067184448242, -0.05218956246972084, 0.3018650710582733, -0.17537134885787964, -0.0305310245603323, 0.009218943305313587, 1.0002481937408447, -0.05576973780989647, -0.07543754577636719, 1.48974609375, 1.734375, 0.7635955810546875, 1.496337890625
18652, -0.8092319369316101, -0.9124202728271484, 0.11946317553520203, 0.046314336359500885, 0.04011321812868118, 0.9813104271888733, 0.12123973667621613, 0.10543182492256165, 0.1061118021607399, -0.7978431582450867, -1.0201809406280518, 0.07093686610460281, -0.2183648232926523, -0.9315689808732373, 3.577487391336698, 9362.0, 30146.0, 35388.0, 9362.0, 8.152067184448242, -0.09326260536909103, -0.17868584394454956, -0.15740343928337097, -0.031851451843976974, 0.00921537820249796, 1.0002291202545166, -0.05319298058748245, -0.07543754577636719, 1.48974609375, 1.734375, 0.7635955810546875, 1.496337890625
18702, -0.8082762360572815, -0.9091305732727051, 0.11806229501962662, 0.05518312379717827, 0.047833383083343506, 0.9887388348579407, 0.13214866816997528, 0.11515137553215027, 0.10627920180559158, -0.7978450059890747, -1.0201822519302368, 0.07091508060693741, -0.21140399627981465, -0.9338587668748914, 3.570402052762497, 9362.0, 30146.0, 35388.0, 9362.0, 8.152067184448242, -0.09257224947214127, -0.020194556564092636, 0.12912258505821228, -0.03302909433841705, 0.00984648335725069, 1.0011876821517944, -0.05136827006936073, -0.2635974884033203, 1.474365234375, 1.734375, 0.7635955810546875, 1.496337890625
18722, -0.8075112104415894, -0.9070529341697693, 0.11710832267999649, 0.05518312379717827, 0.047833383083343506, 0.9887388348579407, 0.13214866816997528, 0.11515137553215027, 0.10627920180559158, -0.7978489995002747, -1.0201935768127441, 0.07091453671455383, -0.21805867469400939, -0.9304604076426983, 3.5797641090292633, 9362.0, 30146.0, 35388.0, 9362.0, 8.152067184448242, -0.14802227914333344, -0.3339403569698334, 0.04043357074260712, -0.032506249845027924, 0.011015711352229118, 0.9995991587638855, -0.05477496609091759, -0.01271820068359375, 1.494873046875, 1.734375, 0.7635955810546875, 1.496337890625
18732, -0.8090627193450928, -0.9093219041824341, 0.1209450513124466, 0.05518312379717827, 0.047833383083343506, 0.9887388348579407, 0.13214866816997528, 0.11515137553215027, 0.10627920180559158, -0.7978556156158447, -1.020180344581604, 0.07093048840761185, -0.21622689952783217, -0.9358326062011031, 3.582123040784128, 9362.0, 30146.0, 35388.0, 9362.0, 8.152067184448242, -0.051830634474754333, 0.4463680684566498, 0.3926190137863159, -0.032506249845027924, 0.011015711352229118, 0.9995991587638855, -0.05477496609091759, -0.01271820068359375, 1.494873046875, 1.734375, 0.7635955810546875, 1.496337890625
18752, -0.8093438148498535, -0.910900354385376, 0.12087888270616531, 0.05518312379717827, 0.047833383083343506, 0.9887388348579407, 0.13214866816997528, 0.11515137553215027, 0.10627920180559158, -0.7978339195251465, -1.0201842784881592, 0.0709255114197731, -0.22121006258051665, -0.9303032790294878, 3.5926151580876176, 9362.0, 30146.0, 35388.0, 9362.0, 8.152067184448242, -0.051830634474754333, 0.4463680684566498, 0.3926190137863159, -0.03047904185950756, 0.009389533661305904, 1.000207543373108, -0.04377502202987671, -0.20087814331054688, 1.4794921875, 1.734375, 0.7635955810546875, 1.496337890625
18782, -0.8102518916130066, -0.9115018248558044, 0.12261629849672318, 0.06625198572874069, 0.05748933181166649, 0.9972255229949951, 0.14457590878009796, 0.12624436616897583, 0.1054452657699585, -0.797838568687439, -1.0201646089553833, 0.07093556225299835, -0.21304824205537815, -0.9265077655290099, 3.5866579472646367, 9362.0, 30146.0, 35388.0, 9362.0, 8.152067184448242, -0.1340247541666031, -0.1895575374364853, -0.008597786538302898, -0.03047904185950756, 0.009389533661305904, 1.000207543373108, -0.03293904662132263, -0.24567794799804688, 1.475830078125, 1.734375, 0.7635955810546875, 1.496337890625
18792, -0.8095256090164185, -0.9095913171768188, 0.12206047773361206, 0.06625198572874069, 0.05748933181166649, 0.9972255229949951, 0.14457590878009796, 0.12624436616897583, 0.1054452657699585, -0.7978434562683105, -1.0201678276062012, 0.07094542682170868, -0.21137768878242527, -0.9277593035542964, 3.585568282204776, 9362.0, 30146.0, 35388.0, 9362.0, 8.152067184448242, 0.10841307044029236, -0.022767160087823868, -0.10156869888305664, -0.03047904185950756, 0.009389533661305904, 1.000207543373108, -0.03293904662132263, -0.24567794799804688, 1.475830078125, 1.734375, 0.7635955810546875, 1.496337890625
18832, -0.8091691136360168, -0.9143459796905518, 0.12820735573768616, 0.07367546111345291, 0.06397522985935211, 1.0024919509887695, 0.15236487984657288, 0.13319356739521027, 0.10550086945295334, -0.7978655695915222, -1.0201672315597534, 0.0709538459777832, -0.20323530028410314, -0.9356035928409199, 3.6061153246759443, 9362.0, 30146.0, 35388.0, 9362.0, 8.152067184448242, 0.0933932363986969, -0.21522527933120728, 0.2522878348827362, -0.029421508312225342, 0.009211547672748566, 1.0007494688034058, -0.02490200288593769, -0.12023735046386719, 1.486083984375, 1.734375, 0.7635955810546875, 1.496337890625
18842, -0.8081449270248413, -0.9124084115028381, 0.1305759847164154, 0.07367546111345291, 0.06397522985935211, 1.0024919509887695, 0.15236487984657288, 0.13319356739521027, 0.10550086945295334, -0.797842264175415, -1.0201756954193115, 0.07092494517564774, -0.2080041697557098, -0.937626183084916, 3.588180487274076, 9362.0, 30146.0, 35388.0, 9362.0, 8.152067184448242, 0.0933932363986969, -0.21522527933120728, 0.2522878348827362, -0.03355398029088974, 0.011739916168153286, 1.0002511739730835, -0.02490200288593769, -0.12023735046386719, 1.486083984375, 1.734375, 0.7635955810546875, 1.496337890625
18862, -0.8075088262557983, -0.9125286936759949, 0.1331314742565155, 0.07831669598817825, 0.06803356856107712, 1.0056599378585815, 0.15704797208309174, 0.13736020028591156, 0.10559108853340149, -0.7978567481040955, -1.0202040672302246, 0.07094937562942505, -0.21711792221618184, -0.9255871696621227, 3.5803407671007155, 9362.0, 30146.0, 35388.0, 9362.0, 8.152067184448242, -0.12720248103141785, -0.05369916558265686, 0.09689811617136002, -0.03355398029088974, 0.011739916168153286, 1.0002511739730835, -0.04475031793117523, -0.28151702880859375, 1.472900390625, 1.734375, 0.7635955810546875, 1.496337890625
18882, -0.8098493218421936, -0.9110777378082275, 0.13653501868247986, 0.07831669598817825, 0.06803356856107712, 1.0056599378585815, 0.15704797208309174, 0.13736020028591156, 0.10559108853340149, -0.7978229522705078, -1.0201818943023682, 0.07094446569681168, -0.21810699650510584, -0.9396324920800794, 3.5876700312899397, 9362.0, 30146.0, 35388.0, 9362.0, 8.152067184448242, -0.12720248103141785, -0.05369916558265686, 0.09689811617136002, -0.029860656708478928, 0.009502158500254154, 0.9989405870437622, -0.05138639360666275, -0.01271820068359375, 1.494873046875, 1.734375, 0.7635955810546875, 1.496337890625
18912, -0.8096328973770142, -0.9105793237686157, 0.13929322361946106, 0.08636382222175598, 0.07507485151290894, 1.0109294652938843, 0.16483400762081146, 0.14429552853107452, 0.10512776672840118, -0.7978532314300537, -1.0201550722122192, 0.07093767076730728, -0.2341565035644474, -0.9345690525432531, 3.589116173696908, 9362.0, 30146.0, 35388.0, 9362.0, 8.152067184448242, -0.20213040709495544, -0.11818857491016388, 0.07802093774080276, -0.03362753614783287, 0.008785853162407875, 0.9989546537399292, -0.04189750924706459, -0.04855918884277344, 1.491943359375, 1.734375, 0.7635955810546875, 1.496337890625
18922, -0.8094688057899475, -0.9112091660499573, 0.14037084579467773, 0.08636382222175598, 0.07507485151290894, 1.0109294652938843, 0.16483400762081146, 0.14429552853107452, 0.10512776672840118, -0.797837495803833, -1.0201557874679565, 0.07093255966901779, -0.23689232483872388, -0.9398262285502597, 3.5925827502434724, 9362.0, 30146.0, 35388.0, 9362.0, 8.152067184448242, -0.0019524748204275966, -0.23920947313308716, 0.06676392257213593, -0.03362753614783287, 0.008785853162407875, 0.9989546537399292, -0.04888608306646347, -0.10231781005859375, 1.487548828125, 1.734375, 0.7635955810546875, 1.496337890625
18932, -0.8097862601280212, -0.9096201062202454, 0.14194174110889435, 0.08636382222175598, 0.07507485151290894, 1.0109294652938843, 0.16483400762081146, 0.14429552853107452, 0.10512776672840118, -0.7978367209434509, -1.020155906677246, 0.07091443985700607, -0.23240798789572545, -0.9444108944288132, 3.5850719150153303, 9362.0, 30146.0, 35388.0, 9362.0, 8.152067184448242, 0.0601576566696167, -0.1743641197681427, 0.14259570837020874, -0.03362753614783287, 0.008785853162407875, 0.9989546537399292, -0.04014217481017113, -0.09335899353027344, 1.48828125, 1.734375, 0.7635955810546875, 1.496337890625
18952, -0.8081207275390625, -0.9086989760398865, 0.14174632728099823, 0.08636382222175598, 0.07507485151290894, 1.0109294652938843, 0.16483400762081146, 0.14429552853107452, 0.10512776672840118, -0.7978507280349731, -1.0201464891433716, 0.07089275866746902, -0.23081273166003233, -0.9526808404720555, 3.5805027600788675, 9362.0, 30146.0, 35388.0, 9362.0, 8.152067184448242, 0.0601576566696167, -0.1743641197681427, 0.14259570837020874, -0.030245931819081306, 0.009318944998085499, 0.9982767701148987, -0.030666621401906013, 0.0052013397216796875, 1.496337890625, 1.734375, 0.7635955810546875, 1.496337890625
18962, -0.8078337907791138, -0.905958354473114, 0.13948188722133636, 0.09479998052120209, 0.08246321976184845, 1.016176462173462, 0.17260698974132538, 0.15123926103115082, 0.10473845154047012, -0.7978510856628418, -1.02016019821167, 0.07088334858417511, -0.23104259074693848, -0.9470349513235305, 3.5805357435011698, 9362.0, 30146.0, 35388.0, 9362.0, 8.152067184448242, 0.07184240221977234, -0.34002265334129333, -0.26111459732055664, -0.030642608180642128, 0.010241360403597355, 0.9999169707298279, -0.030666621401906013, 0.0052013397216796875, 1.496337890625, 1.734375, 0.7635955810546875, 1.496337890625
19032, -0.8104653358459473, -0.8986755609512329, 0.14183396100997925, 0.10726117342710495, 0.09338980168104172, 1.0234934091567993, 0.1834135204553604, 0.1609550267457962, 0.10446710884571075, -0.7978742122650146, -1.0200916528701782, 0.07077622413635254, -0.22302014222809952, -0.9708529227021074, 3.6147808688640257, 9362.0, 30146.0, 35388.0, 9362.0, 8.152067184448242, -0.06865507364273071, -0.03237749636173248, 0.14557653665542603, -0.03125443682074547, 0.010056963190436363, 1.0003066062927246, -0.046667467802762985, -0.04855918884277344, 1.491943359375, 1.734375, 0.7635955810546875, 1.496337890625
19042, -0.8102869987487793, -0.8983839154243469, 0.14104579389095306, 0.10726117342710495, 0.09338980168104172, 1.0234934091567993, 0.1834135204553604, 0.1609550267457962, 0.10446710884571075, -0.7978993058204651, -1.0200817584991455, 0.07077953964471817, -0.2134126553082922, -0.9729395874614113, 3.6368980920779332, 9362.0, 30146.0, 35388.0, 9362.0, 8.152067184448242, 0.06633671373128891, 0.1493859440088272, 0.195872962474823, -0.03125443682074547, 0.010056963190436363, 1.0003066062927246, -0.0398220457136631, 0.09480094909667969, 1.503662109375, 1.734375, 0.7635955810546875, 1.496337890625
19082, -0.8090104460716248, -0.8971896171569824, 0.13950897753238678, 0.11472059786319733, 0.09993928670883179, 1.0276728868484497, 0.1895570605993271, 0.16652019321918488, 0.10452607274055481, -0.7978903651237488, -1.020055890083313, 0.07075835019350052, -0.22971036660911429, -0.9863877240766499, 3.6281707469847717, 9362.0, 30146.0, 35388.0, 9362.0, 8.152067184448242, -0.11903391778469086, -0.25759926438331604, 0.08109962940216064, -0.03125443682074547, 0.010056963190436363, 1.0003066062927246, -0.05837380886077881, -0.08439826965332031, 1.489013671875, 1.734375, 0.7635955810546875, 1.496337890625
19092, -0.8087876439094543, -0.8957923054695129, 0.1383778601884842, 0.11854240298271179, 0.10329747945070267, 1.0297616720199585, 0.19262368977069855, 0.1692984700202942, 0.10433652997016907, -0.7978899478912354, -1.0200663805007935, 0.07075842469930649, -0.230915229589258, -0.9838117644460738, 3.6387073988261065, 9362.0, 30146.0, 35388.0, 9362.0, 8.152067184448242, 0.1079677939414978, -0.27165400981903076, -0.3166154623031616, -0.02969507686793804, 0.009390833787620068, 0.9991475343704224, -0.05837380886077881, -0.08439826965332031, 1.489013671875, 1.734375, 0.7635955810546875, 1.496337890625
19132, -0.8086140155792236, -0.8946452140808105, 0.14324244856834412, 0.12636975944042206, 0.11018042266368866, 1.0339274406433105, 0.19874246418476105, 0.1748482584953308, 0.10397694259881973, -0.7978837490081787, -1.020112156867981, 0.0708264485001564, -0.22499827188369556, -0.9680399825114421, 3.618332812039173, 9362.0, 30146.0, 35388.0, 9362.0, 8.152067184448242, 0.04125180467963219, 0.04401375725865364, 0.27998852729797363, -0.029441822320222855, 0.010487946681678295, 0.9999210834503174, -0.05530475452542305, -0.03959846496582031, 1.49267578125, 1.734375, 0.7635955810546875, 1.496337890625
19142, -0.8068667054176331, -0.8944204449653625, 0.14532868564128876, 0.12636975944042206, 0.11018042266368866, 1.0339274406433105, 0.19874246418476105, 0.1748482584953308, 0.10397694259881973, -0.797880232334137, -1.020111322402954, 0.07081816345453262, -0.22626870985926748, -0.9708835001050602, 3.6261079743267928, 9362.0, 30146.0, 35388.0, 9362.0, 8.152067184448242, 0.33167868852615356, -0.10225343704223633, -0.25214409828186035, -0.029441822320222855, 0.010487946681678295, 0.9999210834503174, -0.03510211780667305, 0.023120880126953125, 1.497802734375, 1.734375, 0.7635955810546875, 1.496337890625
19182, -0.8094378709793091, -0.899010181427002, 0.15594762563705444, 0.13444167375564575, 0.11728528887033463, 1.0380789041519165, 0.2048541158437729, 0.18039274215698242, 0.10366090387105942, -0.7978764772415161, -1.0201083421707153, 0.07085521519184113, -0.22333007620060177, -0.9548342174564937, 3.624198178663595, 9362.0, 30146.0, 35388.0, 9362.0, 8.152067184448242, -0.288226842880249, 0.011286977678537369, 0.7561889290809631, -0.028401192277669907, 0.00915574375540018, 0.9991431832313538, -0.0612247996032238, 0.05000114440917969, 1.5, 1.734375, 0.7635955810546875, 1.496337890625
19192, -0.810796856880188, -0.8992896676063538, 0.15730604529380798, 0.13444167375564575, 0.11728528887033463, 1.0380789041519165, 0.2048541158437729, 0.18039274215698242, 0.10366090387105942, -0.7978711128234863, -1.0201072692871094, 0.07085271924734116, -0.22498655717377755, -0.9498319786541458, 3.6302675997754554, 9362.0, 30146.0, 35388.0, 9362.0, 8.152067184448242, 0.013193119317293167, -0.4508645832538605, 0.1371011883020401, -0.028401192277669907, 0.00915574375540018, 0.9991431832313538, -0.0612247996032238, 0.05000114440917969, 1.5, 1.734375, 0.7635955810546875, 1.496337890625
19242, -0.8109757304191589, -0.9039523005485535, 0.16606049239635468, 0.14915649592876434, 0.130252867937088, 1.0452970266342163, 0.21558374166488647, 0.1901133805513382, 0.10253510624170303, -0.7978493571281433, -1.0201845169067383, 0.07093977928161621, -0.22432030392221233, -0.9228762693499846, 3.589209758166805, 9362.0, 30146.0, 35388.0, 9362.0, 8.152067184448242, -5.292376226861961e-05, -0.25214633345603943, -0.013763478957116604, -0.031558528542518616, 0.0076483809389173985, 0.9976208209991455, -0.059618040919303894, -0.1739978790283203, 1.481689453125, 1.734375, 0.7635955810546875, 1.496337890625
19252, -0.8098578453063965, -0.9040327072143555, 0.1656748354434967, 0.14915649592876434, 0.130252867937088, 1.0452970266342163, 0.21558374166488647, 0.1901133805513382, 0.10253510624170303, -0.7978177070617676, -1.0201733112335205, 0.07094503194093704, -0.2293525411308249, -0.9362760257942568, 3.585321025968188, 9362.0, 30146.0, 35388.0, 9362.0, 8.152067184448242, 0.016012834385037422, -0.0727192610502243, 0.04388347268104553, -0.031558528542518616, 0.0076483809389173985, 0.9976208209991455, -0.050885435193777084, 0.04104042053222656, 1.499267578125, 1.734375, 0.7635955810546875, 1.496337890625
19262, -0.8105946779251099, -0.9019092321395874, 0.16615404188632965, 0.14915649592876434, 0.130252867937088, 1.0452970266342163, 0.21558374166488647, 0.1901133805513382, 0.10253510624170303, -0.7978375554084778, -1.0201696157455444, 0.07092073559761047, -0.22643099955703166, -0.9351855875198964, 3.584248533491759, 9362.0, 30146.0, 35388.0, 9362.0, 8.152067184448242, 0.016012834385037422, -0.0727192610502243, 0.04388347268104553, -0.033856794238090515, 0.009473461657762527, 0.9981377124786377, -0.050885435193777084, 0.04104042053222656, 1.499267578125, 1.734375, 0.7635955810546875, 1.496337890625
19272, -0.8104164004325867, -0.9031355977058411, 0.16440661251544952, 0.14915649592876434, 0.130252867937088, 1.0452970266342163, 0.21558374166488647, 0.1901133805513382, 0.10253510624170303, -0.7978596091270447, -1.0202282667160034, 0.07105126976966858, -0.2787550422631795, -0.9995103536736849, 3.574604589121972, 9362.0, 30146.0, 35388.0, 9362.0, 8.152067184448242, -0.0179061908274889, -0.06284692138433456, 0.03860573470592499, -0.033856794238090515, 0.009473461657762527, 0.9981377124786377, -0.032595109194517136, 0.1396007537841797, 1.50732421875, 1.734375, 0.7635955810546875, 1.496337890625
19282, -0.8106962442398071, -0.9021942019462585, 0.1638454645872116, 0.14915649592876434, 0.130252867937088, 1.0452970266342163, 0.21558374166488647, 0.1901133805513382, 0.10253510624170303, -0.7978817820549011, -1.0202211141586304, 0.07106228917837143, -0.2789790393368798, -0.9701000915971463, 3.5800002774578736, 9362.0, 30146.0, 35388.0, 9362.0, 8.152067184448242, 0.07463224977254868, -0.3819868862628937, -0.2775905430316925, -0.033856794238090515, 0.009473461657762527, 0.9981377124786377, -0.04642808064818382, -0.24567794799804688, 1.475830078125, 1.734375, 0.7635955810546875, 1.496337890625
19292, -0.8104810118675232, -0.8988696932792664, 0.16162705421447754, 0.14915649592876434, 0.130252867937088, 1.0452970266342163, 0.21558374166488647, 0.1901133805513382, 0.10253510624170303, -0.7978522777557373, -1.0202196836471558, 0.07103975862264633, -0.27710277244126524, -0.9933868866543776, 3.5678495785122295, 9362.0, 30146.0, 35388.0, 9362.0, 8.152067184448242, -0.18258674442768097, -0.003315211972221732, 0.0852304995059967, -0.03236587718129158, 0.009142165072262287, 0.9987133145332336, -0.04642808064818382, -0.24567794799804688, 1.475830078125, 1.734375, 0.7635955810546875, 1.496337890625
19322, -0.8088687658309937, -0.8946720957756042, 0.15270736813545227, 0.16462492942810059, 0.14390155673027039, 1.0524460077285767, 0.2263624519109726, 0.19984935224056244, 0.10175611823797226, -0.7978677153587341, -1.0202298164367676, 0.07105336338281631, -0.2864031270744096, -0.9949608886173849, 3.564248975773189, 9362.0, 30146.0, 35388.0, 9362.0, 8.152067184448242, -0.049861036241054535, 0.08407752960920334, -0.33860400319099426, -0.030702408403158188, 0.009008991532027721, 1.00068199634552, -0.033754583448171616, 0.15752029418945312, 1.5087890625, 1.734375, 0.7635955810546875, 1.496337890625
19352, -0.8094866871833801, -0.8935348391532898, 0.14000213146209717, 0.17380182445049286, 0.15200687944889069, 1.0565210580825806, 0.23247933387756348, 0.20541447401046753, 0.10209159553050995, -0.7978374361991882, -1.0202637910842896, 0.07109442353248596, -0.2968289946184714, -0.981855533122939, 3.5189828131770415, 9362.0, 30146.0, 35388.0, 9362.0, 8.152067184448242, -0.022935185581445694, 0.33325713872909546, -0.470289021730423, -0.0324629470705986, 0.009887967258691788, 1.0011420249938965, -0.04554632306098938, -0.1739978790283203, 1.481689453125, 1.734375, 0.7635955810546875, 1.496337890625
19362, -0.8090848326683044, -0.8939709067344666, 0.13703100383281708, 0.17380182445049286, 0.15200687944889069, 1.0565210580825806, 0.23247933387756348, 0.20541447401046753, 0.10209159553050995, -0.7978358864784241, -1.020257592201233, 0.0710994079709053, -0.29897095694785064, -0.9892210566434017, 3.5158284470643424, 9362.0, 30146.0, 35388.0, 9362.0, 8.152067184448242, -0.09548597037792206, 0.0022764764726161957, -0.08457757532596588, -0.0324629470705986, 0.009887967258691788, 1.0011420249938965, -0.04554632306098938, -0.1739978790283203, 1.481689453125, 1.734375, 0.7635955810546875, 1.496337890625
19372, -0.8092767000198364, -0.8958509564399719, 0.13727696239948273, 0.17380182445049286, 0.15200687944889069, 1.0565210580825806, 0.23247933387756348, 0.20541447401046753, 0.10209159553050995, -0.7978138327598572, -1.0202957391738892, 0.07115152478218079, -0.2978378456847766, -0.98060872272643, 3.50265708372676, 9362.0, 30146.0, 35388.0, 9362.0, 8.152067184448242, -0.0033839521929621696, 0.12102388590574265, 0.031658802181482315, -0.0324629470705986, 0.009887967258691788, 1.0011420249938965, -0.05053529888391495, -0.0037593841552734375, 1.49560546875, 1.734375, 0.7635955810546875, 1.496337890625
19382, -0.8096615076065063, -0.8983446359634399, 0.1370524764060974, 0.17380182445049286, 0.15200687944889069, 1.0565210580825806, 0.23247933387756348, 0.20541447401046753, 0.10209159553050995, -0.7978115081787109, -1.020288109779358, 0.07114634662866592, -0.2961506979657672, -0.9792400029709825, 3.5025429004041535, 9362.0, 30146.0, 35388.0, 9362.0, 8.152067184448242, 0.195850670337677, 0.2337028980255127, 0.02221783995628357, -0.0324629470705986, 0.009887967258691788, 1.0011420249938965, -0.04599200561642647, 0.023120880126953125, 1.497802734375, 1.734375, 0.7635955810546875, 1.496337890625
19392, -0.8113977313041687, -0.9007181525230408, 0.13926288485527039, 0.17380182445049286, 0.15200687944889069, 1.0565210580825806, 0.23247933387756348, 0.20541447401046753, 0.10209159553050995, -0.7978331446647644, -1.0202926397323608, 0.07117860019207001, -0.29580450572647327, -0.9457736566477024, 3.5102334490812583, 9362.0, 30146.0, 35388.0, 9362.0, 8.152067184448242, -0.08601070940494537, 0.3114580810070038, 0.07229473441839218, -0.0324629470705986, 0.009887967258691788, 1.0011420249938965, -0.04599200561642647, 0.023120880126953125, 1.497802734375, 1.734375, 0.7635955810546875, 1.496337890625
19442, -0.8104843497276306, -0.9094712138175964, 0.1420237123966217, 0.19534480571746826, 0.1710570603609085, 1.065699815750122, 0.24630209803581238, 0.21793118119239807, 0.10176379978656769, -0.7978628873825073, -1.020349383354187, 0.07127763330936432, -0.27139653278396125, -0.9776040337311258, 3.5429463652233006, 9362.0, 30146.0, 35388.0, 9362.0, 8.152067184448242, 0.09355874359607697, -0.09363049268722534, 0.18831205368041992, -0.03269070014357567, 0.010362714529037476, 0.9996027946472168, -0.04493275657296181, -0.22775840759277344, 1.477294921875, 1.734375, 0.7635955810546875, 1.496337890625
19462, -0.8095107078552246, -0.9093465805053711, 0.14661617577075958, 0.2003019154071808, 0.17544354498386383, 1.0677342414855957, 0.2494078427553177, 0.22071586549282074, 0.1016722023487091, -0.7978654503822327, -1.0203641653060913, 0.07127611339092255, -0.28029831078522144, -0.9735170568708327, 3.539328871815626, 9362.0, 30146.0, 35388.0, 9362.0, 8.152067184448242, -0.04433920234441757, -0.06839802861213684, 0.3488001525402069, -0.03269070014357567, 0.010362714529037476, 0.9996027946472168, -0.04659217968583107, 0.05000114440917969, 1.5, 1.734375, 0.7635955810546875, 1.496337890625
19472, -0.8088162541389465, -0.9103459119796753, 0.14976611733436584, 0.2003019154071808, 0.17544354498386383, 1.0677342414855957, 0.2494078427553177, 0.22071586549282074, 0.1016722023487091, -0.7978536486625671, -1.0203615427017212, 0.07130003720521927, -0.27355185829724843, -0.9771835904770114, 3.547169471394712, 9362.0, 30146.0, 35388.0, 9362.0, 8.152067184448242, -0.04433920234441757, -0.06839802861213684, 0.3488001525402069, -0.03105778619647026, 0.011631805449724197, 0.9997665882110596, -0.04659217968583107, 0.05000114440917969, 1.5, 1.734375, 0.7635955810546875, 1.496337890625
19512, -0.8116912245750427, -0.9032857418060303, 0.15155841410160065, 0.2104024738073349, 0.18438327312469482, 1.071793794631958, 0.255614697933197, 0.22627049684524536, 0.10117613524198532, -0.797869861125946, -1.0203477144241333, 0.07127722352743149, -0.28102866172916363, -0.9761084961149038, 3.534837012341387, 9362.0, 30146.0, 35388.0, 9362.0, 8.152067184448242, -0.1552158147096634, 0.002139087999239564, -0.3497830629348755, -0.03105778619647026, 0.011631805449724197, 0.9997665882110596, -0.05403444543480873, -0.030637741088867188, 1.493408203125, 1.734375, 0.7635955810546875, 1.496337890625
19522, -0.8133437633514404, -0.901569128036499, 0.15058083832263947, 0.2104024738073349, 0.18438327312469482, 1.071793794631958, 0.255614697933197, 0.22627049684524536, 0.10117613524198532, -0.7978675365447998, -1.02034592628479, 0.07130594551563263, -0.2879648790878933, -0.9774783563812548, 3.5403699796298027, 9362.0, 30146.0, 35388.0, 9362.0, 8.152067184448242, -0.17397870123386383, -0.10975857079029083, -0.2960079312324524, -0.03265206515789032, 0.008277598768472672, 0.9976809620857239, -0.05403444543480873, -0.030637741088867188, 1.493408203125, 1.734375, 0.7635955810546875, 1.496337890625
19572, -0.8176457285881042, -0.905792236328125, 0.13204026222229004, 0.2286727875471115, 0.2005634605884552, 1.0788311958312988, 0.2663986384868622, 0.236031636595726, 0.10041080415248871, -0.7978454232215881, -1.0203455686569214, 0.07128480821847916, -0.28291165239829635, -0.9743105011662578, 3.5485700696066123, 9362.0, 30146.0, 35388.0, 9362.0, 8.152067184448242, -0.43252283334732056, 0.08422224968671799, -0.6318497657775879, -0.03272189944982529, 0.00950456503778696, 0.9994185566902161, -0.07187381386756897, -0.2187976837158203, 1.47802734375, 1.734375, 0.7635955810546875, 1.496337890625
19592, -0.8207210302352905, -0.9093742966651917, 0.12205172330141068, 0.23403173685073853, 0.205312117934227, 1.0808405876159668, 0.2694944739341736, 0.2388342022895813, 0.10041191428899765, -0.7978522777557373, -1.0203403234481812, 0.07127704471349716, -0.2847089273726961, -0.9701280321489207, 3.5365206161394225, 9362.0, 30146.0, 35388.0, 9362.0, 8.152067184448242, -0.1727887988090515, 0.08628243207931519, -0.4935852587223053, -0.033857233822345734, 0.008340578526258469, 0.9988282322883606, -0.06271833181381226, -0.1650371551513672, 1.482421875, 1.734375, 0.7635955810546875, 1.496337890625
19612, -0.82146155834198, -0.911601185798645, 0.11158623546361923, 0.23945267498493195, 0.2101169228553772, 1.082848310470581, 0.272601455450058, 0.2416486293077469, 0.10040782392024994, -0.7978251576423645, -1.0203431844711304, 0.07129915803670883, -0.2817020109471981, -0.9673680864219989, 3.567068979829558, 9362.0, 30146.0, 35388.0, 9362.0, 8.152067184448242, -0.04718469828367233, -0.28557831048965454, -0.879936695098877, -0.031448349356651306, 0.007554486393928528, 0.997965395450592, -0.05877077579498291, -0.12023735046386719, 1.486083984375, 1.734375, 0.7635955810546875, 1.496337890625
19642, -0.8209582567214966, -0.9119565486907959, 0.1042323112487793, 0.24493582546710968, 0.21497805416584015, 1.0848543643951416, 0.2757127285003662, 0.2444646805524826, 0.10015489161014557, -0.7978427410125732, -1.0203065872192383, 0.0711747407913208, -0.2480237365580467, -1.0030128052760574, 3.597427722408896, 9362.0, 30146.0, 35388.0, 9362.0, 8.152067184448242, 0.05005061626434326, 0.08786679804325104, -0.12504680454730988, -0.031169267371296883, 0.008364622481167316, 0.9992367625236511, -0.06385425478219986, -0.2098369598388672, 1.478759765625, 1.734375, 0.7635955810546875, 1.496337890625
19652, -0.820895791053772, -0.9092203378677368, 0.10492630302906036, 0.24493582546710968, 0.21497805416584015, 1.0848543643951416, 0.2757127285003662, 0.2444646805524826, 0.10015489161014557, -0.7978617548942566, -1.0202919244766235, 0.07115136086940765, -0.269403728452266, -1.0298632999785866, 3.620689587157748, 9362.0, 30146.0, 35388.0, 9362.0, 8.152067184448242, -0.013372857123613358, -0.21224094927310944, -0.05930796265602112, -0.032944150269031525, 0.010425960645079613, 1.0005513429641724, -0.06365770846605301, 0.08584022521972656, 1.5029296875, 1.734375, 0.7635955810546875, 1.496337890625
19662, -0.819480299949646, -0.9075559973716736, 0.10389979183673859, 0.24493582546710968, 0.21497805416584015, 1.0848543643951416, 0.2757127285003662, 0.2444646805524826, 0.10015489161014557, -0.797874927520752, -1.0202714204788208, 0.07114652544260025, -0.26306177945070475, -1.0273383765258473, 3.6020191715889567, 9362.0, 30146.0, 35388.0, 9362.0, 8.152067184448242, 0.2385803759098053, -0.28640636801719666, 0.21959926187992096, -0.03270915150642395, 0.008912802673876286, 0.9998602271080017, -0.06505893170833588, 0.05000114440917969, 1.5, 1.0927734375, 1.3592987060546875, 1.496337890625
