timeTick, roll, pitch, yaw, stateX, stateY, stateZ, stateVX, stateVY, stateVZ, otX0, otY0, otZ0, otRoll0, otPitch0, otYaw0, left wing, pitch motor, yaw motor, right wing, voltage, roll rate, pitch rate, yaw rate, A_x, A_y, A_z, current, i_raw, v_raw, airflow_voltage, airflow_speed, pot_Pitch
19268, -0.8267366886138916, -2.149679183959961, 1.2227122783660889, 0, 0, 0, 0, 0, 0, -0.5592721104621887, -1.2281832695007324, 0.06811930984258652, -1.4831054658630831, -0.07490732096988495, 0.238440263371591, 0, 0, 0, 0, 0, 0, 0, 0, 0, 0, 0, 0, 0, 0, 0, 0, 0
19278, -0.8254352807998657, -2.1510274410247803, 1.2235219478607178, 0.0002471543266437948, 0.00010120522347278893, 2.0644891262054443, 0.016014723107218742, 0.006555876228958368, 0.23377856612205505, -0.5592867732048035, -1.228175401687622, 0.06809693574905396, -1.4941790824826333, -0.06630199088357358, 0.24687942437184082, 9362.0, 30146.0, 35388.0, 9362.0, 8.370248794555664, 0.08997566252946854, -0.14741408824920654, 0.1361154466867447, -0.017235400155186653, -0.011995100416243076, 1.0007075071334839, -0.05157382786273956, -0.1291980743408203, 1.4853515625, 0.922119140625, 5.1187286376953125, 1.4912109375
19288, -0.824898362159729, -2.151974678039551, 1.222858190536499, 0.00042557023698464036, 0.00017424332327209413, 2.0668272972106934, 0.01966843754053116, 0.008051790297031403, 0.23384486138820648, -0.5592876672744751, -1.228168249130249, 0.06811216473579407, -1.4976796932975862, -0.06054197535615913, 0.24372956817928013, 9362.0, 30146.0, 35388.0, 9362.0, 8.350414276123047, 0.021176952868700027, 0.12453248351812363, -0.03810163587331772, -0.016125820577144623, -0.012705475091934204, 0.9981117248535156, -0.044611502438783646, 0.014162063598632812, 1.4970703125, 1.483154296875, 0.162841796875, 1.494873046875
19298, -0.8243446946144104, -2.1504173278808594, 1.223065733909607, 0.0006404905579984188, 0.00026221174630336463, 2.069164991378784, 0.023315638303756714, 0.00954185426235199, 0.23367245495319366, -0.5592890381813049, -1.2281681299209595, 0.06811818480491638, -1.4985598369456132, -0.06196593416487417, 0.2438332422950256, 9362.0, 30146.0, 35388.0, 9362.0, 8.350414276123047, 0.1389988213777542, -0.12308280169963837, 0.07084863632917404, -0.0164010189473629, -0.013259517960250378, 0.996605634689331, -0.05144297331571579, -0.20087814331054688, 1.4794921875, 1.46923828125, 0.137359619140625, 1.49560546875
19308, -0.8245912194252014, -2.1500024795532227, 1.223197340965271, 0.0008918444509617984, 0.00036505714524537325, 2.0714995861053467, 0.026955153793096542, 0.011027240194380283, 0.23324966430664062, -0.5592899918556213, -1.2281672954559326, 0.06809031963348389, -1.4958537735061552, -0.061802661530720115, 0.24395248728894317, 9362.0, 30146.0, 35388.0, 9362.0, 8.350414276123047, 0.10650816559791565, -0.09227913618087769, 0.15922023355960846, -0.015553687699139118, -0.011462789960205555, 1.0005565881729126, -0.04612124711275101, -0.05751800537109375, 1.4912109375, 1.89404296875, 1.3876953125, 1.496337890625
19318, -0.8247497081756592, -2.1489875316619873, 1.2261821031570435, 0.0011796285398304462, 0.00048277113819494843, 2.07383131980896, 0.030601665377616882, 0.012515570037066936, 0.23308596014976501, -0.5592777729034424, -1.22818124294281, 0.06811629235744476, -1.484192481406244, -0.06661691309014373, 0.23955729577014248, 9362.0, 30146.0, 35388.0, 9362.0, 8.350414276123047, -0.03661968931555748, 0.1305590122938156, 0.2738228142261505, -0.016152551397681236, -0.011139693669974804, 1.0005888938903809, -0.04753129556775093, -0.07543754577636719, 1.48974609375, 1.453857421875, 0.1110687255859375, 1.49267578125
19328, -0.8249955177307129, -2.1471340656280518, 1.2278372049331665, 0.0015039104036986828, 0.0006153853028081357, 2.076162338256836, 0.034254614263772964, 0.014007450081408024, 0.23311679065227509, -0.5593207478523254, -1.2281951904296875, 0.06808066368103027, -1.4930635067083193, -0.07197975421826186, 0.21918896013135367, 9362.0, 30146.0, 35388.0, 9362.0, 8.350414276123047, 0.05199382081627846, 0.005968352314084768, 0.40916287899017334, -0.015365038067102432, -0.01053820550441742, 1.000112771987915, -0.052853867411613464, 0.09480094909667969, 1.503662109375, 1.73291015625, 0.759429931640625, 1.48974609375
19338, -0.8248041868209839, -2.146252393722534, 1.227778673171997, 0.0018647005781531334, 0.0007629154715687037, 2.078493356704712, 0.03790338337421417, 0.01549869030714035, 0.23308320343494415, -0.5592874884605408, -1.228201150894165, 0.06808950752019882, -1.4853299261713437, -0.08267745328129195, 0.22689078258112194, 9362.0, 30146.0, 35388.0, 9362.0, 8.370248794555664, -0.032280802726745605, -0.13124698400497437, -0.17763467133045197, -0.017247021198272705, -0.010771103203296661, 1.0000920295715332, -0.05404257774353027, -0.07543754577636719, 1.48974609375, 1.06201171875, 1.8035430908203125, 1.493408203125
19348, -0.8242171406745911, -2.145686388015747, 1.2262651920318604, 0.0022619471419602633, 0.0009253541356883943, 2.0808236598968506, 0.04154594615101814, 0.01698903925716877, 0.23296824097633362, -0.5592963099479675, -1.2282028198242188, 0.0681314468383789, -1.4777529331069208, -0.07084314009998138, 0.22698501530186235, 9362.0, 30146.0, 35388.0, 9362.0, 8.350414276123047, 0.0020846708212047815, 0.010601873509585857, -0.04626807942986488, -0.015438768081367016, -0.010263591073453426, 1.000700831413269, -0.0519162155687809, -0.04855918884277344, 1.491943359375, 1.73876953125, 0.776458740234375, 1.49267578125
19358, -0.8233013153076172, -2.1446352005004883, 1.2274845838546753, 0.002695637522265315, 0.0011027050204575062, 2.083153486251831, 0.0451921671628952, 0.018481029197573662, 0.23299117386341095, -0.559261679649353, -1.2281872034072876, 0.06808385998010635, -1.4739678812908485, -0.0809536991114328, 0.23748865595908497, 9362.0, 30146.0, 35388.0, 9362.0, 8.350414276123047, 0.14488425850868225, -0.0374082587659359, 0.16441184282302856, -0.016966627910733223, -0.011558140628039837, 1.0020127296447754, -0.06737463176250458, -0.030637741088867188, 1.493408203125, 1.8076171875, 1.0009613037109375, 1.49560546875
19368, -0.8230841755867004, -2.143951177597046, 1.22806978225708, 0.0031657780054956675, 0.001294967019930482, 2.0854833126068115, 0.04883590713143349, 0.01997145637869835, 0.23297391831874847, -0.5592296719551086, -1.2281973361968994, 0.06804467737674713, -1.4697329951807088, -0.0836114702171642, 0.22058791915961123, 9362.0, 30146.0, 35388.0, 9362.0, 8.370248794555664, 0.1802365779876709, -0.00482766330242157, 0.13020193576812744, -0.015331346541643143, -0.010578099638223648, 1.002263069152832, -0.06125396490097046, -0.04855918884277344, 1.491943359375, 1.55126953125, 0.304718017578125, 1.49560546875
19378, -0.8232089281082153, -2.145040273666382, 1.230488657951355, 0.0036723818629980087, 0.0015021399594843388, 2.0878138542175293, 0.052484847605228424, 0.021463165059685707, 0.23314453661441803, -0.5592396259307861, -1.2281934022903442, 0.06805659830570221, -1.4783125821334033, -0.07830520141956754, 0.23272703046930837, 9362.0, 30146.0, 35388.0, 9362.0, 8.350414276123047, -0.0849481076002121, 0.21439607441425323, 0.2817222476005554, -0.016370950266718864, -0.009751390665769577, 0.9997178316116333, -0.04938569664955139, 0.08584022521972656, 1.5029296875, 1.6611328125, 0.566650390625, 1.4912109375
19388, -0.82320636510849, -2.1433823108673096, 1.2321085929870605, 0.00421543512493372, 0.001724214176647365, 2.0901451110839844, 0.056125715374946594, 0.02295183204114437, 0.23313061892986298, -0.5592373609542847, -1.2281804084777832, 0.06806042790412903, -1.476580086849546, -0.08025545811543111, 0.23216678835658908, 9362.0, 30146.0, 35388.0, 9362.0, 8.370248794555664, -0.029226848855614662, -0.046450771391391754, 0.0594218373298645, -0.01841951347887516, -0.011876357719302177, 1.0013917684555054, -0.043663907796144485, -0.0037593841552734375, 1.49560546875, 1.6494140625, 0.5372772216796875, 1.49267578125
19398, -0.8233454823493958, -2.146026611328125, 1.2343239784240723, 0.0047949072904884815, 0.0019611776806414127, 2.0924763679504395, 0.05976870656013489, 0.024440981447696686, 0.23312535881996155, -0.5592353343963623, -1.2281911373138428, 0.06805530190467834, -1.469480819217677, -0.08328742236875541, 0.22858144143044884, 9362.0, 30146.0, 35388.0, 9362.0, 8.370248794555664, -0.21304458379745483, 0.10118816047906876, 0.3466072976589203, -0.015119191259145737, -0.011247190646827221, 1.0009784698486328, -0.0283754151314497, -0.2187976837158203, 1.47802734375, 0.58740234375, 27.424911499023438, 1.48974609375
19408, -0.8223874568939209, -2.1457583904266357, 1.2367035150527954, 0.005410805344581604, 0.002213037107139826, 2.0948078632354736, 0.06341090053319931, 0.025931065902113914, 0.23317614197731018, -0.5592573285102844, -1.2282027006149292, 0.06807884573936462, -1.4835454127787582, -0.07202121042431031, 0.21897645265295723, 9362.0, 30146.0, 35388.0, 9362.0, 8.350414276123047, 0.00641257269307971, -0.10219202190637589, 0.2428102046251297, -0.015426081605255604, -0.010748961009085178, 0.998577356338501, -0.02667965739965439, -0.08439826965332031, 1.489013671875, 1.63330078125, 0.49737548828125, 1.491943359375
19418, -0.8213141560554504, -2.1459648609161377, 1.238871455192566, 0.006063101813197136, 0.0024797809310257435, 2.0971386432647705, 0.0670483186841011, 0.0274178609251976, 0.23297829926013947, -0.5592116117477417, -1.2281873226165771, 0.06804905831813812, -1.4711111175783826, -0.08351366975497854, 0.2449800571855434, 9362.0, 30146.0, 35388.0, 9362.0, 8.350414276123047, 0.12260514497756958, 0.08802963048219681, 0.0831480547785759, -0.01575462892651558, -0.010810868814587593, 1.0009297132492065, -0.03126128017902374, -0.04855918884277344, 1.491943359375, 1.48974609375, 0.1755218505859375, 1.49267578125
19428, -0.8222708702087402, -2.1484475135803223, 1.24028742313385, 0.006751789711415768, 0.0027613933198153973, 2.0994679927825928, 0.07068921625614166, 0.028904763981699944, 0.23288728296756744, -0.5592301487922668, -1.2281932830810547, 0.0680614486336708, -1.494067617891817, -0.06465117043254054, 0.23524442578251364, 9362.0, 30146.0, 35388.0, 9362.0, 8.370248794555664, 0.04662652313709259, 0.07396736741065979, -0.01197338942438364, -0.0158337764441967, -0.013432655483484268, 1.0001996755599976, -0.03264098986983299, 0.11272048950195312, 1.505126953125, 0.9755859375, 3.5675811767578125, 1.491943359375
19438, -0.8216731548309326, -2.1485228538513184, 1.24542236328125, 0.007476905360817909, 0.003057873109355569, 2.101796865463257, 0.07433384656906128, 0.030391305685043335, 0.23288686573505402, -0.5592247843742371, -1.2281419038772583, 0.06806877255439758, -1.4733529991794687, -0.08725624889316919, 0.21947886588728255, 9362.0, 30146.0, 35388.0, 9362.0, 8.370248794555664, -0.009854063391685486, -0.24783414602279663, 0.46415969729423523, -0.016100168228149414, -0.013656144961714745, 0.9986616373062134, -0.03511260822415352, -0.10231781005859375, 1.487548828125, 1.6435546875, 0.5228118896484375, 1.49560546875
19448, -0.8219575881958008, -2.1479780673980713, 1.2465169429779053, 0.008238446898758411, 0.003369210986420512, 2.1041245460510254, 0.07797442376613617, 0.0318765826523304, 0.23266762495040894, -0.5592416524887085, -1.2280586957931519, 0.06783712655305862, -1.445506512874261, -0.14520090982642841, 0.25805102637647226, 9362.0, 30146.0, 35388.0, 9362.0, 8.370248794555664, 0.041614919900894165, 0.10265950113534927, 0.17168790102005005, -0.016461633145809174, -0.013248329982161522, 0.9967116713523865, -0.026498205959796906, -0.07543754577636719, 1.48974609375, 0.91552734375, 5.3381195068359375, 1.493408203125
19458, -0.8218290209770203, -2.15312123298645, 1.2489765882492065, 0.009036378934979439, 0.0036953918170183897, 2.106449604034424, 0.08161202818155289, 0.033359650522470474, 0.2323654741048813, -0.5591843128204346, -1.2281945943832397, 0.0679565817117691, -1.4650894627524453, -0.12224171550926144, 0.1749624746375573, 9362.0, 30146.0, 35388.0, 9362.0, 8.350414276123047, -0.051419686526060104, 0.2126389890909195, 0.4573460817337036, -0.015028433874249458, -0.012313878163695335, 0.9996020197868347, -0.01915702223777771, -0.1650371551513672, 1.482421875, 1.51025390625, 0.2164154052734375, 1.493408203125
19468, -0.8188651204109192, -2.153679132461548, 1.252838134765625, 0.009870688430964947, 0.004036408383399248, 2.108771800994873, 0.08524972200393677, 0.034843795001506805, 0.2320927530527115, -0.5591750144958496, -1.228070616722107, 0.06782601773738861, -1.4527324177329335, -0.17632020290196238, 0.24193793816548897, 9362.0, 30146.0, 35388.0, 9362.0, 8.370248794555664, 0.13778604567050934, 0.0507178008556366, 0.43418779969215393, -0.01637047901749611, -0.011775215156376362, 0.9997736811637878, -0.01449729222804308, 0.11272048950195312, 1.505126953125, 1.4501953125, 0.1050872802734375, 1.4970703125
19478, -0.8192470073699951, -2.1579372882843018, 1.258114218711853, 0.010741449892520905, 0.004392279777675867, 2.1110923290252686, 0.08890245854854584, 0.036330725997686386, 0.23198989033699036, -0.5591806173324585, -1.2280616760253906, 0.06781681627035141, -1.4615121884254987, -0.17036989081609022, 0.2574840629979489, 9362.0, 30146.0, 35388.0, 9362.0, 8.370248794555664, -0.23354093730449677, 0.3045910894870758, 0.601678192615509, -0.017451753839850426, -0.012119854800403118, 0.99931800365448, 0.0030063637532293797, 0.023120880126953125, 1.497802734375, 1.658935546875, 0.561279296875, 1.49267578125
19488, -0.8184019923210144, -2.1610090732574463, 1.259859323501587, 0.011648743413388729, 0.004762996453791857, 2.1134116649627686, 0.09255605190992355, 0.03781292587518692, 0.23188520967960358, -0.5591773986816406, -1.2280555963516235, 0.06783770024776459, -1.4586283946856342, -0.19027460432914722, 0.25479046515555165, 9362.0, 30146.0, 35388.0, 9362.0, 8.350414276123047, -0.004880336578935385, 0.3317098915576935, -0.011455515399575233, -0.016275519505143166, -0.010085069574415684, 0.9997348785400391, 0.004253505263477564, -0.09335899353027344, 1.48828125, 1.682373046875, 0.6212310791015625, 1.4912109375
19498, -0.8176500797271729, -2.163649797439575, 1.2628084421157837, 0.012592599727213383, 0.005148537456989288, 2.115729808807373, 0.0962151437997818, 0.03929534927010536, 0.2317340075969696, -0.559171199798584, -1.228127360343933, 0.06788935512304306, -1.4564826258954675, -0.19089332247827429, 0.27021310802171805, 9362.0, 30146.0, 35388.0, 9362.0, 8.350414276123047, 0.07528481632471085, 0.3659859299659729, 0.3302721083164215, -0.01580892875790596, -0.01050506066530943, 1.0010043382644653, -0.005068847443908453, 0.08584022521972656, 1.5029296875, 1.74169921875, 0.78497314453125, 1.493408203125
19508, -0.8172899484634399, -2.1609065532684326, 1.264937400817871, 0.013573097065091133, 0.005548906046897173, 2.118046998977661, 0.09988423436880112, 0.04077857360243797, 0.23171117901802063, -0.5591016411781311, -1.2281516790390015, 0.06795861572027206, -1.4641006246809831, -0.15870475835242814, 0.21044923590491274, 9362.0, 30146.0, 35388.0, 9362.0, 8.350414276123047, 0.11818529665470123, -0.5954336524009705, 0.14619019627571106, -0.018149789422750473, -0.012930864468216896, 1.0001378059387207, -0.011647199280560017, 0.06792068481445312, 1.50146484375, 1.6435546875, 0.5228118896484375, 1.494873046875
19518, -0.8166834712028503, -2.1590158939361572, 1.2659215927124023, 0.014590302482247353, 0.005964099895209074, 2.12036395072937, 0.10355687141418457, 0.04226035624742508, 0.2316627949476242, -0.5591381192207336, -1.2281427383422852, 0.0680154412984848, -1.4700868650592287, -0.1471347749038614, 0.24655648783457718, 9362.0, 30146.0, 35388.0, 9362.0, 8.350414276123047, 0.015364962629973888, -0.012414532713592052, -0.03139996901154518, -0.018488919362425804, -0.013494204729795456, 1.0007168054580688, -0.025710105895996094, -0.01271820068359375, 1.494873046875, 0.857666015625, 7.5609130859375, 1.496337890625
19538, -0.8176974654197693, -2.1576170921325684, 1.26707124710083, 0.015644218772649765, 0.006394111551344395, 2.122680425643921, 0.10722623020410538, 0.04374205693602562, 0.23165260255336761, -0.5590988993644714, -1.2282551527023315, 0.06819458305835724, -1.4645577750746417, -0.11232639656296328, 0.20746844685720664, 9362.0, 30146.0, 35388.0, 9362.0, 8.370248794555664, -0.020257042720913887, 0.15713559091091156, 0.28426140546798706, -0.01818222552537918, -0.012732269242405891, 1.0014252662658691, -0.019684912636876106, 0.1933612823486328, 1.51171875, 0.662109375, 20.045135498046875, 1.496337890625
19578, -0.8181922435760498, -2.158781051635742, 1.2632324695587158, 0.02146356739103794, 0.008766410872340202, 2.1342592239379883, 0.12553896009922028, 0.05114983767271042, 0.23141160607337952, -0.5591306686401367, -1.2282699346542358, 0.06819627434015274, -1.4541175007145803, -0.10541648392961633, 0.18317684698661368, 9362.0, 30146.0, 35388.0, 9362.0, 8.370248794555664, 0.12534372508525848, -0.12667326629161835, -0.2331838756799698, -0.017619382590055466, -0.011743695475161076, 0.998957633972168, 0.037705644965171814, -0.12023735046386719, 1.486083984375, 1.12939453125, 0.9347991943359375, 1.494873046875
19588, -0.8185662031173706, -2.1569905281066895, 1.2630972862243652, 0.02273727022111416, 0.009285319596529007, 2.13657283782959, 0.12920182943344116, 0.052631787955760956, 0.23130129277706146, -0.5591345429420471, -1.2282668352127075, 0.06818395853042603, -1.4499037666235082, -0.09699740886230757, 0.19900377200465902, 9362.0, 30146.0, 35388.0, 9362.0, 8.370248794555664, -0.06367450207471848, -0.2205498218536377, -0.05744282901287079, -0.017619382590055466, -0.011743695475161076, 0.998957633972168, 0.01405299548059702, -0.2546367645263672, 1.47509765625, 1.12939453125, 0.9347991943359375, 1.494873046875
19608, -0.8172640800476074, -2.1640403270721436, 1.2653579711914062, 0.02273727022111416, 0.009285319596529007, 2.13657283782959, 0.12920182943344116, 0.052631787955760956, 0.23130129277706146, -0.5591616630554199, -1.2282605171203613, 0.06822025030851364, -1.4487938123570534, -0.06962901131046806, 0.19701117003460947, 9362.0, 30146.0, 35388.0, 9362.0, 8.370248794555664, 0.11076655983924866, 0.27496299147605896, 0.13167570531368256, -0.017619382590055466, -0.011743695475161076, 0.998957633972168, -0.004398068878799677, -0.0037593841552734375, 1.49560546875, 1.62744140625, 0.483154296875, 1.49267578125
19638, -0.8144584894180298, -2.1649701595306396, 1.2751731872558594, 0.02819831669330597, 0.011509157717227936, 2.1458163261413574, 0.1438654363155365, 0.058562688529491425, 0.23107439279556274, -0.5591901540756226, -1.2282201051712036, 0.06817913800477982, -1.4869416489902239, -0.07809283970487968, 0.1783924092218075, 9362.0, 30146.0, 35388.0, 9362.0, 8.370248794555664, -0.07605846971273422, 0.027221892029047012, 0.24188172817230225, -0.01571478880941868, -0.010079748928546906, 0.9979481101036072, -0.008978377096354961, 0.08584022521972656, 1.5029296875, 1.721923828125, 0.72821044921875, 1.4912109375
19648, -0.8155103921890259, -2.169905185699463, 1.2791541814804077, 0.02819831669330597, 0.011509157717227936, 2.1458163261413574, 0.1438654363155365, 0.058562688529491425, 0.23107439279556274, -0.5591972470283508, -1.2282501459121704, 0.068243108689785, -1.4931801012811343, -0.09599167134510367, 0.202173143788326, 9362.0, 30146.0, 35388.0, 9362.0, 8.350414276123047, -0.07605846971273422, 0.027221892029047012, 0.24188172817230225, -0.015193833969533443, -0.010149402543902397, 0.9990441799163818, -0.008978377096354961, 0.08584022521972656, 1.5029296875, 1.491943359375, 0.179656982421875, 1.4912109375
19658, -0.8135488033294678, -2.1720895767211914, 1.2844291925430298, 0.02819831669330597, 0.011509157717227936, 2.1458163261413574, 0.1438654363155365, 0.058562688529491425, 0.23107439279556274, -0.5591968297958374, -1.228244662284851, 0.06822431832551956, -1.4999696965497977, -0.10395682569955511, 0.20895560179890546, 9362.0, 30146.0, 35388.0, 9362.0, 8.350414276123047, -0.07605846971273422, 0.027221892029047012, 0.24188172817230225, -0.014756941236555576, -0.010950051248073578, 1.0021311044692993, -0.008978377096354961, 0.08584022521972656, 1.5029296875, 1.68017578125, 0.6156768798828125, 1.4912109375
19678, -0.8125060200691223, -2.17999529838562, 1.2896891832351685, 0.03585132211446762, 0.014622190967202187, 2.1573679447174072, 0.16226717829704285, 0.06595706194639206, 0.23100781440734863, -0.5591738820075989, -1.2282624244689941, 0.06823478639125824, -1.4932567876378888, -0.11485030003998986, 0.20302807769187417, 9362.0, 30146.0, 35388.0, 9362.0, 8.350414276123047, 0.11494679003953934, 0.24008166790008545, 0.3515709340572357, -0.01563398353755474, -0.011427425779402256, 1.0001606941223145, -0.008978377096354961, 0.08584022521972656, 1.5029296875, 1.2275390625, 0.24749755859375, 1.48828125
19718, -0.8137319684028625, -2.2089598178863525, 1.2820590734481812, 0.039170559495687485, 0.015970846638083458, 2.161987066268921, 0.16965559124946594, 0.06890659779310226, 0.2307872325181961, -0.5591530799865723, -1.2282408475875854, 0.06824027001857758, -1.5033146211510042, -0.12807982352543945, 0.2043411387651416, 9362.0, 30146.0, 35388.0, 9362.0, 8.350414276123047, -0.21291974186897278, 0.4510667622089386, -0.5423615574836731, -0.016028884798288345, -0.013216069899499416, 1.0025237798690796, -0.022749705240130424, -0.0037593841552734375, 1.49560546875, 0.873779296875, 6.885955810546875, 1.49267578125
19738, -0.8169390559196472, -2.226367950439453, 1.2611955404281616, 0.039170559495687485, 0.015970846638083458, 2.161987066268921, 0.16965559124946594, 0.06890659779310226, 0.2307872325181961, -0.5591485500335693, -1.2282471656799316, 0.06824669241905212, -1.4952719959437388, -0.1406342203607096, 0.20297015572620464, 9362.0, 30146.0, 35388.0, 9362.0, 8.370248794555664, -0.06200899928808212, 0.8832626938819885, -1.2617017030715942, -0.01679326593875885, -0.009548556990921497, 0.9992877840995789, -0.022749705240130424, -0.0037593841552734375, 1.49560546875, 0.736083984375, 14.284072875976562, 1.49267578125
19748, -0.8178092837333679, -2.2340385913848877, 1.2480113506317139, 0.039170559495687485, 0.015970846638083458, 2.161987066268921, 0.16965559124946594, 0.06890659779310226, 0.2307872325181961, -0.5591460466384888, -1.2282395362854004, 0.0682310163974762, -1.501924719085865, -0.1316250725304826, 0.19930427118411218, 9362.0, 30146.0, 35388.0, 9362.0, 8.350414276123047, -0.06200899928808212, 0.8832626938819885, -1.2617017030715942, -0.018116693943738937, -0.010322879999876022, 1.0011417865753174, -0.022749705240130424, -0.0037593841552734375, 1.49560546875, 1.24951171875, 0.1648101806640625, 1.49267578125
19778, -0.8200790286064148, -2.2518744468688965, 1.1985305547714233, 0.053939878940582275, 0.021955974400043488, 2.1804251670837402, 0.19973459839820862, 0.0807407945394516, 0.2304980754852295, -0.5591501593589783, -1.228267788887024, 0.06823350489139557, -1.4822376695409967, -0.13173947610488312, 0.2039709825323794, 9362.0, 30146.0, 35388.0, 9362.0, 8.370248794555664, -0.06200899928808212, 0.8832626938819885, -1.2617017030715942, -0.02053908444941044, -0.012497174553573132, 1.0036180019378662, -0.023959975689649582, -0.09335899353027344, 1.48828125, 1.0517578125, 1.971160888671875, 1.5
19848, -0.8153987526893616, -2.23203706741333, 1.1272647380828857, 0.06885956227779388, 0.02797188237309456, 2.196577310562134, 0.22652579843997955, 0.09113248437643051, 0.23087288439273834, -0.5591974854469299, -1.2282118797302246, 0.06808211654424667, -1.4479091147342973, -0.11057420355314207, 0.25258106466463287, 9362.0, 30146.0, 35388.0, 9362.0, 8.370248794555664, 0.17160001397132874, -0.4959811270236969, -0.589911699295044, -0.020219439640641212, -0.01184068899601698, 1.0001579523086548, -0.03234167397022247, -0.24567794799804688, 1.475830078125, 1.096435546875, 1.31195068359375, 1.48974609375
19868, -0.8127106428146362, -2.217024326324463, 1.141330361366272, 0.07346608489751816, 0.02982400357723236, 2.201192855834961, 0.2341146320104599, 0.09407591819763184, 0.23054289817810059, -0.5592113733291626, -1.2281676530838013, 0.06802968680858612, -1.4751899699275055, -0.08624091096294251, 0.23151785216917722, 9362.0, 30146.0, 35388.0, 9362.0, 8.370248794555664, 0.03189385309815407, -0.6255213022232056, 0.9439284801483154, -0.018338927999138832, -0.01027983333915472, 0.9969167113304138, -0.03234167397022247, -0.24567794799804688, 1.475830078125, 0.8525390625, 7.7852783203125, 1.48974609375
19898, -0.8083246946334839, -2.198059320449829, 1.1733689308166504, 0.0806591808795929, 0.03271228075027466, 2.208103895187378, 0.2454182505607605, 0.09847582131624222, 0.23039798438549042, -0.5592007637023926, -1.2281731367111206, 0.06803623586893082, -1.4703701244198701, -0.10032146906067396, 0.237728503281131, 9362.0, 30146.0, 35388.0, 9362.0, 8.370248794555664, 0.09117620438337326, -0.8541154861450195, 1.1261485815048218, -0.018338927999138832, -0.01027983333915472, 0.9969167113304138, -0.15284596383571625, 0.023120880126953125, 1.497802734375, 0.8525390625, 7.7852783203125, 1.494873046875
19998, -0.8290542960166931, -2.221132755279541, 1.2336015701293945, 0.10706570744514465, 0.043292514979839325, 2.2311253547668457, 0.28274309635162354, 0.11317934840917587, 0.23032203316688538, -0.5591569542884827, -1.2281407117843628, 0.06803765147924423, -1.4879497244289681, -0.11945986270734466, 0.2413732030723834, 9362.0, 30146.0, 35388.0, 9362.0, 8.370248794555664, -0.354410320520401, 0.34406957030296326, -0.9215057492256165, -0.015126886777579784, -0.011642125435173512, 1.0006163120269775, -0.1041347086429596, -0.030637741088867188, 1.493408203125, 0.796875, 10.53936767578125, 1.496337890625
20018, -0.8325906991958618, -2.2321043014526367, 1.2135965824127197, 0.11279578506946564, 0.045586008578538895, 2.2357289791107178, 0.29026874899864197, 0.11617212742567062, 0.23002243041992188, -0.5591580271720886, -1.2281557321548462, 0.06804325431585312, -1.478911205057016, -0.12000640179999778, 0.2425360060426222, 9362.0, 30146.0, 35388.0, 9362.0, 8.370248794555664, -0.33419421315193176, 0.5016483664512634, -1.315033197402954, -0.019099023193120956, -0.014108738861978054, 1.0042766332626343, -0.05452791228890419, -0.021678924560546875, 1.494140625, 1.661865234375, 0.568572998046875, 1.49560546875
20028, -0.8335211277008057, -2.2361655235290527, 1.2033966779708862, 0.11279578506946564, 0.045586008578538895, 2.2357289791107178, 0.29026874899864197, 0.11617212742567062, 0.23002243041992188, -0.5591647028923035, -1.228144884109497, 0.06804173439741135, -1.4860316810199874, -0.10557977252045703, 0.24389288458988173, 9362.0, 30146.0, 35388.0, 9362.0, 8.370248794555664, -0.33419421315193176, 0.5016483664512634, -1.315033197402954, -0.019099023193120956, -0.014108738861978054, 1.0042766332626343, -0.05197839438915253, 0.13064002990722656, 1.506591796875, 1.661865234375, 0.568572998046875, 1.494873046875
20058, -0.8300470113754272, -2.238164186477661, 1.1818684339523315, 0.1247100681066513, 0.05035348981618881, 2.24493670463562, 0.3054472804069519, 0.1221962496638298, 0.23003628849983215, -0.5591881275177002, -1.2281644344329834, 0.06806129962205887, -1.4609706702079748, -0.09976406727804488, 0.23450360154594013, 9362.0, 30146.0, 35388.0, 9362.0, 8.370248794555664, -0.08560533821582794, 0.1413303166627884, -0.5456078052520752, -0.020351935178041458, -0.012961184605956078, 1.000817894935608, -0.0548940971493721, -0.2187976837158203, 1.47802734375, 1.130126953125, 0.9273529052734375, 1.49560546875
20078, -0.8206448554992676, -2.2297699451446533, 1.1780582666397095, 0.13089504837989807, 0.05282747372984886, 2.2495367527008057, 0.3130505084991455, 0.12520010769367218, 0.22996191680431366, -0.5591979622840881, -1.2281705141067505, 0.06804978847503662, -1.4604210505990687, -0.0922252292190251, 0.234522319771159, 9362.0, 30146.0, 35388.0, 9362.0, 8.370248794555664, -0.08560533821582794, 0.1413303166627884, -0.5456078052520752, -0.019744114950299263, -0.011717316694557667, 1.0042023658752441, -0.0548940971493721, -0.2187976837158203, 1.47802734375, 1.130126953125, 0.9273529052734375, 1.499267578125
20088, -0.8175114393234253, -2.2231533527374268, 1.175567626953125, 0.13089504837989807, 0.05282747372984886, 2.2495367527008057, 0.3130505084991455, 0.12520010769367218, 0.22996191680431366, -0.5592172145843506, -1.2281819581985474, 0.06804969161748886, -1.455787666023524, -0.09662932317664286, 0.2370583358566227, 9362.0, 30146.0, 35388.0, 9362.0, 8.370248794555664, -0.08560533821582794, 0.1413303166627884, -0.5456078052520752, -0.019723739475011826, -0.01121358759701252, 1.0027834177017212, -0.06711599975824356, -0.19191741943359375, 1.480224609375, 1.130126953125, 0.9273529052734375, 1.499267578125
20098, -0.812866747379303, -2.215461254119873, 1.1786444187164307, 0.13089504837989807, 0.05282747372984886, 2.2495367527008057, 0.3130505084991455, 0.12520010769367218, 0.22996191680431366, -0.5592084527015686, -1.228175163269043, 0.06806749105453491, -1.4585120304860641, -0.08781627358126798, 0.23932928794255934, 9362.0, 30146.0, 35388.0, 9362.0, 8.370248794555664, -0.08560533821582794, 0.1413303166627884, -0.5456078052520752, -0.019723739475011826, -0.01121358759701252, 1.0027834177017212, -0.06711599975824356, -0.19191741943359375, 1.480224609375, 1.143310546875, 0.8002777099609375, 1.499267578125
20128, -0.8004063367843628, -2.1978468894958496, 1.2005397081375122, 0.13089504837989807, 0.05282747372984886, 2.2495367527008057, 0.3130505084991455, 0.12520010769367218, 0.22996191680431366, -0.5592151880264282, -1.2281724214553833, 0.06805118918418884, -1.4579866696567576, -0.08317107864763784, 0.24138663860469764, 9362.0, 30146.0, 35388.0, 9362.0, 8.350414276123047, 0.25117188692092896, -0.43377336859703064, 0.8502528667449951, -0.019723739475011826, -0.01121358759701252, 1.0027834177017212, -0.06139833852648735, 0.014162063598632812, 1.4970703125, 0.714111328125, 15.8486328125, 1.491943359375
20148, -0.7990818619728088, -2.1868374347686768, 1.2213681936264038, 0.15373589098453522, 0.061954326927661896, 2.2656736373901367, 0.3394451141357422, 0.13550786674022675, 0.23086681962013245, -0.5592007040977478, -1.2281683683395386, 0.06805092096328735, -1.4689312088990116, -0.09005371356974479, 0.2392273456126772, 9362.0, 30146.0, 35388.0, 9362.0, 8.370248794555664, -0.1223725900053978, -0.30617523193359375, 1.1740424633026123, -0.015110835433006287, -0.010440702550113201, 1.0008677244186401, -0.05434654653072357, -0.05751800537109375, 1.4912109375, 0.714111328125, 15.8486328125, 1.493408203125
20168, -0.8011342287063599, -2.183764934539795, 1.2426772117614746, 0.15373589098453522, 0.061954326927661896, 2.2656736373901367, 0.3394451141357422, 0.13550786674022675, 0.23086681962013245, -0.5592080354690552, -1.228145718574524, 0.06803810596466064, -1.4745000968381354, -0.08974204347416048, 0.2393287675725511, 9362.0, 30146.0, 35388.0, 9362.0, 8.370248794555664, -0.1223725900053978, -0.30617523193359375, 1.1740424633026123, -0.014291989617049694, -0.00813919398933649, 0.9988093376159668, -0.03690982609987259, -0.06647872924804688, 1.490478515625, 0.90380859375, 5.744537353515625, 1.4970703125
20178, -0.8037501573562622, -2.1829986572265625, 1.2528865337371826, 0.15373589098453522, 0.061954326927661896, 2.2656736373901367, 0.3394451141357422, 0.13550786674022675, 0.23086681962013245, -0.5591954588890076, -1.2281447649002075, 0.06804527342319489, -1.4785505876943434, -0.0987702674521529, 0.23773571353414524, 9362.0, 30146.0, 35388.0, 9362.0, 8.370248794555664, -0.3004777133464813, 0.07659200578927994, 0.8339173197746277, -0.014291989617049694, -0.00813919398933649, 0.9988093376159668, -0.03690982609987259, -0.06647872924804688, 1.490478515625, 1.531494140625, 0.26129150390625, 1.4970703125
20188, -0.8074427843093872, -2.184677839279175, 1.2605206966400146, 0.15373589098453522, 0.061954326927661896, 2.2656736373901367, 0.3394451141357422, 0.13550786674022675, 0.23086681962013245, -0.5591890215873718, -1.2281484603881836, 0.06806743890047073, -1.489401605149099, -0.10023115435711816, 0.2437873985803659, 9362.0, 30146.0, 35388.0, 9362.0, 8.370248794555664, -0.3004777133464813, 0.07659200578927994, 0.8339173197746277, -0.014526777900755405, -0.011709748767316341, 1.001692771911621, -0.03690982609987259, -0.06647872924804688, 1.490478515625, 1.25537109375, 0.146392822265625, 1.4970703125
20198, -0.8125089406967163, -2.186344861984253, 1.2659084796905518, 0.15373589098453522, 0.061954326927661896, 2.2656736373901367, 0.3394451141357422, 0.13550786674022675, 0.23086681962013245, -0.5591760277748108, -1.2281407117843628, 0.06805160641670227, -1.490659484267555, -0.1026420921352269, 0.24012668110943022, 9362.0, 30146.0, 35388.0, 9362.0, 8.370248794555664, -0.3004777133464813, 0.07659200578927994, 0.8339173197746277, -0.014526777900755405, -0.011709748767316341, 1.001692771911621, -0.03690982609987259, -0.06647872924804688, 1.490478515625, 0.862060546875, 7.372344970703125, 1.4970703125
20208, -0.8177990913391113, -2.191974401473999, 1.268588900566101, 0.15373589098453522, 0.061954326927661896, 2.2656736373901367, 0.3394451141357422, 0.13550786674022675, 0.23086681962013245, -0.5591850876808167, -1.2281441688537598, 0.06804762035608292, -1.4920422809915852, -0.10626171355622205, 0.24118363273763752, 9362.0, 30146.0, 35388.0, 9362.0, 8.350414276123047, -0.3004777133464813, 0.07659200578927994, 0.8339173197746277, -0.015007016249001026, -0.01075880229473114, 1.0007721185684204, -0.03690982609987259, -0.06647872924804688, 1.490478515625, 0.862060546875, 7.372344970703125, 1.4970703125
20248, -0.8352101445198059, -2.218139171600342, 1.2649816274642944, 0.18953731656074524, 0.07623392343521118, 2.288734197616577, 0.3766261339187622, 0.1501883864402771, 0.23046834766864777, -0.5591720938682556, -1.2281326055526733, 0.06805092096328735, -1.4893498358039368, -0.10963277461524967, 0.24219828952465186, 9362.0, 30146.0, 35388.0, 9362.0, 8.370248794555664, -0.4557588994503021, 0.7867156267166138, 0.014696971513330936, -0.014910925179719925, -0.014034482650458813, 1.0009026527404785, -0.03690982609987259, -0.06647872924804688, 1.490478515625, 0.8115234375, 9.755844116210938, 1.493408203125
20258, -0.8378257751464844, -2.2229034900665283, 1.2627922296524048, 0.18953731656074524, 0.07623392343521118, 2.288734197616577, 0.3766261339187622, 0.1501883864402771, 0.23046834766864777, -0.5591846108436584, -1.2281486988067627, 0.06803474575281143, -1.4889459923768924, -0.11455967594557137, 0.2413447747241406, 9362.0, 30146.0, 35388.0, 9362.0, 8.370248794555664, -0.4557588994503021, 0.7867156267166138, 0.014696971513330936, -0.019141294062137604, -0.012181117199361324, 0.9988359808921814, -0.03690982609987259, -0.06647872924804688, 1.490478515625, 1.371826171875, 0.02008056640625, 1.493408203125
20268, -0.8388131260871887, -2.2291932106018066, 1.2579716444015503, 0.18953731656074524, 0.07623392343521118, 2.288734197616577, 0.3766261339187622, 0.1501883864402771, 0.23046834766864777, -0.5591851472854614, -1.2281485795974731, 0.06804526597261429, -1.48333422272601, -0.10937799160493, 0.24163470481862948, 9362.0, 30146.0, 35388.0, 9362.0, 8.370248794555664, -0.4557588994503021, 0.7867156267166138, 0.014696971513330936, -0.019141294062137604, -0.012181117199361324, 0.9988359808921814, -0.03690982609987259, -0.06647872924804688, 1.490478515625, 0.929443359375, 4.8824920654296875, 1.493408203125
20298, -0.8340690732002258, -2.226670742034912, 1.2387161254882812, 0.20490339398384094, 0.08236248046159744, 2.297945737838745, 0.39170122146606445, 0.15624789893627167, 0.23013730347156525, -0.5591868758201599, -1.2281488180160522, 0.06801223754882812, -1.471500441124223, -0.10257132038393024, 0.24219628866687637, 9362.0, 30146.0, 35388.0, 9362.0, 8.370248794555664, 0.16886396706104279, 0.0583081878721714, -0.8447462320327759, -0.020189378410577774, -0.013944451697170734, 1.0005457401275635, -0.0308183915913105, 0.10376167297363281, 1.50439453125, 0.990966796875, 3.1913299560546875, 1.49267578125
20308, -0.8304479718208313, -2.2249081134796143, 1.2361705303192139, 0.20490339398384094, 0.08236248046159744, 2.297945737838745, 0.39170122146606445, 0.15624789893627167, 0.23013730347156525, -0.5592145919799805, -1.2281620502471924, 0.06803078949451447, -1.4687412687024728, -0.09467337002050158, 0.2424015470610306, 9362.0, 30146.0, 35388.0, 9362.0, 8.370248794555664, 0.16886396706104279, 0.0583081878721714, -0.8447462320327759, -0.02014932408928871, -0.013941103592514992, 1.0002695322036743, -0.0308183915913105, 0.10376167297363281, 1.50439453125, 0.990966796875, 3.1913299560546875, 1.493408203125
20378, -0.7985514402389526, -2.1904571056365967, 1.2394887208938599, 0.2416848987340927, 0.0970335602760315, 2.3186333179473877, 0.425571084022522, 0.16967545449733734, 0.2294805496931076, -0.5592166781425476, -1.228110909461975, 0.06795741617679596, -1.4915854249648408, -0.06990319943233203, 0.2366690555301967, 9362.0, 30146.0, 35388.0, 9362.0, 8.370248794555664, 0.47219714522361755, -0.612263560295105, 0.20328527688980103, -0.013748586177825928, -0.007918125949800014, 1.0002808570861816, -0.05404804274439812, -0.19191741943359375, 1.480224609375, 0.968994140625, 3.73797607421875, 1.49560546875
20398, -0.7995248436927795, -2.184406280517578, 1.2435864210128784, 0.2416848987340927, 0.0970335602760315, 2.3186333179473877, 0.425571084022522, 0.16967545449733734, 0.2294805496931076, -0.5591844916343689, -1.2280791997909546, 0.06793864816427231, -1.4708132411244126, -0.06037281380355353, 0.23145464625683748, 9362.0, 30146.0, 35388.0, 9362.0, 8.350414276123047, -0.054171133786439896, -0.1018509790301323, 0.21059657633304596, -0.01530095562338829, -0.00946098379790783, 0.99984210729599, -0.05404804274439812, -0.19191741943359375, 1.480224609375, 0.94775390625, 4.325836181640625, 1.49560546875
20408, -0.8008874654769897, -2.183586835861206, 1.2464749813079834, 0.2416848987340927, 0.0970335602760315, 2.3186333179473877, 0.425571084022522, 0.16967545449733734, 0.2294805496931076, -0.5591781735420227, -1.228080153465271, 0.06792605668306351, -1.4737719712887938, -0.05729677030683433, 0.23425521725321657, 9362.0, 30146.0, 35388.0, 9362.0, 8.350414276123047, -0.1522475630044937, -0.0030188129749149084, 0.2318185716867447, -0.01281107310205698, -0.009582865051925182, 0.9985268115997314, -0.05404804274439812, -0.19191741943359375, 1.480224609375, 0.94775390625, 4.325836181640625, 1.49560546875
20508, -0.8410665392875671, -2.213637351989746, 1.2641363143920898, 0.30015096068382263, 0.12032528966665268, 2.3484320640563965, 0.4739706516265869, 0.18882429599761963, 0.22897042334079742, -0.5591850280761719, -1.2280700206756592, 0.06792576611042023, -1.4695370514973043, -0.0575967267427302, 0.23901388418623418, 9362.0, 30146.0, 35388.0, 9362.0, 8.350414276123047, -0.06470049172639847, 0.14568568766117096, -0.29475846886634827, -0.01749318465590477, -0.013069944456219673, 1.0008996725082397, -0.05433064326643944, 0.05896186828613281, 1.500732421875, 1.112548828125, 1.1168670654296875, 1.4912109375
20518, -0.8420447111129761, -2.2135932445526123, 1.261182427406311, 0.30015096068382263, 0.12032528966665268, 2.3484320640563965, 0.4739706516265869, 0.18882429599761963, 0.22897042334079742, -0.5591787695884705, -1.228083610534668, 0.0679289698600769, -1.4698440164462565, -0.061275970733987606, 0.23769406021635608, 9362.0, 30146.0, 35388.0, 9362.0, 8.350414276123047, -0.06470049172639847, 0.14568568766117096, -0.29475846886634827, -0.018877249211072922, -0.013619638979434967, 1.000713586807251, -0.05433064326643944, 0.05896186828613281, 1.500732421875, 0.995361328125, 3.089141845703125, 1.4912109375
20528, -0.8422162532806396, -2.214611530303955, 1.2598572969436646, 0.30015096068382263, 0.12032528966665268, 2.3484320640563965, 0.4739706516265869, 0.18882429599761963, 0.22897042334079742, -0.5591822266578674, -1.2280731201171875, 0.06791111081838608, -1.473588524616258, -0.05162917225607089, 0.2405156829280569, 9362.0, 30146.0, 35388.0, 9362.0, 8.370248794555664, -0.08595304191112518, -0.10110384225845337, -0.12273196130990982, -0.018877249211072922, -0.013619638979434967, 1.000713586807251, -0.05433064326643944, 0.05896186828613281, 1.500732421875, 1.269287109375, 0.1081085205078125, 1.4912109375
20578, -0.8193668723106384, -2.2062699794769287, 1.2517151832580566, 0.3342495560646057, 0.13391590118408203, 2.3644492626190186, 0.5002889633178711, 0.19945834577083588, 0.22884918749332428, -0.5591754913330078, -1.2281196117401123, 0.06795638054609299, -1.456509396342058, -0.06274552418656754, 0.2237425653771396, 9362.0, 30146.0, 35388.0, 9362.0, 8.370248794555664, 0.42375448346138, -0.20302876830101013, -0.4125245213508606, -0.01713261753320694, -0.011716153472661972, 1.0006442070007324, -0.048640139400959015, -0.030637741088867188, 1.493408203125, 0.7763671875, 11.711318969726562, 1.4970703125
20628, -0.8013424873352051, -2.195939064025879, 1.253103494644165, 0.3545607626438141, 0.14201314747333527, 2.37359619140625, 0.515260636806488, 0.20538203418254852, 0.2284824252128601, -0.5591581463813782, -1.2280921936035156, 0.06794217973947525, -1.466991657858934, -0.05852890448625203, 0.2200852644330362, 9362.0, 30146.0, 35388.0, 9362.0, 8.370248794555664, 0.4697610139846802, -0.6189623475074768, -0.058080870658159256, -0.013606020249426365, -0.00823228806257248, 0.999458372592926, -0.026737993583083153, 0.12168121337890625, 1.505859375, 0.762451171875, 12.558395385742188, 1.4912109375
20638, -0.800406277179718, -2.1936776638031006, 1.2550854682922363, 0.3545607626438141, 0.14201314747333527, 2.37359619140625, 0.515260636806488, 0.20538203418254852, 0.2284824252128601, -0.5591573119163513, -1.2281043529510498, 0.06793677806854248, -1.4652467915428358, -0.05981819219775275, 0.2203219652827333, 9362.0, 30146.0, 35388.0, 9362.0, 8.350414276123047, 0.4697610139846802, -0.6189623475074768, -0.058080870658159256, -0.015788419172167778, -0.008610622026026249, 1.00068199634552, -0.026737993583083153, 0.12168121337890625, 1.505859375, 0.762451171875, 12.558395385742188, 1.4912109375
20658, -0.803299069404602, -2.1937286853790283, 1.2587751150131226, 0.3545607626438141, 0.14201314747333527, 2.37359619140625, 0.515260636806488, 0.20538203418254852, 0.2284824252128601, -0.559158980846405, -1.2281208038330078, 0.06800094246864319, -1.4499991223499011, -0.08106549138321384, 0.23405528419568403, 9362.0, 30146.0, 35388.0, 9362.0, 8.350414276123047, -0.33308279514312744, 0.10897500813007355, 0.3673744797706604, -0.015788419172167778, -0.008610622026026249, 1.00068199634552, -0.03661441057920456, -0.2994365692138672, 1.471435546875, 1.02392578125, 2.4796295166015625, 1.4912109375
20668, -0.8048264384269714, -2.1944620609283447, 1.2603899240493774, 0.3545607626438141, 0.14201314747333527, 2.37359619140625, 0.515260636806488, 0.20538203418254852, 0.2284824252128601, -0.559170126914978, -1.228108286857605, 0.06799337267875671, -1.454840133179521, -0.07292901105259375, 0.23482064271269096, 9362.0, 30146.0, 35388.0, 9362.0, 8.370248794555664, -0.33308279514312744, 0.10897500813007355, 0.3673744797706604, -0.015607901848852634, -0.01050092838704586, 1.002643346786499, -0.03661441057920456, -0.2994365692138672, 1.471435546875, 1.02392578125, 2.4796295166015625, 1.4912109375
20678, -0.8095787763595581, -2.1956515312194824, 1.2647393941879272, 0.3545607626438141, 0.14201314747333527, 2.37359619140625, 0.515260636806488, 0.20538203418254852, 0.2284824252128601, -0.5591657161712646, -1.2281134128570557, 0.0679796114563942, -1.4651808006170632, -0.08402369229398232, 0.2340815873352446, 9362.0, 30146.0, 35388.0, 9362.0, 8.370248794555664, -0.5470818877220154, 0.1866825371980667, 0.36998772621154785, -0.015607901848852634, -0.01050092838704586, 1.002643346786499, -0.03701510652899742, -0.01271820068359375, 1.494873046875, 1.02392578125, 2.4796295166015625, 1.4912109375
20708, -0.8250331878662109, -2.2032361030578613, 1.2811025381088257, 0.3545607626438141, 0.14201314747333527, 2.37359619140625, 0.515260636806488, 0.20538203418254852, 0.2284824252128601, -0.5591707825660706, -1.2281213998794556, 0.06800442188978195, -1.4561129058840532, -0.0900004325114594, 0.238101549234942, 9362.0, 30146.0, 35388.0, 9362.0, 8.370248794555664, -0.6288167834281921, 0.2781531810760498, 1.001468539237976, -0.015607901848852634, -0.01050092838704586, 1.002643346786499, -0.03335346654057503, -0.01271820068359375, 1.494873046875, 1.17919921875, 0.513763427734375, 1.493408203125
20718, -0.8311017751693726, -2.203943967819214, 1.2858778238296509, 0.3545607626438141, 0.14201314747333527, 2.37359619140625, 0.515260636806488, 0.20538203418254852, 0.2284824252128601, -0.5591633915901184, -1.2281184196472168, 0.06798800081014633, -1.4592408730206594, -0.08219230434195879, 0.23651976997136975, 9362.0, 30146.0, 35388.0, 9362.0, 8.370248794555664, -0.6288167834281921, 0.2781531810760498, 1.001468539237976, -0.018892619758844376, -0.014058591797947884, 0.9990817904472351, -0.03335346654057503, -0.01271820068359375, 1.494873046875, 1.078857421875, 1.5496978759765625, 1.493408203125
20728, -0.8343160152435303, -2.206982135772705, 1.2906855344772339, 0.3545607626438141, 0.14201314747333527, 2.37359619140625, 0.515260636806488, 0.20538203418254852, 0.2284824252128601, -0.5591719150543213, -1.2281105518341064, 0.06799837946891785, -1.4681473307842405, -0.08240818752835821, 0.24334104982976035, 9362.0, 30146.0, 35388.0, 9362.0, 8.370248794555664, -0.31338927149772644, 0.21356014907360077, 0.4939231872558594, -0.018892619758844376, -0.014058591797947884, 0.9990817904472351, -0.03335346654057503, -0.01271820068359375, 1.494873046875, 1.015869140625, 2.6421966552734375, 1.493408203125
20758, -0.8389585614204407, -2.210921049118042, 1.3024544715881348, 0.4246954917907715, 0.1699489951133728, 2.403257369995117, 0.5637646317481995, 0.22453665733337402, 0.22771303355693817, -0.5591807961463928, -1.2281203269958496, 0.0679914727807045, -1.456441955673134, -0.08013114653297748, 0.241982866535736, 9362.0, 30146.0, 35388.0, 9362.0, 8.370248794555664, -0.31338927149772644, 0.21356014907360077, 0.4939231872558594, -0.014936290681362152, -0.012450804933905602, 0.9974440336227417, -0.013851610012352467, 0.08584022521972656, 1.5029296875, 1.05615234375, 1.8980865478515625, 1.497802734375
20768, -0.8381727933883667, -2.2115395069122314, 1.3053669929504395, 0.4246954917907715, 0.1699489951133728, 2.403257369995117, 0.5637646317481995, 0.22453665733337402, 0.22771303355693817, -0.559179425239563, -1.2281250953674316, 0.06801498681306839, -1.4551593544235895, -0.08137374438382494, 0.2380902374657572, 9362.0, 30146.0, 35388.0, 9362.0, 8.370248794555664, 0.09368476271629333, 0.15318149328231812, 0.3082563281059265, -0.016811825335025787, -0.013586770743131638, 0.9999298453330994, -0.013851610012352467, 0.08584022521972656, 1.5029296875, 1.05615234375, 1.8980865478515625, 1.497802734375
20788, -0.8334493041038513, -2.212057590484619, 1.3086931705474854, 0.44754552841186523, 0.17905192077159882, 2.4123475551605225, 0.5787474513053894, 0.23061414062976837, 0.22696453332901, -0.5591800808906555, -1.2281253337860107, 0.068009153008461, -1.4527944907192347, -0.07866456845550829, 0.24156960112561796, 9362.0, 30146.0, 35388.0, 9362.0, 8.370248794555664, 0.09368476271629333, 0.15318149328231812, 0.3082563281059265, -0.017347294837236404, -0.012806381098926067, 0.9982300996780396, -0.013851610012352467, 0.08584022521972656, 1.5029296875, 1.288330078125, 0.0676116943359375, 1.497802734375
20798, -0.8321465253829956, -2.206148862838745, 1.306708574295044, 0.44754552841186523, 0.17905192077159882, 2.4123475551605225, 0.5787474513053894, 0.23061414062976837, 0.22696453332901, -0.5591822862625122, -1.2281265258789062, 0.0679892972111702, -1.4470994108257262, -0.07433274004725376, 0.24167124173284785, 9362.0, 30146.0, 35388.0, 9362.0, 8.370248794555664, 0.09368476271629333, 0.15318149328231812, 0.3082563281059265, -0.016834666952490807, -0.01437030266970396, 0.9997435808181763, -0.013851610012352467, 0.08584022521972656, 1.5029296875, 1.025390625, 2.45086669921875, 1.497802734375
20808, -0.8295639753341675, -2.2030951976776123, 1.3013067245483398, 0.44754552841186523, 0.17905192077159882, 2.4123475551605225, 0.5787474513053894, 0.23061414062976837, 0.22696453332901, -0.559174120426178, -1.2281367778778076, 0.06801962852478027, -1.4539111112374754, -0.0728929024678564, 0.2402684042858368, 9362.0, 30146.0, 35388.0, 9362.0, 8.370248794555664, 0.3937925100326538, -0.48366042971611023, -0.605334997177124, -0.01569031924009323, -0.012247663922607899, 1.0006464719772339, -0.013851610012352467, 0.08584022521972656, 1.5029296875, 1.025390625, 2.45086669921875, 1.497802734375
20848, -0.8182179927825928, -2.197577714920044, 1.2693567276000977, 0.4829448461532593, 0.19316093623638153, 2.425952434539795, 0.6012236475944519, 0.23966321349143982, 0.22706404328346252, -0.5591806769371033, -1.2281190156936646, 0.06799754500389099, -1.4584714538965016, -0.07308432749582039, 0.2382988685679631, 9362.0, 30146.0, 35388.0, 9362.0, 8.370248794555664, 0.3320103883743286, -0.18765389919281006, -0.8255490660667419, -0.013371167704463005, -0.01037598680704832, 1.001913070678711, -0.031842224299907684, 0.06792068481445312, 1.50146484375, 1.025390625, 2.45086669921875, 1.50146484375
20858, -0.8145163655281067, -2.1988208293914795, 1.258217692375183, 0.4829448461532593, 0.19316093623638153, 2.425952434539795, 0.6012236475944519, 0.23966321349143982, 0.22706404328346252, -0.5591745972633362, -1.22812020778656, 0.06798749417066574, -1.459816115893991, -0.07516860206297338, 0.24252336637672475, 9362.0, 30146.0, 35388.0, 9362.0, 8.370248794555664, 0.3320103883743286, -0.18765389919281006, -0.8255490660667419, -0.01599159650504589, -0.009364382363855839, 1.0008007287979126, -0.031842224299907684, 0.06792068481445312, 1.50146484375, 1.496337890625, 0.1883087158203125, 1.50146484375
20868, -0.8138962388038635, -2.2018725872039795, 1.2473552227020264, 0.4829448461532593, 0.19316093623638153, 2.425952434539795, 0.6012236475944519, 0.23966321349143982, 0.22706404328346252, -0.5591737031936646, -1.2281185388565063, 0.0679815411567688, -1.4541941717730043, -0.07886605483403741, 0.2339315118129368, 9362.0, 30146.0, 35388.0, 9362.0, 8.370248794555664, 0.3320103883743286, -0.18765389919281006, -0.8255490660667419, -0.016129089519381523, -0.009977624751627445, 1.0020058155059814, -0.031842224299907684, 0.06792068481445312, 1.50146484375, 1.496337890625, 0.1883087158203125, 1.4970703125
20908, -0.8173177242279053, -2.21378231048584, 1.2142078876495361, 0.5196914076805115, 0.207807719707489, 2.439591884613037, 0.6236796379089355, 0.2485453486442566, 0.22753532230854034, -0.5591530799865723, -1.2281259298324585, 0.06800046563148499, -1.4526899271879365, -0.08376858801813114, 0.23967968918299137, 9362.0, 30146.0, 35388.0, 9362.0, 8.370248794555664, 0.031506650149822235, 0.34811118245124817, -0.8343054056167603, -0.01682640053331852, -0.011193080805242062, 1.0021369457244873, -0.0448145866394043, -0.2546367645263672, 1.47509765625, 1.20263671875, 0.368988037109375, 1.494140625
20928, -0.8232307434082031, -2.2177703380584717, 1.2061965465545654, 0.5196914076805115, 0.207807719707489, 2.439591884613037, 0.6236796379089355, 0.2485453486442566, 0.22753532230854034, -0.5591657161712646, -1.2281196117401123, 0.06800315529108047, -1.4522072728291706, -0.07906029525562985, 0.23960765645510887, 9362.0, 30146.0, 35388.0, 9362.0, 8.370248794555664, 0.031506650149822235, 0.34811118245124817, -0.8343054056167603, -0.016209950670599937, -0.012013442814350128, 1.0004256963729858, -0.03220106288790703, -0.22775840759277344, 1.477294921875, 0.8818359375, 6.565155029296875, 1.493408203125
20938, -0.8250924348831177, -2.219261884689331, 1.2038922309875488, 0.5196914076805115, 0.207807719707489, 2.439591884613037, 0.6236796379089355, 0.2485453486442566, 0.22753532230854034, -0.5591753721237183, -1.228115200996399, 0.06800272315740585, -1.4614163669411542, -0.07617106605258073, 0.24615114254931322, 9362.0, 30146.0, 35388.0, 9362.0, 8.370248794555664, 0.031506650149822235, 0.34811118245124817, -0.8343054056167603, -0.014747618697583675, -0.013029604218900204, 1.0010645389556885, -0.03220106288790703, -0.22775840759277344, 1.477294921875, 1.244384765625, 0.18212890625, 1.493408203125
20998, -0.8371966481208801, -2.218392848968506, 1.2368154525756836, 0.5773470401763916, 0.23077957332134247, 2.4600753784179688, 0.6575827598571777, 0.26200181245803833, 0.22761423885822296, -0.5591995120048523, -1.2281070947647095, 0.06800631433725357, -1.4633585363863741, -0.05922557610224999, 0.24258614033112783, 9362.0, 30146.0, 35388.0, 9362.0, 8.370248794555664, -0.04897010698914528, -0.09075918793678284, 0.8187880516052246, -0.017287304624915123, -0.014412800781428814, 1.0013253688812256, -0.049552321434020996, -0.0037593841552734375, 1.49560546875, 1.20849609375, 0.3375701904296875, 1.4912109375
21018, -0.8373070955276489, -2.216830015182495, 1.2531288862228394, 0.5905740261077881, 0.23604989051818848, 2.464625597000122, 0.665111780166626, 0.2650304436683655, 0.22736355662345886, -0.5592056512832642, -1.2281136512756348, 0.0679982379078865, -1.4612562284373511, -0.060398767297073164, 0.23938229534054123, 9362.0, 30146.0, 35388.0, 9362.0, 8.350414276123047, -0.2797524631023407, -0.012558397836983204, 0.9943580031394958, -0.017287304624915123, -0.014412800781428814, 1.0013253688812256, -0.06077159196138382, -0.1650371551513672, 1.482421875, 0.825439453125, 9.051254272460938, 1.4912109375
21028, -0.8367404937744141, -2.2165706157684326, 1.2619526386260986, 0.5905740261077881, 0.23604989051818848, 2.464625597000122, 0.665111780166626, 0.2650304436683655, 0.22736355662345886, -0.559217095375061, -1.2281063795089722, 0.06801629811525345, -1.459035477162914, -0.05813625233341213, 0.2405314666285684, 9362.0, 30146.0, 35388.0, 9362.0, 8.350414276123047, -0.2797524631023407, -0.012558397836983204, 0.9943580031394958, -0.017187483608722687, -0.012601356953382492, 1.0010449886322021, -0.06077159196138382, -0.1650371551513672, 1.482421875, 0.825439453125, 9.051254272460938, 1.493408203125
21038, -0.8344037532806396, -2.21504545211792, 1.2648957967758179, 0.5905740261077881, 0.23604989051818848, 2.464625597000122, 0.665111780166626, 0.2650304436683655, 0.22736355662345886, -0.5592095851898193, -1.2281160354614258, 0.068028025329113, -1.448773930288004, -0.0630943501610659, 0.23765694886433236, 9362.0, 30146.0, 35388.0, 9362.0, 8.350414276123047, -0.2797524631023407, -0.012558397836983204, 0.9943580031394958, -0.01875981315970421, -0.01408851332962513, 1.0000568628311157, -0.06077159196138382, -0.1650371551513672, 1.482421875, 1.39599609375, 0.0362701416015625, 1.493408203125
21068, -0.8286986351013184, -2.208096742630005, 1.2680565118789673, 0.5905740261077881, 0.23604989051818848, 2.464625597000122, 0.665111780166626, 0.2650304436683655, 0.22736355662345886, -0.5592336654663086, -1.228110909461975, 0.0680137574672699, -1.457092426116601, -0.05125601248144562, 0.23660454298212408, 9362.0, 30146.0, 35388.0, 9362.0, 8.370248794555664, 0.265761137008667, 0.029757170006632805, -0.004013859201222658, -0.015545228496193886, -0.01313989982008934, 1.0007786750793457, -0.021833250299096107, -0.01271820068359375, 1.494873046875, 0.999755859375, 2.9892425537109375, 1.493408203125
21108, -0.8237918615341187, -2.2064998149871826, 1.248363733291626, 0.6519566178321838, 0.26051563024520874, 2.4850730895996094, 0.698896586894989, 0.2786111533641815, 0.2268347442150116, -0.5592358708381653, -1.2281053066253662, 0.06800084561109543, -1.458849430653664, -0.04187729082093483, 0.2409161212732903, 9362.0, 30146.0, 35388.0, 9362.0, 8.370248794555664, 0.10208503901958466, -0.03589837998151779, -0.7519931197166443, -0.015545228496193886, -0.01313989982008934, 1.0007786750793457, -0.026702474802732468, -0.04855918884277344, 1.491943359375, 0.999755859375, 2.9892425537109375, 1.4970703125
21128, -0.824483335018158, -2.206869602203369, 1.2332100868225098, 0.6519566178321838, 0.26051563024520874, 2.4850730895996094, 0.698896586894989, 0.2786111533641815, 0.2268347442150116, -0.5592285990715027, -1.2281036376953125, 0.0680314153432846, -1.4644039272260359, -0.0378000005707122, 0.24149821635207752, 9362.0, 30146.0, 35388.0, 9362.0, 8.370248794555664, 0.10208503901958466, -0.03589837998151779, -0.7519931197166443, -0.0156706590205431, -0.010398277081549168, 0.9998968243598938, -0.026471158489584923, -0.030637741088867188, 1.493408203125, 0.861328125, 7.4035491943359375, 1.4970703125
21148, -0.8243032693862915, -2.2057862281799316, 1.2186954021453857, 0.6802123188972473, 0.27177953720092773, 2.4941439628601074, 0.7138845324516296, 0.2845807373523712, 0.22655627131462097, -0.5592377185821533, -1.2281023263931274, 0.06802632659673691, -1.463623078723185, -0.03632834875773483, 0.23438049369007746, 9362.0, 30146.0, 35388.0, 9362.0, 8.350414276123047, 0.02888341061770916, -0.07586587220430374, -0.9394339323043823, -0.01771186850965023, -0.008961805142462254, 0.9969155788421631, -0.026471158489584923, -0.030637741088867188, 1.493408203125, 1.25830078125, 0.137664794921875, 1.4970703125
21158, -0.8245247602462769, -2.210392713546753, 1.2134554386138916, 0.6802123188972473, 0.27177953720092773, 2.4941439628601074, 0.7138845324516296, 0.2845807373523712, 0.22655627131462097, -0.5592323541641235, -1.2281246185302734, 0.06801316142082214, -1.4596736341971406, -0.04334717518850084, 0.23151985376378978, 9362.0, 30146.0, 35388.0, 9362.0, 8.370248794555664, 0.02888341061770916, -0.07586587220430374, -0.9394339323043823, -0.01771186850965023, -0.008961805142462254, 0.9969155788421631, -0.026471158489584923, -0.030637741088867188, 1.493408203125, 1.064208984375, 1.7689361572265625, 1.4970703125
21168, -0.8245932459831238, -2.2119202613830566, 1.2083406448364258, 0.6802123188972473, 0.27177953720092773, 2.4941439628601074, 0.7138845324516296, 0.2845807373523712, 0.22655627131462097, -0.5592471957206726, -1.2281028032302856, 0.06801561266183853, -1.4677773726430554, -0.034509270930414004, 0.23752930956949947, 9362.0, 30146.0, 35388.0, 9362.0, 8.370248794555664, 0.02888341061770916, -0.07586587220430374, -0.9394339323043823, -0.016254454851150513, -0.011124266311526299, 1.0007530450820923, -0.026471158489584923, -0.030637741088867188, 1.493408203125, 1.064208984375, 1.7689361572265625, 1.4970703125
21188, -0.8259864449501038, -2.215877056121826, 1.2051241397857666, 0.7090670466423035, 0.28328192234039307, 2.503190279006958, 0.7288784384727478, 0.29054364562034607, 0.2261422872543335, -0.5592527985572815, -1.228103756904602, 0.06803273409605026, -1.4672812333099723, -0.029238823985167528, 0.23752138526924935, 9362.0, 30146.0, 35388.0, 9362.0, 8.370248794555664, 0.02888341061770916, -0.07586587220430374, -0.9394339323043823, -0.01784689351916313, -0.012202080339193344, 1.0006437301635742, -0.026471158489584923, -0.030637741088867188, 1.493408203125, 1.138916015625, 0.84124755859375, 1.4970703125
21198, -0.8264099955558777, -2.219059944152832, 1.2058043479919434, 0.7090670466423035, 0.28328192234039307, 2.503190279006958, 0.7288784384727478, 0.29054364562034607, 0.2261422872543335, -0.5592575669288635, -1.2280997037887573, 0.06802001595497131, -1.4648216334938349, -0.025260082865173672, 0.23630764038236415, 9362.0, 30146.0, 35388.0, 9362.0, 8.350414276123047, 0.045725155621767044, 0.28410664200782776, 0.01511831022799015, -0.018570011481642723, -0.01083138957619667, 0.9994306564331055, -0.026471158489584923, -0.030637741088867188, 1.493408203125, 1.138916015625, 0.84124755859375, 1.494873046875
