timeTick, roll, pitch, yaw, stateX, stateY, stateZ, stateVX, stateVY, stateVZ, otX0, otY0, otZ0, otRoll0, otPitch0, otYaw0, left wing, pitch motor, yaw motor, right wing, voltage, roll rate, pitch rate, yaw rate, A_x, A_y, A_z, current, i_raw, v_raw, airflow_voltage, airflow_speed, pot_Pitch
24751, 2.564002752304077, -3.675361394882202, -1.009533405303955, 0, 0, 0, 0, 0, 0, -0.6767165660858154, -1.015660285949707, 0.07044713944196701, 0.09552894946774272, -0.8142839802408446, 8.407961120583938, 0, 0, 0, 0, 0, 0, 0, 0, 0, 0, 0, 0, 0, 0, 0, 0, 0
24761, 2.5645182132720947, -3.6777985095977783, -1.0091683864593506, -0.00019795230764430016, 0.00014370304415933788, -4.18989372253418, -0.01670021004974842, 0.01212373934686184, -0.36163973808288574, -0.6767303943634033, -1.0156536102294922, 0.0704430341720581, 0.09528060175623301, -0.8132958693804824, 8.405264763338815, 9362.0, 30146.0, 35388.0, 9362.0, 8.350414276123047, 0.11170084029436111, 0.34021079540252686, 0.10389623790979385, -0.03129754960536957, 0.014282510615885258, 1.0003137588500977, -0.038818564265966415, -0.0037593841552734375, 1.49560546875, 0.83203125, 8.73065185546875, 0
24771, 2.564664363861084, -3.6776928901672363, -1.0108891725540161, -0.0003338974202051759, 0.0002424206759314984, -4.193511009216309, -0.010488790459930897, 0.007619824260473251, -0.36182183027267456, -0.6767221093177795, -1.0156545639038086, 0.07045727223157883, 0.09592934492244053, -0.815789636061794, 8.412204480945201, 9362.0, 30146.0, 35388.0, 9362.0, 8.350414276123047, 0.10058791935443878, -0.08041147142648697, -0.10156639665365219, -0.030850956216454506, 0.012578031048178673, 0.9998670816421509, -0.03202046453952789, -0.05751800537109375, 1.4912109375, 0.01171875, 168.07713317871094, 1.493408203125
24781, 2.565734624862671, -3.6769161224365234, -1.0123425722122192, -0.0004077415796928108, 0.0002961193094961345, -4.1971306800842285, -0.004280170891433954, 0.003119718050584197, -0.36211147904396057, -0.6767374277114868, -1.0156538486480713, 0.07045435905456543, 0.09937610535777354, -0.8199449770812066, 8.410932051844112, 9362.0, 30146.0, 35388.0, 9362.0, 8.350414276123047, -0.205409437417984, -0.07778266072273254, -0.2947598993778229, -0.029056917876005173, 0.014524002559483051, 1.0005860328674316, -0.036055829375982285, 0.0052013397216796875, 1.496337890625, 0.005126953125, 170.88377380371094, 1.493408203125
24791, 2.5649807453155518, -3.677109479904175, -1.0109553337097168, -0.0004195054934825748, 0.00030481789144687355, -4.200753211975098, 0.0019272712524980307, -0.0013801646418869495, -0.36241480708122253, -0.6767331957817078, -1.0156632661819458, 0.07044415920972824, 0.0996883826058679, -0.8160718183204949, 8.408189313300008, 9362.0, 30146.0, 35388.0, 9362.0, 8.350414276123047, -0.1405174732208252, -0.25095662474632263, 0.11743324995040894, -0.029362231492996216, 0.015522602014243603, 1.0004241466522217, -0.03702646493911743, -0.08439826965332031, 1.489013671875, 0.0205078125, 164.3885955810547, 1.49267578125
24801, 2.5633645057678223, -3.6747307777404785, -1.0106664896011353, -0.00036917938268743455, 0.00026849115965887904, -4.204378604888916, 0.008138058707118034, -0.005885032471269369, -0.3626457154750824, -0.6767256855964661, -1.015652060508728, 0.07045473903417587, 0.09723196365591576, -0.8160067723561042, 8.410308306483726, 9362.0, 30146.0, 35388.0, 9362.0, 8.350414276123047, -0.171339750289917, -0.17437265813350677, -0.2331750988960266, -0.029081212356686592, 0.013750236481428146, 0.9988085627555847, -0.04205859452486038, -0.0037593841552734375, 1.49560546875, 0.015380859375, 166.53282165527344, 1.491943359375
24811, 2.5632193088531494, -3.6762304306030273, -1.0106637477874756, -0.0002567650517448783, 0.00018713883764576167, -4.208006381988525, 0.014344843104481697, -0.010385395959019661, -0.3629455268383026, -0.6767265796661377, -1.0156570672988892, 0.07045577466487885, 0.10354827568795547, -0.8156637391006711, 8.412341740332513, 9362.0, 30146.0, 35388.0, 9362.0, 8.350414276123047, -0.0937507227063179, 0.1172163337469101, 0.09243912249803543, -0.0330975279211998, 0.015212226659059525, 0.9996517896652222, -0.05057932063937187, -0.27255821228027344, 1.4736328125, 0.01171875, 168.07713317871094, 1.489013671875
24821, 2.5629584789276123, -3.676482677459717, -1.010928750038147, -8.234604320023209e-05, 6.082859181333333e-05, -4.2116379737854, 0.020538944751024246, -0.014876654371619225, -0.36338189244270325, -0.6767408847808838, -1.0156322717666626, 0.07043829560279846, 0.08211647810068065, -0.7988205835761732, 8.412006784765115, 9362.0, 30146.0, 35388.0, 9362.0, 8.350414276123047, 0.01796082593500614, 0.12201866507530212, 0.2642313838005066, -0.03148012235760689, 0.014578651636838913, 1.0005950927734375, -0.04924919083714485, 0.014162063598632812, 1.4970703125, 0.01171875, 168.07713317871094, 1.493408203125
24831, 2.56421160697937, -3.67590594291687, -1.0123741626739502, 0.00015408422041218728, -0.00011043480481021106, -4.215272903442383, 0.0267470870167017, -0.019376058131456375, -0.3636372983455658, -0.6767361760139465, -1.015654444694519, 0.0704502984881401, 0.09674932212025643, -0.813540475870127, 8.411104114956574, 9362.0, 30146.0, 35388.0, 9362.0, 8.350414276123047, 0.12604275345802307, 0.04613533243536949, -0.04394523799419403, -0.03084496594965458, 0.014441102743148804, 1.0005927085876465, -0.04770175367593765, -0.03959846496582031, 1.49267578125, 0.028564453125, 161.06076049804688, 1.493408203125
24841, 2.5651345252990723, -3.6749343872070312, -1.0100128650665283, 0.0004525884287431836, -0.00032668327912688255, -4.2189106941223145, 0.032953642308712006, -0.023873796686530113, -0.3639228045940399, -0.6767220497131348, -1.0156539678573608, 0.07047004252672195, 0.09531000293389129, -0.8089188430820116, 8.4058311859355, 9362.0, 30146.0, 35388.0, 9362.0, 8.350414276123047, 0.2535994052886963, 0.22426708042621613, 0.2303091138601303, -0.029735293239355087, 0.014890037477016449, 1.0003044605255127, -0.053150475025177, -0.20087814331054688, 1.4794921875, 0.0087890625, 169.32025146484375, 1.494873046875
24851, 2.5649161338806152, -3.6750171184539795, -1.0111225843429565, 0.0008131665526889265, -0.0005879307864233851, -4.222551345825195, 0.03916216641664505, -0.028375452384352684, -0.3641638457775116, -0.6767370104789734, -1.0156614780426025, 0.07045663148164749, 0.09931185706534172, -0.8139719890913284, 8.413896539267741, 9362.0, 30146.0, 35388.0, 9362.0, 8.350414276123047, -0.10168008506298065, -0.1888602375984192, -0.11875873059034348, -0.02869080752134323, 0.012351837009191513, 0.9992085099220276, -0.053219787776470184, -0.0037593841552734375, 1.49560546875, 0.110595703125, 129.9632110595703, 1.496337890625
24861, 2.564452886581421, -3.674398183822632, -1.0112061500549316, 0.001235796371474862, -0.0008941823616623878, -4.226194381713867, 0.04536370187997818, -0.03287499025464058, -0.3644872009754181, -0.6767255663871765, -1.0156546831130981, 0.07044781744480133, 0.1000685554597535, -0.8118686238025532, 8.416812331358177, 9362.0, 30146.0, 35388.0, 9362.0, 8.350414276123047, 0.09984294325113297, 0.11739140748977661, 0.12589381635189056, -0.029808733612298965, 0.013118824921548367, 0.9987867474555969, -0.05132590979337692, -0.01271820068359375, 1.494873046875, 2.24560546875, 6.6890106201171875, 1.493408203125
24871, 2.5641071796417236, -3.6740903854370117, -1.010298490524292, 0.001720433123409748, -0.001245421706698835, -4.229841232299805, 0.05156363546848297, -0.0373728983104229, -0.3648380935192108, -0.6767578125, -1.015636920928955, 0.07046577334403992, 0.08074847077775689, -0.8006166074482906, 8.413743041823897, 9362.0, 30146.0, 35388.0, 9362.0, 8.350414276123047, -0.028856797143816948, -0.07022619247436523, -0.12553927302360535, -0.03234885632991791, 0.013621829450130463, 0.9980326294898987, -0.05350930243730545, -0.03959846496582031, 1.49267578125, 1.740234375, 0.7806243896484375, 1.49267578125
24881, 2.5653326511383057, -3.675166606903076, -1.0110279321670532, 0.0022670249454677105, -0.0016416078433394432, -4.233491897583008, 0.05775477737188339, -0.041864216327667236, -0.36531203985214233, -0.6767207980155945, -1.0156506299972534, 0.07045544683933258, 0.10229970581518738, -0.8150838773310909, 8.413647324090228, 9362.0, 30146.0, 35388.0, 9362.0, 8.350414276123047, 0.0014676550636067986, 0.28143173456192017, 0.12368691712617874, -0.031051451340317726, 0.012087436392903328, 0.9994215965270996, -0.04967720806598663, -0.04855918884277344, 1.491943359375, 1.931396484375, 1.6126708984375, 1.4912109375
24891, 2.5644278526306152, -3.676408052444458, -1.0084179639816284, 0.0028755394741892815, -0.0020827134139835835, -4.237147331237793, 0.06394804269075394, -0.04635699838399887, -0.3657434582710266, -0.6767545938491821, -1.015636920928955, 0.07046230882406235, 0.08343986997875223, -0.8073363559508095, 8.41552561982735, 9362.0, 30146.0, 35388.0, 9362.0, 8.350414276123047, 0.1832486391067505, 0.3281733989715576, 0.5379570722579956, -0.03262021765112877, 0.012507069855928421, 0.999165415763855, -0.03131154552102089, 0.12168121337890625, 1.505859375, 1.19384765625, 0.419647216796875, 1.494140625
24901, 2.5653235912323, -3.6767919063568115, -1.0055139064788818, 0.0035460107028484344, -0.002568769035860896, -4.240806579589844, 0.07014639675617218, -0.05085384100675583, -0.3661264181137085, -0.6767270565032959, -1.0156646966934204, 0.07045933604240417, 0.10179056565603649, -0.8172612362328948, 8.421304319974086, 9362.0, 30146.0, 35388.0, 9362.0, 8.350414276123047, -0.08308106660842896, -0.027672024443745613, 0.06623046845197678, -0.032777778804302216, 0.01588752306997776, 1.0008139610290527, -0.03389812633395195, -0.12023735046386719, 1.486083984375, 0.879638671875, 6.6515655517578125, 1.491943359375
24911, 2.565382242202759, -3.6782588958740234, -1.005398154258728, 0.004278494976460934, -0.003099797060713172, -4.24446964263916, 0.07635071128606796, -0.055351465940475464, -0.3664530813694, -0.6767426133155823, -1.01564359664917, 0.07045698165893555, 0.07925343482411194, -0.8028719809791767, 8.412288857207846, 9362.0, 30146.0, 35388.0, 9362.0, 8.350414276123047, 0.08528715372085571, -0.0863293707370758, -0.030384674668312073, -0.03214455023407936, 0.016533518210053444, 0.998432993888855, -0.03048541396856308, -0.06647872924804688, 1.490478515625, 1.9423828125, 1.687530517578125, 1.49267578125
24921, 2.564119815826416, -3.6769168376922607, -1.0044853687286377, 0.005073037464171648, -0.0036758154164999723, -4.248135566711426, 0.0825577899813652, -0.059852175414562225, -0.366746187210083, -0.6767335534095764, -1.015640377998352, 0.07047029584646225, 0.08007843326872151, -0.8017794101155857, 8.415362699579333, 9362.0, 30146.0, 35388.0, 9362.0, 8.350414276123047, -0.21261683106422424, -0.05290388688445091, -0.010461213067173958, -0.031229034066200256, 0.01456004660576582, 1.0004785060882568, -0.033372797071933746, 0.023120880126953125, 1.497802734375, 1.91748046875, 1.5238037109375, 1.493408203125
24931, 2.564711093902588, -3.675448417663574, -1.004663109779358, 0.005929633043706417, -0.004296819679439068, -4.251804828643799, 0.08876147866249084, -0.06434857100248337, -0.36713340878486633, -0.6767460703849792, -1.0156348943710327, 0.07045559585094452, 0.0840259979067459, -0.8000507809397277, 8.412238102633843, 9362.0, 30146.0, 35388.0, 9362.0, 8.350414276123047, 0.06162891536951065, -0.05799245089292526, 0.23741957545280457, -0.031160542741417885, 0.015570244751870632, 0.9997454881668091, -0.0294495802372694, -0.18295860290527344, 1.48095703125, 1.0634765625, 1.780426025390625, 1.48828125
24941, 2.5646984577178955, -3.677638292312622, -1.0027602910995483, 0.0068482873030006886, -0.004962799604982138, -4.255477428436279, 0.09496932476758957, -0.06884746253490448, -0.36741918325424194, -0.6767330765724182, -1.0156288146972656, 0.07048246264457703, 0.07993300619554097, -0.8087543104944359, 8.420443037998908, 9362.0, 30146.0, 35388.0, 9362.0, 8.350414276123047, -0.2316548377275467, 0.32383933663368225, -0.13113640248775482, -0.02753506228327751, 0.015176529064774513, 0.9997554421424866, -0.021980341523885727, 0.10376167297363281, 1.50439453125, 1.92626953125, 1.579315185546875, 1.4912109375
24951, 2.563654661178589, -3.678877592086792, -1.0030338764190674, 0.007828986272215843, -0.005673758219927549, -4.259153366088867, 0.101170614361763, -0.07334409654140472, -0.3677709698677063, -0.6767251491546631, -1.0156514644622803, 0.07044622302055359, 0.09980696617768346, -0.8084839658120018, 8.409609514620653, 9362.0, 30146.0, 35388.0, 9362.0, 8.350414276123047, -0.24414268136024475, -0.35545143485069275, -0.25757476687431335, -0.029781872406601906, 0.015350157395005226, 1.0004116296768188, -0.01833431050181389, 0.08584022521972656, 1.5029296875, 0.99462890625, 3.105987548828125, 1.49560546875
24961, 2.5641560554504395, -3.6782824993133545, -1.0030040740966797, 0.008871755562722683, -0.006429709959775209, -4.262832164764404, 0.10738315433263779, -0.07784625142812729, -0.3680039942264557, -0.6767323613166809, -1.0156362056732178, 0.07046135514974594, 0.08073679153704791, -0.8031992189595485, 8.409612650092637, 9362.0, 30146.0, 35388.0, 9362.0, 8.350414276123047, 0.04523225501179695, 0.1730777770280838, 0.06124264746904373, -0.03019440546631813, 0.015436524525284767, 0.9995476007461548, -0.02750498801469803, -0.06647872924804688, 1.490478515625, 0.615234375, 24.476531982421875, 1.49267578125
24971, 2.5626938343048096, -3.678245782852173, -1.0022052526474, 0.009976622648537159, -0.007230646908283234, -4.266513824462891, 0.11359019577503204, -0.08234111219644547, -0.3683576285839081, -0.6767315864562988, -1.0156599283218384, 0.07045464962720871, 0.09986094015088441, -0.8171048798094205, 8.414376213931705, 9362.0, 30146.0, 35388.0, 9362.0, 8.350414276123047, -0.07424605637788773, -0.0007487252005375922, -0.09743739664554596, -0.0294046550989151, 0.01508050225675106, 1.0009256601333618, -0.02238527685403824, 0.014162063598632812, 1.4970703125, 1.14697265625, 0.7671356201171875, 1.49267578125
24981, 2.5629124641418457, -3.6773250102996826, -1.000968098640442, 0.011143575422465801, -0.008076551370322704, -4.270198822021484, 0.11980047076940536, -0.08683976531028748, -0.36864545941352844, -0.6767242550849915, -1.015661597251892, 0.07048968225717545, 0.09525165718433866, -0.8150646669826358, 8.402473242811746, 9362.0, 30146.0, 35388.0, 9362.0, 8.350414276123047, -0.018029196187853813, -0.013857711106538773, 0.09660892933607101, -0.02944234572350979, 0.015069438144564629, 1.0002573728561401, -0.01786341518163681, -0.030637741088867188, 1.493408203125, 1.743896484375, 0.79156494140625, 1.49267578125
24991, 2.562997579574585, -3.6762542724609375, -1.0011893510818481, 0.012372649274766445, -0.008967442438006401, -4.273886203765869, 0.12601441144943237, -0.0913383811712265, -0.3688764274120331, -0.6767458319664001, -1.0156373977661133, 0.0704399049282074, 0.08164901324365612, -0.8085471355097411, 8.415921349537397, 9362.0, 30146.0, 35388.0, 9362.0, 8.350414276123047, 0.022055476903915405, 0.17263130843639374, 0.1509411334991455, -0.03175809979438782, 0.0157303586602211, 0.9987152218818665, -0.02523196116089821, 0.023120880126953125, 1.497802734375, 1.6728515625, 0.59674072265625, 1.49267578125
25001, 2.562889337539673, -3.677229404449463, -1.0012930631637573, 0.013663815334439278, -0.009903292171657085, -4.277576923370361, 0.13221873342990875, -0.09583155810832977, -0.3692336976528168, -0.6767226457595825, -1.015655279159546, 0.07047419250011444, 0.09861865534836517, -0.8191300812997611, 8.413090356879149, 9362.0, 30146.0, 35388.0, 9362.0, 8.350414276123047, 0.08063952624797821, 0.21179163455963135, 0.340385377407074, -0.031236611306667328, 0.016155602410435677, 1.0004684925079346, -0.028062328696250916, 0.03208160400390625, 1.49853515625, 0.593994140625, 26.70428466796875, 1.49267578125
25011, 2.563533067703247, -3.6792540550231934, -0.9999974966049194, 0.015017012134194374, -0.010884071700274944, -4.281270980834961, 0.13842056691646576, -0.10032440721988678, -0.36960089206695557, -0.6767250895500183, -1.015651822090149, 0.07045647501945496, 0.09723170417569846, -0.8180451410904936, 8.413661426697878, 9362.0, 30146.0, 35388.0, 9362.0, 8.350414276123047, 0.1371215432882309, 0.2169637233018875, 0.022364789620041847, -0.03020389936864376, 0.013753465376794338, 0.9991149306297302, -0.03723394125699997, -0.11127853393554688, 1.48681640625, 1.70947265625, 0.693572998046875, 1.493408203125
25021, 2.5630195140838623, -3.679504632949829, -0.9997079372406006, 0.016432275995612144, -0.011909808032214642, -4.284968376159668, 0.1446322500705719, -0.1048227921128273, -0.3698413372039795, -0.676734983921051, -1.0156384706497192, 0.07045554369688034, 0.07955974178289943, -0.8042521228836108, 8.409555455665908, 9362.0, 30146.0, 35388.0, 9362.0, 8.350414276123047, 0.21368977427482605, 0.20260688662528992, 0.10469845682382584, -0.029318267479538918, 0.015429982915520668, 0.9978303909301758, -0.04202701151371002, -0.030637741088867188, 1.493408203125, 1.111083984375, 1.133758544921875, 1.49560546875
25031, 2.562621831893921, -3.6802778244018555, -1.0010491609573364, 0.01790960505604744, -0.012980484403669834, -4.288669109344482, 0.15083375573158264, -0.10931245237588882, -0.37029582262039185, -0.6767303943634033, -1.015632152557373, 0.07046020030975342, 0.08744411050286008, -0.7977327356135788, 8.419806290626406, 9362.0, 30146.0, 35388.0, 9362.0, 8.350414276123047, -0.1391986459493637, -0.1420518159866333, -0.18579943478107452, -0.02935301885008812, 0.015782151371240616, 0.9998860359191895, -0.031724609434604645, 0.10376167297363281, 1.50439453125, 1.675048828125, 0.6022186279296875, 1.493408203125
25041, 2.5629091262817383, -3.680523157119751, -1.0013701915740967, 0.019448956474661827, -0.01409605611115694, -4.292374134063721, 0.15703657269477844, -0.11380209773778915, -0.37073618173599243, -0.6767399311065674, -1.0156327486038208, 0.07045618444681168, 0.082180240021248, -0.8049525816508094, 8.412615921844864, 9362.0, 30146.0, 35388.0, 9362.0, 8.350414276123047, 0.25826743245124817, 0.2523350417613983, -0.030257180333137512, -0.030735038220882416, 0.014119227416813374, 1.0016534328460693, -0.040431421250104904, -0.2994365692138672, 1.471435546875, 1.847900390625, 1.1621246337890625, 1.487548828125
25051, 2.5627641677856445, -3.6843247413635254, -1.0023672580718994, 0.021050414070487022, -0.01525657344609499, -4.296082496643066, 0.16325503587722778, -0.11830147355794907, -0.3709501624107361, -0.6767284870147705, -1.0156530141830444, 0.07045073062181473, 0.09760439891896398, -0.8128374315189433, 8.410872695859158, 9362.0, 30146.0, 35388.0, 9362.0, 8.350414276123047, -0.22005240619182587, 0.40825116634368896, -0.05078096315264702, -0.03125118836760521, 0.015648052096366882, 0.9994064569473267, -0.03947680816054344, -0.06647872924804688, 1.490478515625, 1.7666015625, 0.861114501953125, 1.493408203125
25061, 2.5632164478302, -3.685248374938965, -1.0008424520492554, 0.02271406166255474, -0.016462089493870735, -4.299793243408203, 0.16947422921657562, -0.1228017508983612, -0.3711584210395813, -0.6767457127571106, -1.0156421661376953, 0.07046400755643845, 0.07828993202197625, -0.7986047161850536, 8.41446658170937, 9362.0, 30146.0, 35388.0, 9362.0, 8.350414276123047, 0.22171394526958466, -0.2692575752735138, -0.2867504358291626, -0.030902182683348656, 0.014594261534512043, 1.0002021789550781, -0.0296640582382679, -0.05751800537109375, 1.4912109375, 0.971923828125, 3.66156005859375, 1.493408203125
25091, 2.564444065093994, -3.6809568405151367, -1.0019636154174805, 0.02622787095606327, -0.019007986411452293, -4.307223796844482, 0.18190987408161163, -0.13178980350494385, -0.3718511164188385, -0.6767326593399048, -1.0156524181365967, 0.07046282291412354, 0.09777265896064283, -0.814676381772415, 8.412822014674434, 9362.0, 30146.0, 35388.0, 9362.0, 8.350414276123047, 0.08614005148410797, 0.006962574552744627, 0.04983517900109291, -0.02933727391064167, 0.016464151442050934, 0.9990183711051941, -0.026394501328468323, 0.06792068481445312, 1.50146484375, 1.1953125, 0.4109344482421875, 1.5
25111, 2.5640416145324707, -3.6782381534576416, -1.0035821199417114, 0.031964730471372604, -0.023163827136158943, -4.318397521972656, 0.2005416601896286, -0.1452668458223343, -0.3730807602405548, -0.6767380833625793, -1.0156391859054565, 0.07047146558761597, 0.08243920578783814, -0.8060757854312612, 8.418046942622928, 9362.0, 30146.0, 35388.0, 9362.0, 8.350414276123047, 0.08614005148410797, 0.006962574552744627, 0.04983517900109291, -0.028663668781518936, 0.016760865226387978, 1.0004507303237915, -0.03519605100154877, -0.06647872924804688, 1.490478515625, 0.925048828125, 5.0232696533203125, 1.5
25131, 2.5655014514923096, -3.677969217300415, -1.001671314239502, 0.0340011864900589, -0.024638967588543892, -4.32213020324707, 0.2067490965127945, -0.14976154267787933, -0.3734697699546814, -0.6767326593399048, -1.0156290531158447, 0.0704551488161087, 0.08270643918920695, -0.8044022317475594, 8.412949264275426, 9362.0, 30146.0, 35388.0, 9362.0, 8.350414276123047, 0.0800795629620552, -0.055333204567432404, 0.152677983045578, -0.0306002926081419, 0.014974274672567844, 1.0002912282943726, -0.03420265391469002, -0.01271820068359375, 1.494873046875, 0.925048828125, 5.0232696533203125, 1.5
25141, 2.5666072368621826, -3.6770172119140625, -1.0010539293289185, 0.0340011864900589, -0.024638967588543892, -4.32213020324707, 0.2067490965127945, -0.14976154267787933, -0.3734697699546814, -0.6767133474349976, -1.0156538486480713, 0.070467509329319, 0.09642388181526361, -0.8162988172800567, 8.41288453440342, 9362.0, 30146.0, 35388.0, 9362.0, 8.350414276123047, 0.0800795629620552, -0.055333204567432404, 0.152677983045578, -0.031350214034318924, 0.015367801301181316, 0.9998767375946045, -0.03420265391469002, -0.01271820068359375, 1.494873046875, 0.925048828125, 5.0232696533203125, 1.5
25191, 2.566197395324707, -3.6755969524383545, -0.9997233152389526, 0.04999570548534393, -0.03622548282146454, -4.348330974578857, 0.2502349019050598, -0.18128865957260132, -0.3750957250595093, -0.676726222038269, -1.0156657695770264, 0.07046905905008316, 0.09670066761024022, -0.8119031178487432, 8.409423485034102, 9362.0, 30146.0, 35388.0, 9362.0, 8.350414276123047, -0.15959566831588745, -0.24994385242462158, -0.03174794837832451, -0.0323922224342823, 0.015582880936563015, 0.997803807258606, -0.1589682400226593, -0.07543754577636719, 1.48974609375, 1.401123046875, 0.041015625, 1.5
25231, 2.5679707527160645, -3.681122064590454, -0.9994940757751465, 0.05778198689222336, -0.041866667568683624, -4.359597682952881, 0.2688528895378113, -0.19479256868362427, -0.3760332763195038, -0.6767346858978271, -1.0156278610229492, 0.07046407461166382, 0.08221954555846786, -0.8025180636266214, 8.407594467328941, 9362.0, 30146.0, 35388.0, 9362.0, 8.350414276123047, -0.15959566831588745, -0.24994385242462158, -0.03174794837832451, -0.0310263279825449, 0.014096383936703205, 1.0006994009017944, -0.06884793192148209, -0.030637741088867188, 1.493408203125, 0.993896484375, 3.1229095458984375, 1.5
25241, 2.567241668701172, -3.6821939945220947, -1.0005215406417847, 0.05778198689222336, -0.041866667568683624, -4.359597682952881, 0.2688528895378113, -0.19479256868362427, -0.3760332763195038, -0.6767424941062927, -1.0156396627426147, 0.07047470659017563, 0.08059695862524317, -0.80965446582357, 8.409035531669398, 9362.0, 30146.0, 35388.0, 9362.0, 8.350414276123047, -0.019147101789712906, 0.03842101991176605, -0.19450676441192627, -0.028772426769137383, 0.014442087151110172, 1.0006035566329956, -0.06884793192148209, -0.030637741088867188, 1.493408203125, 0.993896484375, 3.1229095458984375, 1.5
25261, 2.568540334701538, -3.6846203804016113, -1.0010689496994019, 0.06903422623872757, -0.050019413232803345, -4.374645233154297, 0.29374802112579346, -0.21283450722694397, -0.37658971548080444, -0.676739513874054, -1.015638828277588, 0.07045725733041763, 0.08594258661972519, -0.8031991670163166, 8.408590228513704, 9362.0, 30146.0, 35388.0, 9362.0, 8.350414276123047, -0.019147101789712906, 0.03842101991176605, -0.19450676441192627, -0.03163846582174301, 0.014169269241392612, 0.9969298243522644, -0.06884793192148209, -0.030637741088867188, 1.493408203125, 1.496337890625, 0.1883087158203125, 1.5
25331, 2.569084405899048, -3.6897034645080566, -1.0001482963562012, 0.08777664601802826, -0.06359893083572388, -4.397329330444336, 0.3310258686542511, -0.23982949554920197, -0.37929567694664, -0.6767436861991882, -1.0156338214874268, 0.07046788930892944, 0.08451386503472404, -0.8040694368816332, 8.40981658935344, 9362.0, 30146.0, 35388.0, 9362.0, 8.350414276123047, 0.19122107326984406, 0.11445701867341995, -0.03523696959018707, -0.030357854440808296, 0.012425096705555916, 1.00216543674469, -0.040812935680150986, -0.1291980743408203, 1.4853515625, 1.1162109375, 1.075439453125, 1.5
25341, 2.569828987121582, -3.689922332763672, -1.0007473230361938, 0.08777664601802826, -0.06359893083572388, -4.397329330444336, 0.3310258686542511, -0.23982949554920197, -0.37929567694664, -0.6767352223396301, -1.0156265497207642, 0.07047150284051895, 0.08068374008808958, -0.8033387562215353, 8.415845374271987, 9362.0, 30146.0, 35388.0, 9362.0, 8.350414276123047, -0.02539699710905552, 0.11620571464300156, -0.07447297126054764, -0.02928593009710312, 0.014927870593965054, 0.9994530081748962, -0.040812935680150986, -0.1291980743408203, 1.4853515625, 1.1162109375, 1.075439453125, 1.5
25361, 2.5687806606292725, -3.693086862564087, -1.0015552043914795, 0.08777664601802826, -0.06359893083572388, -4.397329330444336, 0.3310258686542511, -0.23982949554920197, -0.37929567694664, -0.6767140030860901, -1.0156514644622803, 0.07046839594841003, 0.09910291079192614, -0.818102109873081, 8.406508818075883, 9362.0, 30146.0, 35388.0, 9362.0, 8.350414276123047, -0.02539699710905552, 0.11620571464300156, -0.07447297126054764, -0.030222458764910698, 0.015615795738995075, 1.0005306005477905, -0.05944349244236946, -0.07543754577636719, 1.48974609375, 1.1162109375, 1.075439453125, 1.5
25371, 2.568859100341797, -3.69279146194458, -1.001875400543213, 0.08777664601802826, -0.06359893083572388, -4.397329330444336, 0.3310258686542511, -0.23982949554920197, -0.37929567694664, -0.6767266392707825, -1.015647530555725, 0.0704791471362114, 0.09795476431389662, -0.8208527459779873, 8.410856797504326, 9362.0, 30146.0, 35388.0, 9362.0, 8.350414276123047, -0.02539699710905552, 0.11620571464300156, -0.07447297126054764, -0.030717922374606133, 0.014695772901177406, 0.9995015859603882, -0.05944349244236946, -0.07543754577636719, 1.48974609375, 1.1162109375, 1.075439453125, 1.5
25391, 2.5699756145477295, -3.6967990398406982, -1.0004699230194092, 0.08777664601802826, -0.06359893083572388, -4.397329330444336, 0.3310258686542511, -0.23982949554920197, -0.37929567694664, -0.6767378449440002, -1.0156383514404297, 0.07046685367822647, 0.07983584776005297, -0.8074034573247673, 8.41074547046988, 9362.0, 30146.0, 35388.0, 9362.0, 8.350414276123047, -0.02539699710905552, 0.11620571464300156, -0.07447297126054764, -0.031162079423666, 0.014478924684226513, 0.9995616674423218, -0.05944349244236946, -0.07543754577636719, 1.48974609375, 1.259765625, 0.1334381103515625, 1.5
25401, 2.569810390472412, -3.698572874069214, -1.0008593797683716, 0.08777664601802826, -0.06359893083572388, -4.397329330444336, 0.3310258686542511, -0.23982949554920197, -0.37929567694664, -0.6767185926437378, -1.015649437904358, 0.07047773897647858, 0.09907258995313584, -0.8132697759557175, 8.408979448698075, 9362.0, 30146.0, 35388.0, 9362.0, 8.350414276123047, -0.02539699710905552, 0.11620571464300156, -0.07447297126054764, -0.032460033893585205, 0.016107788309454918, 1.0004286766052246, -0.05944349244236946, -0.07543754577636719, 1.48974609375, 1.259765625, 0.1334381103515625, 1.5
25421, 2.5692837238311768, -3.705315589904785, -0.9937272667884827, 0.12399635463953018, -0.089836984872818, -4.435370922088623, 0.3933904469013214, -0.2849276661872864, -0.38171204924583435, -0.6767106056213379, -1.0156471729278564, 0.07047069072723389, 0.09826727902641091, -0.8171075131241992, 8.412777395069103, 9362.0, 30146.0, 35388.0, 9362.0, 8.350414276123047, 0.09872263669967651, 0.4574536085128784, 0.4648714065551758, -0.028094781562685966, 0.014295509085059166, 0.9991863965988159, -0.05944349244236946, -0.07543754577636719, 1.48974609375, 1.62744140625, 0.483154296875, 1.5
25461, 2.567917823791504, -3.705280065536499, -0.992997944355011, 0.13607941567897797, -0.09858760237693787, -4.446836948394775, 0.4121508002281189, -0.29844406247138977, -0.38272905349731445, -0.676716685295105, -1.0156505107879639, 0.07047507911920547, 0.0976114060759889, -0.820073180292411, 8.419974745999927, 9362.0, 30146.0, 35388.0, 9362.0, 8.350414276123047, -0.14634163677692413, -0.11416926980018616, -0.19257603585720062, -0.03123721480369568, 0.014571845531463623, 0.9983088970184326, -0.0337117463350296, 0.0052013397216796875, 1.496337890625, 1.304443359375, 0.043182373046875, 1.5
25491, 2.569521427154541, -3.7094175815582275, -0.9944056868553162, 0.14872515201568604, -0.10774336755275726, -4.458339691162109, 0.43088868260383606, -0.31193414330482483, -0.38421663641929626, -0.6767509579658508, -1.0156306028366089, 0.07046131789684296, 0.08129068246552716, -0.8088488933098006, 8.415074821898116, 9362.0, 30146.0, 35388.0, 9362.0, 8.350414276123047, 0.04712364450097084, 0.23052850365638733, 0.009622319601476192, -0.033503856509923935, 0.015688909217715263, 0.9995880722999573, -0.034544844180345535, -0.030637741088867188, 1.493408203125, 0.656982421875, 20.498672485351562, 1.5
25501, 2.5696840286254883, -3.7102017402648926, -0.9924675226211548, 0.14872515201568604, -0.10774336755275726, -4.458339691162109, 0.43088868260383606, -0.31193414330482483, -0.38421663641929626, -0.6767141222953796, -1.0156532526016235, 0.07047413289546967, 0.10226876088569511, -0.8125501372493602, 8.41416476020353, 9362.0, 30146.0, 35388.0, 9362.0, 8.350414276123047, -0.0066891321912407875, -0.1379527598619461, -0.0669967457652092, -0.028667936101555824, 0.01464306190609932, 1.0002365112304688, -0.034544844180345535, -0.030637741088867188, 1.493408203125, 1.12646484375, 0.9649200439453125, 1.5
25511, 2.5685038566589355, -3.7101247310638428, -0.9931988716125488, 0.14872515201568604, -0.10774336755275726, -4.458339691162109, 0.43088868260383606, -0.31193414330482483, -0.38421663641929626, -0.6767170429229736, -1.0156506299972534, 0.07047714293003082, 0.09553721671229308, -0.8153422561506432, 8.416843895123343, 9362.0, 30146.0, 35388.0, 9362.0, 8.350414276123047, 0.10895644873380661, 0.04204338788986206, 0.1478753536939621, -0.029300536960363388, 0.01616007648408413, 0.9983758926391602, -0.034544844180345535, -0.030637741088867188, 1.493408203125, 1.12646484375, 0.9649200439453125, 1.5
25531, 2.5673134326934814, -3.709592580795288, -0.9922130107879639, 0.14872515201568604, -0.10774336755275726, -4.458339691162109, 0.43088868260383606, -0.31193414330482483, -0.38421663641929626, -0.6767218112945557, -1.0156421661376953, 0.07049507647752762, 0.09395527447928168, -0.8163097239692831, 8.406658936023714, 9362.0, 30146.0, 35388.0, 9362.0, 8.350414276123047, 0.10895644873380661, 0.04204338788986206, 0.1478753536939621, -0.03097662515938282, 0.014865838922560215, 0.9983924031257629, -0.04075992479920387, -0.07543754577636719, 1.48974609375, 0.989501953125, 3.225860595703125, 1.5
25541, 2.569535732269287, -3.7114298343658447, -0.9907233715057373, 0.14872515201568604, -0.10774336755275726, -4.458339691162109, 0.43088868260383606, -0.31193414330482483, -0.38421663641929626, -0.6767199635505676, -1.0156558752059937, 0.0704883337020874, 0.0977132648563209, -0.8175940937944972, 8.407448907038242, 9362.0, 30146.0, 35388.0, 9362.0, 8.350414276123047, 0.032560840249061584, 0.5102348327636719, 0.35545840859413147, -0.0312579870223999, 0.012504802085459232, 1.0009195804595947, -0.04075992479920387, -0.07543754577636719, 1.48974609375, 0.989501953125, 3.225860595703125, 1.5
25551, 2.5688705444335938, -3.713684558868408, -0.9900714159011841, 0.14872515201568604, -0.10774336755275726, -4.458339691162109, 0.43088868260383606, -0.31193414330482483, -0.38421663641929626, -0.6767328381538391, -1.015633463859558, 0.07046180218458176, 0.08018000456332561, -0.8107110051632276, 8.416811550587665, 9362.0, 30146.0, 35388.0, 9362.0, 8.350414276123047, 0.032560840249061584, 0.5102348327636719, 0.35545840859413147, -0.029660964384675026, 0.012766675092279911, 1.000252604484558, -0.05627076327800751, -0.27255821228027344, 1.4736328125, 0.989501953125, 3.225860595703125, 1.5
25561, 2.5686416625976562, -3.7142791748046875, -0.9900135397911072, 0.14872515201568604, -0.10774336755275726, -4.458339691162109, 0.43088868260383606, -0.31193414330482483, -0.38421663641929626, -0.6767255067825317, -1.015648365020752, 0.07045979797840118, 0.09675546222206571, -0.8174697858096636, 8.41440656501882, 9362.0, 30146.0, 35388.0, 9362.0, 8.350414276123047, 0.032560840249061584, 0.5102348327636719, 0.35545840859413147, -0.029660964384675026, 0.012766675092279911, 1.000252604484558, -0.04414501041173935, -0.12023735046386719, 1.486083984375, 0.989501953125, 3.225860595703125, 1.5
25621, 2.5677554607391357, -3.709319829940796, -0.9880750775337219, 0.21518589556217194, -0.15582850575447083, -4.512463092803955, 0.5186004638671875, -0.37500643730163574, -0.38869690895080566, -0.6767422556877136, -1.0156300067901611, 0.07045929878950119, 0.08449828912025069, -0.8063630428835893, 8.41641695807425, 9362.0, 30146.0, 35388.0, 9362.0, 8.350414276123047, -0.10681919008493423, -0.33175691962242126, -0.07931658625602722, -0.030040908604860306, 0.013385824859142303, 1.001267910003662, -0.024319201707839966, -0.1650371551513672, 1.482421875, 0.484130859375, 40.685699462890625, 1.5
25641, 2.5698492527008057, -3.7068698406219482, -0.9892867803573608, 0.22568337619304657, -0.16341882944107056, -4.5202412605285645, 0.5311461687088013, -0.38402533531188965, -0.38909029960632324, -0.6767224073410034, -1.0156582593917847, 0.0704728439450264, 0.09847888839151646, -0.8156727598075406, 8.411906137999894, 9362.0, 30146.0, 35388.0, 9362.0, 8.350414276123047, 0.15375696122646332, -0.4052656590938568, -0.07177779078483582, -0.031237049028277397, 0.016452915966510773, 1.0009591579437256, -0.024319201707839966, -0.1650371551513672, 1.482421875, 1.17626953125, 0.534088134765625, 1.5
25661, 2.568626880645752, -3.707873821258545, -0.9875646233558655, 0.22568337619304657, -0.16341882944107056, -4.5202412605285645, 0.5311461687088013, -0.38402533531188965, -0.38909029960632324, -0.6767457723617554, -1.0156216621398926, 0.07046713680028915, 0.07995630895139892, -0.8108933454557814, 8.412877990148647, 9362.0, 30146.0, 35388.0, 9362.0, 8.350414276123047, 0.15375696122646332, -0.4052656590938568, -0.07177779078483582, -0.030152704566717148, 0.014384930953383446, 0.9991083741188049, -0.04296819120645523, -0.07543754577636719, 1.48974609375, 1.17626953125, 0.534088134765625, 1.5
25671, 2.56877064704895, -3.7095284461975098, -0.9864795804023743, 0.22568337619304657, -0.16341882944107056, -4.5202412605285645, 0.5311461687088013, -0.38402533531188965, -0.38909029960632324, -0.6767147779464722, -1.0156478881835938, 0.07048161327838898, 0.09762352301725927, -0.8130543074083221, 8.409940086761788, 9362.0, 30146.0, 35388.0, 9362.0, 8.350414276123047, 0.15375696122646332, -0.4052656590938568, -0.07177779078483582, -0.03100365400314331, 0.013504797592759132, 0.9979429244995117, -0.04296819120645523, -0.07543754577636719, 1.48974609375, 1.17626953125, 0.534088134765625, 1.5
25691, 2.569459915161133, -3.7111101150512695, -0.9850231409072876, 0.22568337619304657, -0.16341882944107056, -4.5202412605285645, 0.5311461687088013, -0.38402533531188965, -0.38909029960632324, -0.676719069480896, -1.0156633853912354, 0.07046651095151901, 0.09876354303467706, -0.8123543356294078, 8.412643315635357, 9362.0, 30146.0, 35388.0, 9362.0, 8.350414276123047, 0.15375696122646332, -0.4052656590938568, -0.07177779078483582, -0.03090214915573597, 0.013296401128172874, 0.9987307190895081, -0.055469587445259094, -0.09335899353027344, 1.48828125, 1.17626953125, 0.534088134765625, 1.5
25721, 2.5696980953216553, -3.712056875228882, -0.9814990758895874, 0.2701784372329712, -0.195582315325737, -4.5514750480651855, 0.5812368988990784, -0.4200591742992401, -0.3917972445487976, -0.6767141819000244, -1.0156447887420654, 0.07046576589345932, 0.09539073808184144, -0.8078367578166876, 8.407569421269315, 9362.0, 30146.0, 35388.0, 9362.0, 8.350414276123047, -0.04894429072737694, 0.2664583623409271, 0.3229348957538605, -0.029140155762434006, 0.015118734911084175, 0.9985568523406982, -0.03885143995285034, -0.1739978790283203, 1.481689453125, 1.319091796875, 0.0279998779296875, 1.5
25761, 2.5722475051879883, -3.7158894538879395, -0.9774630665779114, 0.2819284200668335, -0.20407353341579437, -4.559319019317627, 0.5937641263008118, -0.42906463146209717, -0.39256221055984497, -0.6767364740371704, -1.0156222581863403, 0.07045292854309082, 0.07602701742225884, -0.8061320119383311, 8.41017990877602, 9362.0, 30146.0, 35388.0, 9362.0, 8.350414276123047, 0.07757049053907394, -0.2884557545185089, 0.1324329972267151, -0.03048834763467312, 0.014593023806810379, 0.9987947344779968, -0.04114311560988426, -0.0037593841552734375, 1.49560546875, 1.131591796875, 0.912628173828125, 1.5
25771, 2.5723769664764404, -3.71437406539917, -0.9775049090385437, 0.2819284200668335, -0.20407353341579437, -4.559319019317627, 0.5937641263008118, -0.42906463146209717, -0.39256221055984497, -0.676742672920227, -1.015637993812561, 0.07044760882854462, 0.07707655680627531, -0.8057994741656103, 8.412674695183048, 9362.0, 30146.0, 35388.0, 9362.0, 8.350414276123047, 0.07757049053907394, -0.2884557545185089, 0.1324329972267151, -0.03005407005548477, 0.013424137607216835, 1.0011820793151855, -0.04114311560988426, -0.0037593841552734375, 1.49560546875, 1.131591796875, 0.912628173828125, 1.5
25791, 2.5738465785980225, -3.713292360305786, -0.9796027541160583, 0.2819284200668335, -0.20407353341579437, -4.559319019317627, 0.5937641263008118, -0.42906463146209717, -0.39256221055984497, -0.6767286062240601, -1.0156329870224, 0.07045868784189224, 0.08322962162771463, -0.8044808951242715, 8.408148555846944, 9362.0, 30146.0, 35388.0, 9362.0, 8.350414276123047, 0.14755333960056305, -0.1115247830748558, -0.02693682722747326, -0.030470438301563263, 0.01497974619269371, 0.9999345541000366, -0.052485041320323944, 0.06792068481445312, 1.50146484375, 0.75732421875, 12.88140869140625, 1.5
25831, 2.57183575630188, -3.710235357284546, -0.9823995232582092, 0.33143630623817444, -0.23984146118164062, -4.590826034545898, 0.6439167261123657, -0.46513089537620544, -0.3953675925731659, -0.6767069697380066, -1.0156524181365967, 0.07046793401241302, 0.0986222186006477, -0.8214375811757293, 8.407255339906111, 9362.0, 30146.0, 35388.0, 9362.0, 8.350414276123047, 0.08930402994155884, 0.04890066385269165, 0.023278458043932915, -0.029399150982499123, 0.01412170846015215, 0.9997608065605164, -0.052485041320323944, 0.06792068481445312, 1.50146484375, 1.259765625, 0.1334381103515625, 1.5
25841, 2.5720818042755127, -3.7120847702026367, -0.9833435416221619, 0.33143630623817444, -0.23984146118164062, -4.590826034545898, 0.6439167261123657, -0.46513089537620544, -0.3953675925731659, -0.6767058372497559, -1.0156450271606445, 0.07046208530664444, 0.10037851932265629, -0.8168630526482161, 8.413754448079619, 9362.0, 30146.0, 35388.0, 9362.0, 8.350414276123047, 0.12762953341007233, 0.022556588053703308, -0.35470008850097656, -0.029304467141628265, 0.014263195917010307, 0.9989124536514282, -0.052485041320323944, 0.06792068481445312, 1.50146484375, 1.259765625, 0.1334381103515625, 1.5
25851, 2.571678876876831, -3.7094733715057373, -0.9839295744895935, 0.33143630623817444, -0.23984146118164062, -4.590826034545898, 0.6439167261123657, -0.46513089537620544, -0.3953675925731659, -0.6767122149467468, -1.0156482458114624, 0.07045519351959229, 0.10039690257598813, -0.8173777860161522, 8.408562840609047, 9362.0, 30146.0, 35388.0, 9362.0, 8.350414276123047, 0.12762953341007233, 0.022556588053703308, -0.35470008850097656, -0.030898625031113625, 0.015705350786447525, 1.000280499458313, -0.04654838517308235, -0.1291980743408203, 1.4853515625, 1.259765625, 0.1334381103515625, 1.5
25921, 2.569354295730591, -3.708566188812256, -0.9835906028747559, 0.3989598751068115, -0.2886088192462921, -4.630528926849365, 0.7065037488937378, -0.5101771950721741, -0.39927732944488525, -0.6767382025718689, -1.015640139579773, 0.07045686990022659, 0.08211359664813862, -0.811160526439636, 8.406545280508444, 9362.0, 30146.0, 35388.0, 9362.0, 8.350414276123047, -0.005065651144832373, 0.09082989394664764, -0.1338253766298294, -0.031079832464456558, 0.015961915254592896, 1.001799464225769, -0.0439910888671875, 0.0052013397216796875, 1.496337890625, 0.810791015625, 9.793991088867188, 1.5
25961, 2.5699024200439453, -3.7078487873077393, -0.9862359166145325, 0.4204370975494385, -0.3041171133518219, -4.642515659332275, 0.7253054976463318, -0.5237065553665161, -0.3999105393886566, -0.6767043471336365, -1.0156495571136475, 0.07046424597501755, 0.09801544759321772, -0.820222314264555, 8.407105105689551, 9362.0, 30146.0, 35388.0, 9362.0, 8.350414276123047, 0.0684664249420166, -0.25337618589401245, -0.2563633918762207, -0.029624968767166138, 0.014452150091528893, 0.9994391202926636, -0.04142407700419426, 0.014162063598632812, 1.4970703125, 1.119140625, 1.04302978515625, 1.5
25971, 2.570544481277466, -3.7068073749542236, -0.9872188568115234, 0.4204370975494385, -0.3041171133518219, -4.642515659332275, 0.7253054976463318, -0.5237065553665161, -0.3999105393886566, -0.6767298579216003, -1.0156209468841553, 0.07046955823898315, 0.08374313141290866, -0.8119677873994249, 8.411422247661763, 9362.0, 30146.0, 35388.0, 9362.0, 8.350414276123047, 0.0684664249420166, -0.25337618589401245, -0.2563633918762207, -0.030855495482683182, 0.015301915816962719, 1.0006433725357056, -0.042588647454977036, 0.05896186828613281, 1.500732421875, 1.119140625, 1.04302978515625, 1.5
25981, 2.5695364475250244, -3.705587387084961, -0.9862079620361328, 0.4204370975494385, -0.3041171133518219, -4.642515659332275, 0.7253054976463318, -0.5237065553665161, -0.3999105393886566, -0.6767049431800842, -1.015648603439331, 0.07046647369861603, 0.09786343981314025, -0.8218329643954974, 8.410076042109834, 9362.0, 30146.0, 35388.0, 9362.0, 8.350414276123047, 0.0684664249420166, -0.25337618589401245, -0.2563633918762207, -0.031988032162189484, 0.015642868354916573, 1.0012236833572388, -0.03365965932607651, 0.21128082275390625, 1.51318359375, 1.119140625, 1.04302978515625, 1.5
25991, 2.570539951324463, -3.7064411640167236, -0.9871981143951416, 0.4204370975494385, -0.3041171133518219, -4.642515659332275, 0.7253054976463318, -0.5237065553665161, -0.3999105393886566, -0.6767397522926331, -1.0156340599060059, 0.07045164704322815, 0.08590830130710747, -0.814880320183704, 8.411329590153997, 9362.0, 30146.0, 35388.0, 9362.0, 8.350414276123047, 0.09974651038646698, 0.1419089436531067, -0.1519261747598648, -0.031988032162189484, 0.015642868354916573, 1.0012236833572388, -0.04064292460680008, -0.13815879821777344, 1.484619140625, 1.119140625, 1.04302978515625, 1.5
26001, 2.5701775550842285, -3.706990957260132, -0.9878546595573425, 0.4204370975494385, -0.3041171133518219, -4.642515659332275, 0.7253054976463318, -0.5237065553665161, -0.3999105393886566, -0.676708996295929, -1.0156439542770386, 0.07048062980175018, 0.09592120897529842, -0.8216733823602453, 8.407578639697311, 9362.0, 30146.0, 35388.0, 9362.0, 8.350414276123047, 0.03026285581290722, 0.013672199100255966, -0.003393174149096012, -0.031014956533908844, 0.015042598359286785, 1.0003399848937988, -0.04064292460680008, -0.13815879821777344, 1.484619140625, 1.119140625, 1.04302978515625, 1.5
26071, 2.5715317726135254, -3.7058541774749756, -0.9859167337417603, 0.5119791626930237, -0.3702058792114258, -4.690749645233154, 0.8003701567649841, -0.5777677297592163, -0.40423429012298584, -0.6767354011535645, -1.0156325101852417, 0.07045169174671173, 0.0816010238231118, -0.8121385525163873, 8.413762491324261, 9362.0, 30146.0, 35388.0, 9362.0, 8.350414276123047, 0.03026285581290722, 0.013672199100255966, -0.003393174149096012, -0.030826982110738754, 0.014358402229845524, 0.9991496205329895, -0.037650614976882935, -0.03959846496582031, 1.49267578125, 1.03271484375, 2.3103179931640625, 1.5
26121, 2.573148250579834, -3.706310987472534, -0.9824851751327515, 0.5527799129486084, -0.3996576964855194, -4.711002826690674, 0.8316656947135925, -0.6003106832504272, -0.40580853819847107, -0.6767412424087524, -1.015626072883606, 0.07048424333333969, 0.08468419750056021, -0.8073262656918416, 8.407822539292399, 9362.0, 30146.0, 35388.0, 9362.0, 8.350414276123047, 0.10534464567899704, -0.038458846509456635, 0.12434530258178711, -0.03093135543167591, 0.014503376558423042, 0.9993327260017395, -0.036489542573690414, -0.04855918884277344, 1.491943359375, 1.411376953125, 0.05181884765625, 1.5
26131, 2.5747408866882324, -3.708439826965332, -0.9819066524505615, 0.5527799129486084, -0.3996576964855194, -4.711002826690674, 0.8316656947135925, -0.6003106832504272, -0.40580853819847107, -0.6767216324806213, -1.0156364440917969, 0.07047029584646225, 0.08446863246866132, -0.8049620682029399, 8.416784993664727, 9362.0, 30146.0, 35388.0, 9362.0, 8.350414276123047, 0.1802188605070114, 0.41997918486595154, 0.21907399594783783, -0.03280802071094513, 0.012443664483726025, 0.9995766282081604, -0.036489542573690414, -0.04855918884277344, 1.491943359375, 1.411376953125, 0.05181884765625, 1.5
26151, 2.575562000274658, -3.7138984203338623, -0.9829031229019165, 0.5780113339424133, -0.4178699254989624, -4.723193168640137, 0.8504338264465332, -0.6138412356376648, -0.40688884258270264, -0.6767367124557495, -1.0156327486038208, 0.07046198099851608, 0.08307474970885725, -0.8092423734384226, 8.415035698050318, 9362.0, 30146.0, 35388.0, 9362.0, 8.350414276123047, -0.028125202283263206, 0.5003212094306946, -0.06826012581586838, -0.0315263569355011, 0.01565130241215229, 1.0000216960906982, -0.036489542573690414, -0.04855918884277344, 1.491943359375, 1.29052734375, 0.06378173828125, 1.5
26161, 2.5754458904266357, -3.713627815246582, -0.981955349445343, 0.5780113339424133, -0.4178699254989624, -4.723193168640137, 0.8504338264465332, -0.6138412356376648, -0.40688884258270264, -0.6767392158508301, -1.0156344175338745, 0.07048705220222473, 0.08058169392608797, -0.8089192469527688, 8.409705532882173, 9362.0, 30146.0, 35388.0, 9362.0, 8.350414276123047, -0.028125202283263206, 0.5003212094306946, -0.06826012581586838, -0.0315263569355011, 0.01565130241215229, 1.0000216960906982, -0.0479525662958622, -0.01271820068359375, 1.494873046875, 1.29052734375, 0.06378173828125, 1.5
26171, 2.5764102935791016, -3.7135910987854004, -0.9807752966880798, 0.5951452255249023, -0.4302369952201843, -4.731339454650879, 0.8629612922668457, -0.6228682398796082, -0.40763622522354126, -0.6767313480377197, -1.0156222581863403, 0.07049010694026947, 0.08287464031937358, -0.8064271587225562, 8.412821449274977, 9362.0, 30146.0, 35388.0, 9362.0, 8.350414276123047, -0.028125202283263206, 0.5003212094306946, -0.06826012581586838, -0.03272131457924843, 0.01627737283706665, 1.0010913610458374, -0.0514441579580307, -0.09335899353027344, 1.48828125, 1.29052734375, 0.06378173828125, 1.5
26191, 2.5774383544921875, -3.7101898193359375, -0.9783319234848022, 0.5951452255249023, -0.4302369952201843, -4.731339454650879, 0.8629612922668457, -0.6228682398796082, -0.40763622522354126, -0.6767389178276062, -1.0156385898590088, 0.07047802954912186, 0.08339148709238232, -0.8128608916573228, 8.411060350230173, 9362.0, 30146.0, 35388.0, 9362.0, 8.350414276123047, 0.09208183735609055, 0.2787736654281616, 0.24001219868659973, -0.032643094658851624, 0.015096853487193584, 0.9985371232032776, -0.059971462935209274, -0.03959846496582031, 1.49267578125, 1.22607421875, 0.2537689208984375, 1.5
26201, 2.5768985748291016, -3.712329387664795, -0.9755255579948425, 0.6213164329528809, -0.4491264224052429, -4.743579864501953, 0.8817734718322754, -0.6364210844039917, -0.40850716829299927, -0.6767213940620422, -1.015645980834961, 0.07046106457710266, 0.10206243145843602, -0.8221614742536474, 8.415649738468078, 9362.0, 30146.0, 35388.0, 9362.0, 8.33057975769043, 0.09208183735609055, 0.2787736654281616, 0.24001219868659973, -0.030396051704883575, 0.01626136526465416, 0.9992713928222656, -0.06060947850346565, 0.03208160400390625, 1.49853515625, 1.22607421875, 0.2537689208984375, 1.5
26221, 2.5785181522369385, -3.7088944911956787, -0.9750975966453552, 0.6390771865844727, -0.46194517612457275, -4.7517571449279785, 0.8943041563034058, -0.6454549431800842, -0.40918076038360596, -0.6767140626907349, -1.0156548023223877, 0.0704764723777771, 0.10410365162059992, -0.821995244401279, 8.410668661006008, 9362.0, 30146.0, 35388.0, 9362.0, 8.350414276123047, -0.06511756777763367, 0.2289276123046875, 0.027895275503396988, -0.03014504350721836, 0.014868216589093208, 1.0012718439102173, -0.058966778218746185, -0.10231781005859375, 1.487548828125, 1.3798828125, 0.0243377685546875, 1.5
26271, 2.581921339035034, -3.707226276397705, -0.9767056703567505, 0.6845759749412537, -0.49478352069854736, -4.772242546081543, 0.9256231188774109, -0.6680683493614197, -0.410538911819458, -0.6767181754112244, -1.0156329870224, 0.07046936452388763, 0.0889278611706395, -0.8116697678854621, 8.415487800324161, 9362.0, 30146.0, 35388.0, 9362.0, 8.350414276123047, 0.30681112408638, -0.0002847271098289639, 0.11979950219392776, -0.029413964599370956, 0.01349257305264473, 1.0005532503128052, -0.058966778218746185, -0.10231781005859375, 1.487548828125, 0.741943359375, 13.886581420898438, 1.5
26291, 2.5810272693634033, -3.708526611328125, -0.9779379963874817, 0.6845759749412537, -0.49478352069854736, -4.772242546081543, 0.9256231188774109, -0.6680683493614197, -0.410538911819458, -0.6767133474349976, -1.0156452655792236, 0.07047586143016815, 0.09776944950202641, -0.8224257122633958, 8.41515654307229, 9362.0, 30146.0, 35388.0, 9362.0, 8.350414276123047, -0.126311793923378, 0.2801600396633148, -0.1102433055639267, -0.030873756855726242, 0.014816165901720524, 1.0001715421676636, -0.059569794684648514, -0.11127853393554688, 1.48681640625, 1.049560546875, 2.0084381103515625, 1.5
26301, 2.5818047523498535, -3.7088253498077393, -0.9803836345672607, 0.6845759749412537, -0.49478352069854736, -4.772242546081543, 0.9256231188774109, -0.6680683493614197, -0.410538911819458, -0.6767100095748901, -1.0156446695327759, 0.07047811895608902, 0.1018497028641764, -0.8216469843569598, 8.412656154498027, 9362.0, 30146.0, 35388.0, 9362.0, 8.350414276123047, -0.126311793923378, 0.2801600396633148, -0.1102433055639267, -0.03089912049472332, 0.01406888011842966, 0.9999859929084778, -0.059569794684648514, -0.11127853393554688, 1.48681640625, 1.049560546875, 2.0084381103515625, 1.5
26321, 2.583566188812256, -3.707388162612915, -0.9799237847328186, 0.6845759749412537, -0.49478352069854736, -4.772242546081543, 0.9256231188774109, -0.6680683493614197, -0.410538911819458, -0.6767243146896362, -1.0156365633010864, 0.07046260684728622, 0.08726751679225077, -0.8090719398530268, 8.420440066802852, 9362.0, 30146.0, 35388.0, 9362.0, 8.350414276123047, -0.07728587090969086, -0.4247314929962158, -0.08637437969446182, -0.031178465113043785, 0.01440046913921833, 1.0004714727401733, -0.02458188124001026, -0.10231781005859375, 1.487548828125, 0.791015625, 10.8651123046875, 1.5
26361, 2.5833170413970947, -3.7071025371551514, -0.9804357290267944, 0.7509036660194397, -0.542657196521759, -4.801055908203125, 0.9694375395774841, -0.6997451186180115, -0.41291582584381104, -0.6767337322235107, -1.0156410932540894, 0.07047155499458313, 0.08464883851921004, -0.8099080045458038, 8.416431964508648, 9362.0, 30146.0, 35388.0, 9362.0, 8.350414276123047, -0.3065665662288666, 0.06054047495126724, 0.10143075883388519, -0.030367301777005196, 0.014662395231425762, 1.0001689195632935, -0.02458188124001026, -0.10231781005859375, 1.487548828125, 1.47802734375, 0.1532745361328125, 1.48974609375
26381, 2.5833518505096436, -3.7097764015197754, -0.9830382466316223, 0.7901811599731445, -0.5710088610649109, -4.817608833312988, 0.9944509863853455, -0.7178466320037842, -0.41455790400505066, -0.6767179369926453, -1.0156476497650146, 0.07047410309314728, 0.09826771042920877, -0.8189679105419998, 8.410637036808321, 9362.0, 30146.0, 35388.0, 9362.0, 8.350414276123047, -0.3065665662288666, 0.06054047495126724, 0.10143075883388519, -0.030324440449476242, 0.014280744828283787, 0.9992694854736328, -0.22742629051208496, -0.030637741088867188, 1.493408203125, 1.47802734375, 0.1532745361328125, 1.48974609375
26391, 2.583777904510498, -3.709904193878174, -0.9840794205665588, 0.7901811599731445, -0.5710088610649109, -4.817608833312988, 0.9944509863853455, -0.7178466320037842, -0.41455790400505066, -0.6767287254333496, -1.0156358480453491, 0.07047076523303986, 0.0839743423994023, -0.8101715964300809, 8.41520642679428, 9362.0, 30146.0, 35388.0, 9362.0, 8.350414276123047, 0.1647249460220337, 0.00995993334800005, 0.09447480738162994, -0.030324440449476242, 0.014280744828283787, 0.9992694854736328, -0.1921009123325348, -0.030637741088867188, 1.493408203125, 1.47802734375, 0.1532745361328125, 1.48974609375
26411, 2.585188150405884, -3.7122538089752197, -0.984106183052063, 0.8202961683273315, -0.5927478671073914, -4.830064296722412, 1.0132273435592651, -0.7314281463623047, -0.4156598746776581, -0.6767343878746033, -1.0156329870224, 0.07045778632164001, 0.08415468719345105, -0.8086317755087862, 8.412021034284912, 9362.0, 30146.0, 35388.0, 9362.0, 8.350414276123047, 0.18022748827934265, -0.14029856026172638, 0.06597349047660828, -0.030685074627399445, 0.014294867403805256, 0.9989149570465088, -0.14175164699554443, -0.04855918884277344, 1.491943359375, 1.47802734375, 0.1532745361328125, 1.48974609375
26471, 2.5858659744262695, -3.706159830093384, -0.9860444664955139, 0.8822177052497864, -0.6374493837356567, -4.855058670043945, 1.0508294105529785, -0.7586286067962646, -0.41738244891166687, -0.6767330169677734, -1.0156283378601074, 0.0704592913389206, 0.08164493951681047, -0.8068057643582449, 8.416996255151563, 9362.0, 30146.0, 35388.0, 9362.0, 8.350414276123047, -0.04048556089401245, 0.26879534125328064, -0.2805836796760559, -0.030621536076068878, 0.013173053041100502, 1.0013669729232788, -0.13436371088027954, -0.030637741088867188, 1.493408203125, 0.605712890625, 25.45758056640625, 1.48974609375
26481, 2.5860674381256104, -3.7069547176361084, -0.9875126481056213, 0.8822177052497864, -0.6374493837356567, -4.855058670043945, 1.0508294105529785, -0.7586286067962646, -0.41738244891166687, -0.6767213940620422, -1.015647292137146, 0.07047089189291, 0.09506386886657431, -0.8240013988469741, 8.403732435296172, 9362.0, 30146.0, 35388.0, 9362.0, 8.350414276123047, -0.04048556089401245, 0.26879534125328064, -0.2805836796760559, -0.030986344441771507, 0.01333258580416441, 0.9978761672973633, -0.13041730225086212, -0.10231781005859375, 1.487548828125, 0.605712890625, 25.45758056640625, 1.48974609375
26581, 2.582712173461914, -3.7045931816101074, -0.980810284614563, 1.0015954971313477, -0.7236431241035461, -4.901124477386475, 1.1196610927581787, -0.8085243701934814, -0.4201238453388214, -0.6767348051071167, -1.0156238079071045, 0.07047775387763977, 0.08517699309213327, -0.8140390401197521, 8.41152630158985, 9362.0, 30146.0, 35388.0, 9362.0, 8.350414276123047, -0.036619022488594055, 0.0432002879679203, 0.008458461612462997, -0.03257602080702782, 0.015308663249015808, 0.9999380707740784, -0.045194197446107864, 0.15752029418945312, 1.5087890625, 1.34912109375, 0.015380859375, 1.48974609375
26621, 2.5809133052825928, -3.700878143310547, -0.981507420539856, 1.0354666709899902, -0.748102605342865, -4.913743495941162, 1.1384068727493286, -0.8220968842506409, -0.4212665557861328, -0.6767180562019348, -1.0156687498092651, 0.07046613842248917, 0.1119687763392843, -0.8162096621092019, 8.41316892932432, 9362.0, 30146.0, 35388.0, 9362.0, 8.350414276123047, 0.024716300889849663, 0.017490549013018608, 0.18922537565231323, -0.03171595185995102, 0.014591451734304428, 1.0011959075927734, -0.0532228946685791, -0.08439826965332031, 1.489013671875, 0.9345703125, 4.7218170166015625, 1.48974609375
26631, 2.5807931423187256, -3.699582815170288, -0.9836873412132263, 1.0354666709899902, -0.748102605342865, -4.913743495941162, 1.1384068727493286, -0.8220968842506409, -0.4212665557861328, -0.676714301109314, -1.0156606435775757, 0.07046236097812653, 0.11244386396608579, -0.8150203948367789, 8.414709123751075, 9362.0, 30146.0, 35388.0, 9362.0, 8.350414276123047, 0.062196385115385056, 0.3447619676589966, -0.12556564807891846, -0.03171595185995102, 0.014591451734304428, 1.0011959075927734, -0.0532228946685791, -0.08439826965332031, 1.489013671875, 0.9345703125, 4.7218170166015625, 1.48974609375
26691, 2.5805299282073975, -3.7023043632507324, -0.9875056147575378, 1.1166867017745972, -0.8067583441734314, -4.943300724029541, 1.182162880897522, -0.853785514831543, -0.42313528060913086, -0.6767338514328003, -1.015637993812561, 0.07046998292207718, 0.09606547612883341, -0.8062516772418746, 8.413897219053512, 9362.0, 30146.0, 35388.0, 9362.0, 8.350414276123047, 0.013872811570763588, 0.14315666258335114, -0.04726770147681236, -0.03109540045261383, 0.016486123204231262, 0.9980489015579224, -0.062241338193416595, -0.030637741088867188, 1.493408203125, 0.837158203125, 8.486984252929688, 1.48974609375
26701, 2.580115795135498, -3.702455759048462, -0.9887295961380005, 1.1166867017745972, -0.8067583441734314, -4.943300724029541, 1.182162880897522, -0.853785514831543, -0.42313528060913086, -0.6767269968986511, -1.0156428813934326, 0.07048052549362183, 0.09836231825633229, -0.8064225717545241, 8.417296914689183, 9362.0, 30146.0, 35388.0, 9362.0, 8.350414276123047, 0.013471385464072227, -0.04199032485485077, -0.1555846929550171, -0.030433231964707375, 0.016355959698557854, 1.001084327697754, -0.062241338193416595, -0.030637741088867188, 1.493408203125, 0.837158203125, 8.486984252929688, 1.48974609375
26731, 2.5801186561584473, -3.7003226280212402, -0.9876060485839844, 1.176575779914856, -0.8500131368637085, -4.96450138092041, 1.213403582572937, -0.8764036297798157, -0.42483875155448914, -0.6767399907112122, -1.0156368017196655, 0.0704764723777771, 0.0959893708516912, -0.8040798576092527, 8.41555438120354, 9362.0, 30146.0, 35388.0, 9362.0, 8.350414276123047, 0.013471385464072227, -0.04199032485485077, -0.1555846929550171, -0.03149949759244919, 0.014584532007575035, 1.0000706911087036, -0.13625040650367737, -0.07543754577636719, 1.48974609375, 1.045166015625, 2.0843963623046875, 1.48974609375
26791, 2.582643985748291, -3.7032668590545654, -0.9861183166503906, 1.2380268573760986, -0.8943987488746643, -4.985785961151123, 1.2446403503417969, -0.8990278244018555, -0.4264405071735382, -0.6767270565032959, -1.0156490802764893, 0.07047133147716522, 0.09631853919764471, -0.8199485095886416, 8.416715556920435, 9362.0, 30146.0, 35388.0, 9362.0, 8.350414276123047, -0.004309225361794233, -0.1120629608631134, -0.1253257393836975, -0.03034316748380661, 0.014327013865113258, 0.9995829463005066, -0.13625040650367737, -0.07543754577636719, 1.48974609375, 1.266357421875, 0.1154937744140625, 1.48974609375
26821, 2.583238363265991, -3.7038111686706543, -0.9840214848518372, 1.2756472826004028, -0.921573281288147, -4.998592376708984, 1.263392686843872, -0.9126130938529968, -0.4273343086242676, -0.6767165064811707, -1.0156739950180054, 0.0704311653971672, 0.1031249410760162, -0.8041557884840245, 8.439485232395459, 9362.0, 30146.0, 35388.0, 9362.0, 8.350414276123047, -0.161271333694458, 0.0868883803486824, 0.24842150509357452, -0.030081288889050484, 0.01511672604829073, 0.9990089535713196, -0.0644424632191658, 0.11272048950195312, 1.505126953125, 0.7001953125, 16.901824951171875, 1.48974609375
