timeTick, roll, pitch, yaw, stateX, stateY, stateZ, stateVX, stateVY, stateVZ, otX0, otY0, otZ0, otRoll0, otPitch0, otYaw0, left wing, pitch motor, yaw motor, right wing, voltage, roll rate, pitch rate, yaw rate, A_x, A_y, A_z, current, i_raw, v_raw, airflow_voltage, airflow_speed, pot_Pitch
19959, 0.7494835257530212, -6.036324977874756, 1.5203588008880615, 0, 0, 0, 0, 0, 0, -0.7110291123390198, -0.9335893988609314, 0.07043673098087311, -1.5480088734465949, 1.5787077473350735, 2.6853879339821334, 0, 0, 0, 0, 0, 0, 0, 0, 0, 0, 0, 0, 0, 0, 0, 0, 0
19969, 0.748752772808075, -6.0353288650512695, 1.5202882289886475, -0.0007846823427826166, 7.689308404223993e-05, -3.6276562213897705, -0.010625801980495453, 0.0010462170466780663, -0.39444446563720703, -0.7110185623168945, -0.9336073994636536, 0.07043758034706116, -1.543312049977106, 1.5842682982750205, 2.6796499177065063, 9362.0, 30146.0, 35388.0, 9362.0, 8.17190170288086, 0.2691496014595032, -0.0102550582960248, -0.024618862196803093, 0.018620716407895088, -0.01852491684257984, 1.00001060962677, -0.07414620369672775, -0.10231781005859375, 1.487548828125, 0, 0, 0
19979, 0.7489988207817078, -6.038115978240967, 1.519797682762146, -0.0008391682640649378, 8.230563253164291e-05, -3.6316030025482178, -0.0002713765134103596, 3.628875856520608e-05, -0.3949134051799774, -0.7110263109207153, -0.9335969090461731, 0.07042952626943588, -1.5480313272817043, 1.5814101404336895, 2.6873210240952026, 9362.0, 30146.0, 35388.0, 9362.0, 8.17190170288086, 0.04724526032805443, 0.056272830814123154, 0.050813186913728714, 0.020906701683998108, -0.0159095898270607, 0.9995509386062622, -0.08057396858930588, 0.03208160400390625, 1.49853515625, 1.11767578125, 1.0591888427734375, 1.4853515625
19989, 0.7486340999603271, -6.038592338562012, 1.5174492597579956, -0.0007901660283096135, 7.762949826428667e-05, -3.6355550289154053, 0.01007178146392107, -0.0009716071072034538, -0.39547252655029297, -0.7110354900360107, -0.9335910081863403, 0.07042604684829712, -1.550863848428702, 1.585836584791224, 2.6911150526294074, 9362.0, 30146.0, 35388.0, 9362.0, 8.17190170288086, -0.11584965139627457, -0.05954696610569954, -0.2964818775653839, 0.017232472077012062, -0.015482517890632153, 1.0003257989883423, -0.06323346495628357, -0.08439826965332031, 1.489013671875, 0.95361328125, 4.1575775146484375, 1.493408203125
19999, 0.7487437725067139, -6.040907859802246, 1.5164374113082886, -0.0006377312238328159, 6.287469295784831e-05, -3.639512777328491, 0.02041514217853546, -0.001979775493964553, -0.3960743844509125, -0.7110363245010376, -0.9335976839065552, 0.07042533159255981, -1.552314990208514, 1.573799544303796, 2.6906805034547046, 9362.0, 30146.0, 35388.0, 9362.0, 8.17190170288086, -0.03816300630569458, -0.028210563585162163, 0.15666265785694122, 0.019531667232513428, -0.0157934557646513, 1.0024633407592773, -0.060654982924461365, 0.1396007537841797, 1.50732421875, 1.571044921875, 0.349578857421875, 1.49560546875
20009, 0.7476847767829895, -6.04270601272583, 1.5170302391052246, -0.00038178256363607943, 3.803186700679362e-05, -3.6434757709503174, 0.0307745523750782, -0.0029889747966080904, -0.39653247594833374, -0.7110267281532288, -0.9336031675338745, 0.07042161375284195, -1.5522931095430785, 1.5844122928240836, 2.689401351116607, 9362.0, 30146.0, 35388.0, 9362.0, 8.17190170288086, -0.14897385239601135, 0.2539217174053192, -0.044527824968099594, 0.01884668879210949, -0.017642952501773834, 1.0031325817108154, -0.06927397847175598, -0.1291980743408203, 1.4853515625, 1.634033203125, 0.499237060546875, 1.49267578125
20019, 0.7482290863990784, -6.044533729553223, 1.5166109800338745, -2.2156425984576344e-05, 3.0895171221345663e-06, -3.6474428176879883, 0.04115067049860954, -0.003999372944235802, -0.39687103033065796, -0.7110416889190674, -0.9335885047912598, 0.07044950872659683, -1.5487598427136862, 1.5753196093201893, 2.6701992821513723, 9362.0, 30146.0, 35388.0, 9362.0, 8.17190170288086, 0.01179856713861227, -0.2722229063510895, -0.3257858455181122, 0.018526704981923103, -0.01795892044901848, 0.9992525577545166, -0.055695388466119766, -0.10231781005859375, 1.487548828125, 1.7197265625, 0.7219390869140625, 1.493408203125
20029, 0.7485983967781067, -6.042049407958984, 1.5160973072052002, 0.00044122926192358136, -4.194516805000603e-05, -3.6514134407043457, 0.051526445895433426, -0.005007646512240171, -0.39724135398864746, -0.7110413312911987, -0.9335879683494568, 0.07046961039304733, -1.5619340777153976, 1.5936765116059917, 2.678414266965202, 9362.0, 30146.0, 35388.0, 9362.0, 8.17190170288086, -0.43468084931373596, -0.2084091454744339, -0.08344815671443939, 0.019291196018457413, -0.018709851428866386, 0.999178946018219, -0.04427958279848099, 0.04104042053222656, 1.499267578125, 0.427734375, 49.65959930419922, 1.49267578125
20039, 0.7467049360275269, -6.042721271514893, 1.5160925388336182, 0.0010082658845931292, -9.705531556392089e-05, -3.655388832092285, 0.06188090518116951, -0.006014477927237749, -0.3978419005870819, -0.7110464572906494, -0.9335867762565613, 0.07047297060489655, -1.5518036284529784, 1.5963747319599975, 2.6760663741346784, 9362.0, 30146.0, 35388.0, 9362.0, 8.17190170288086, -0.1567598283290863, -0.061501212418079376, 0.008604396134614944, 0.018580429255962372, -0.01877867989242077, 0.9981606006622314, -0.03979138284921646, -0.05751800537109375, 1.4912109375, 1.677978515625, 0.6098175048828125, 1.489013671875
20049, 0.7474702000617981, -6.040929317474365, 1.5151069164276123, 0.0016787867061793804, -0.00016223413695115596, -3.6593706607818604, 0.0722232460975647, -0.00702127069234848, -0.39851659536361694, -0.7110642194747925, -0.9336152672767639, 0.07048052549362183, -1.5631231837510984, 1.6071208894214806, 2.682591031163254, 9362.0, 30146.0, 35388.0, 9362.0, 8.17190170288086, -0.08943595737218857, -0.5010057687759399, 0.16335944831371307, 0.019359782338142395, -0.017507558688521385, 0.9986765384674072, -0.0661369264125824, -0.2904777526855469, 1.47216796875, 1.7197265625, 0.7219390869140625, 1.49267578125
20059, 0.7471352219581604, -6.0370306968688965, 1.5148909091949463, 0.0024527290370315313, -0.00023746384249534458, -3.6633591651916504, 0.08256520330905914, -0.008024854585528374, -0.39920473098754883, -0.7110520005226135, -0.933616042137146, 0.07048849016427994, -1.5650366198514174, 1.6020713346507023, 2.6872396869746193, 9362.0, 30146.0, 35388.0, 9362.0, 8.17190170288086, -0.14680033922195435, -0.525526762008667, -0.13980503380298615, 0.019612520933151245, -0.015115429647266865, 1.0003844499588013, -0.0625605657696724, -0.2994365692138672, 1.471435546875, 1.821533203125, 1.0536346435546875, 1.48828125
20069, 0.7457790374755859, -6.0373406410217285, 1.51482355594635, 0.0033300991635769606, -0.0003227394772693515, -3.6673543453216553, 0.09290885925292969, -0.009030310437083244, -0.39984795451164246, -0.7110880613327026, -0.9336261749267578, 0.07046692073345184, -1.5693234398685734, 1.5987879203381965, 2.702290435690683, 9362.0, 30146.0, 35388.0, 9362.0, 8.17190170288086, 0.11850732564926147, 0.30622175335884094, -0.015041500329971313, 0.01645542122423649, -0.016495419666171074, 0.9998379945755005, -0.0631590485572815, -0.2546367645263672, 1.47509765625, 0.65625, 20.564056396484375, 1.483154296875
20079, 0.7456586360931396, -6.037130355834961, 1.5150041580200195, 0.004310954362154007, -0.00041807585512287915, -3.6713552474975586, 0.10326214879751205, -0.010036959312856197, -0.400337278842926, -0.7111067771911621, -0.9336376786231995, 0.07048460096120834, -1.5710768309892809, 1.586306826736461, 2.724037374204678, 9362.0, 30146.0, 35388.0, 9362.0, 8.17190170288086, -0.05341289937496185, -0.1558046042919159, -0.02599501609802246, 0.018861008808016777, -0.019608357921242714, 0.99992835521698, -0.06702610850334167, -0.11127853393554688, 1.48681640625, 1.6025390625, 0.423187255859375, 1.494140625
20089, 0.745086133480072, -6.0374979972839355, 1.5159798860549927, 0.0053953006863594055, -0.0005234628333710134, -3.675361394882202, 0.11360714584589005, -0.01104040164500475, -0.400909423828125, -0.7111074924468994, -0.9336355924606323, 0.07044575363397598, -1.549866485536535, 1.5693617150890873, 2.7123365756913462, 9362.0, 30146.0, 35388.0, 9362.0, 8.17190170288086, -0.014780769124627113, 0.02533072791993618, -0.039138033986091614, 0.019114894792437553, -0.01792207919061184, 0.9992853403091431, -0.07780500501394272, -0.11127853393554688, 1.48681640625, 1.071533203125, 1.656829833984375, 1.4912109375
20099, 0.7447817325592041, -6.03709602355957, 1.515629529953003, 0.006583111360669136, -0.0006388846086338162, -3.679373264312744, 0.12395493686199188, -0.012043771333992481, -0.4014517366886139, -0.711104691028595, -0.9336500763893127, 0.07048191875219345, -1.5761578337736941, 1.58899787591875, 2.7207574797804486, 9362.0, 30146.0, 35388.0, 9362.0, 8.17190170288086, 0.014658981934189796, 0.028282368555665016, -0.12485603988170624, 0.020380796864628792, -0.017624853178858757, 1.0001327991485596, -0.07622126489877701, 0.023120880126953125, 1.497802734375, 1.0048828125, 2.8755950927734375, 1.489013671875
20109, 0.7438899874687195, -6.037765026092529, 1.5148496627807617, 0.007874353788793087, -0.0007643294520676136, -3.6833908557891846, 0.13429349660873413, -0.01304525788873434, -0.40208670496940613, -0.7111201882362366, -0.9336447715759277, 0.07047154009342194, -1.569131603988761, 1.5905761862967154, 2.713206628592578, 9362.0, 30146.0, 35388.0, 9362.0, 8.17190170288086, -0.032210011035203934, 0.2181849479675293, -0.05659063160419464, 0.021109607070684433, -0.016726715490221977, 1.0013092756271362, -0.07509324699640274, -0.04855918884277344, 1.491943359375, 1.62451171875, 0.475982666015625, 1.49560546875
20119, 0.7441480755805969, -6.038444995880127, 1.5149295330047607, 0.009269067086279392, -0.0008997955592349172, -3.6874141693115234, 0.14464913308620453, -0.014048099517822266, -0.40255415439605713, -0.7111121416091919, -0.9336442947387695, 0.0704791322350502, -1.5718040624006058, 1.589496360519803, 2.7210815208791503, 9362.0, 30146.0, 35388.0, 9362.0, 8.17190170288086, -0.1345594972372055, 0.20910394191741943, 0.038827769458293915, 0.020895928144454956, -0.017919858917593956, 1.001092553138733, -0.06125345453619957, 0.0052013397216796875, 1.496337890625, 1.8662109375, 1.2457275390625, 1.491943359375
20129, 0.7436475157737732, -6.039591312408447, 1.5158963203430176, 0.01076733972877264, -0.001045282813720405, -3.6914420127868652, 0.15500546991825104, -0.01504934299737215, -0.4030255973339081, -0.7111209630966187, -0.9336546659469604, 0.07047050446271896, -1.5690002145263726, 1.5870762205433664, 2.7168685338982943, 9362.0, 30146.0, 35388.0, 9362.0, 8.17190170288086, 0.12651507556438446, -0.16124753654003143, 0.1521824449300766, 0.020052248612046242, -0.015813034027814865, 0.9982732534408569, -0.04557323455810547, -0.06647872924804688, 1.490478515625, 1.234130859375, 0.2203521728515625, 1.48974609375
20139, 0.7435804605484009, -6.036381244659424, 1.5167440176010132, 0.012369152158498764, -0.0012007816694676876, -3.695474863052368, 0.1653570681810379, -0.01605023816227913, -0.4035528898239136, -0.7111035585403442, -0.9336482286453247, 0.07047542929649353, -1.5773406456371408, 1.5924192358646394, 2.732278210330426, 9362.0, 30146.0, 35388.0, 9362.0, 8.17190170288086, -0.07428746670484543, -0.473876953125, -0.23421965539455414, 0.01843930222094059, -0.015360902063548565, 0.9998701810836792, -0.044962599873542786, -0.04855918884277344, 1.491943359375, 1.85302734375, 1.1847991943359375, 1.48974609375
20149, 0.742351233959198, -6.034430503845215, 1.5159003734588623, 0.014074400998651981, -0.0013662753626704216, -3.6995139122009277, 0.17569275200366974, -0.01704835332930088, -0.40424832701683044, -0.7110980749130249, -0.9336629509925842, 0.07045367360115051, -1.5801753562518221, 1.5985656819485996, 2.743490491164695, 9362.0, 30146.0, 35388.0, 9362.0, 8.17190170288086, -0.14557699859142303, 0.01607518456876278, 0.19606593251228333, 0.019053442403674126, -0.01731713116168976, 0.9987885355949402, -0.04502708464860916, -0.01271820068359375, 1.494873046875, 1.24072265625, 0.1952667236328125, 1.490478515625
20159, 0.7413647770881653, -6.032319068908691, 1.5152422189712524, 0.01588306576013565, -0.001541757839731872, -3.703559160232544, 0.18604011833667755, -0.018048295751214027, -0.40478160977363586, -0.7110288739204407, -0.9336024522781372, 0.07042744755744934, -1.5549734076429573, 1.6035718830558778, 2.6874532894746492, 9362.0, 30146.0, 35388.0, 9362.0, 8.17190170288086, 0.06372910737991333, -0.05884615704417229, -0.3610210120677948, 0.018833497539162636, -0.016802985221147537, 0.9983900785446167, -0.05923646315932274, -0.24567794799804688, 1.475830078125, 1.228271484375, 0.2443389892578125, 1.48974609375
20169, 0.7414748072624207, -6.0314249992370605, 1.5131562948226929, 0.017795119434595108, -0.0017272238619625568, -3.7076103687286377, 0.1963704228401184, -0.0190450269728899, -0.4054427742958069, -0.7110483050346375, -0.9336139559745789, 0.07041016966104507, -1.5470682977478867, 1.6049717269866335, 2.6874299830095274, 9362.0, 30146.0, 35388.0, 9362.0, 8.17190170288086, 0.17880715429782867, 0.11287903785705566, -0.16826362907886505, 0.019879424944519997, -0.015971088781952858, 0.9969740509986877, -0.07610608637332916, -0.24567794799804688, 1.475830078125, 1.77099609375, 0.8751983642578125, 1.49560546875
20179, 0.7420512437820435, -6.032872200012207, 1.5148228406906128, 0.019810400903224945, -0.001922644441947341, -3.7116687297821045, 0.20668581128120422, -0.02003946341574192, -0.40621060132980347, -0.7110313773155212, -0.933621346950531, 0.07045168429613113, -1.5451701324453526, 1.6106464683724369, 2.702093103600803, 9362.0, 30146.0, 35388.0, 9362.0, 8.17190170288086, -0.08508479595184326, 0.027495630085468292, 0.02651599422097206, 0.020533161237835884, -0.016869064420461655, 0.9993326663970947, -0.06842799484729767, -0.03959846496582031, 1.49267578125, 1.628173828125, 0.484893798828125, 1.4970703125
20189, 0.741326630115509, -6.030614852905273, 1.5152865648269653, 0.021928822621703148, -0.0021280120126903057, -3.7157347202301025, 0.21699877083301544, -0.021033750846982002, -0.40698739886283875, -0.7110331058502197, -0.9336288571357727, 0.07041420787572861, -1.5358019529210436, 1.6042163592076406, 2.6784095419795126, 9362.0, 30146.0, 35388.0, 9362.0, 8.17190170288086, 0.03939157351851463, -0.4703817367553711, -0.16167373955249786, 0.020084192976355553, -0.017794637009501457, 1.0004857778549194, -0.06288588047027588, 0.05000114440917969, 1.5, 1.44287109375, 0.0936279296875, 1.494873046875
20199, 0.7409560084342957, -6.0285749435424805, 1.5160760879516602, 0.024150513112545013, -0.002343337517231703, -3.7198073863983154, 0.22733932733535767, -0.022031275555491447, -0.40752702951431274, -0.7110402584075928, -0.9336217641830444, 0.07041230797767639, -1.5359241851784156, 1.6063677028100187, 2.690136304867723, 9362.0, 30146.0, 35388.0, 9362.0, 8.17190170288086, 0.08159299194812775, 0.2493618279695511, -0.024801146239042282, 0.019794419407844543, -0.018812065944075584, 0.9981204867362976, -0.07314392924308777, 0.0052013397216796875, 1.496337890625, 0.7587890625, 12.788528442382812, 1.493408203125
20209, 0.7410218715667725, -6.030372619628906, 1.514322280883789, 0.02647555246949196, -0.002568628638982773, -3.7238857746124268, 0.23766861855983734, -0.023026807233691216, -0.4081360101699829, -0.711032509803772, -0.9336249232292175, 0.0704217255115509, -1.5284526395790905, 1.6068103786369363, 2.6774952295023646, 9362.0, 30146.0, 35388.0, 9362.0, 8.17190170288086, -0.22303158044815063, 0.030670978128910065, -0.1742807924747467, 0.018944742158055305, -0.01650857739150524, 1.0013210773468018, -0.07820264250040054, -0.01271820068359375, 1.494873046875, 0.721435546875, 15.313919067382812, 1.490478515625
20219, 0.7406558990478516, -6.030032634735107, 1.5143808126449585, 0.028903847560286522, -0.002803869778290391, -3.7279703617095947, 0.2479904443025589, -0.024021746590733528, -0.4087824523448944, -0.7110406756401062, -0.9336220622062683, 0.07042191922664642, -1.5371244850247507, 1.6066570364509971, 2.6800444465727478, 9362.0, 30146.0, 35388.0, 9362.0, 8.17190170288086, 0.07185235619544983, 0.13742569088935852, -0.02851695753633976, 0.01894116774201393, -0.018533801659941673, 1.0005532503128052, -0.0682607963681221, -0.11127853393554688, 1.48681640625, 1.88818359375, 1.35614013671875, 1.48974609375
20229, 0.7417309284210205, -6.029008865356445, 1.5137813091278076, 0.031435526907444, -0.003049076534807682, -3.732059955596924, 0.25834518671035767, -0.02501957304775715, -0.4091469943523407, -0.7110281586647034, -0.9336209893226624, 0.07043153792619705, -1.53445365508633, 1.606647461608219, 2.6819012588224242, 9362.0, 30146.0, 35388.0, 9362.0, 8.17190170288086, 0.1991157978773117, 0.0043646832928061485, 0.06780683994293213, 0.01894116774201393, -0.018533801659941673, 1.0005532503128052, -0.0682607963681221, -0.11127853393554688, 1.48681640625, 1.220947265625, 0.2765960693359375, 1.4912109375
20249, 0.7416082620620728, -6.02996301651001, 1.5141979455947876, 0.03680902719497681, -0.0035693778190761805, -3.7402546405792236, 0.2790031135082245, -0.02701140008866787, -0.4103357791900635, -0.7110260725021362, -0.9336275458335876, 0.07041893899440765, -1.5291241587637943, 1.6073623842794404, 2.6909903682225953, 9362.0, 30146.0, 35388.0, 9362.0, 8.17190170288086, 0.1991157978773117, 0.0043646832928061485, 0.06780683994293213, 0.01894116774201393, -0.018533801659941673, 1.0005532503128052, -0.059383098036050797, -0.01271820068359375, 1.494873046875, 1.220947265625, 0.2765960693359375, 1.4912109375
20259, 0.7410674095153809, -6.027191638946533, 1.51557457447052, 0.03680902719497681, -0.0035693778190761805, -3.7402546405792236, 0.2790031135082245, -0.02701140008866787, -0.4103357791900635, -0.7110188007354736, -0.9336223006248474, 0.07045413553714752, -1.532107462217851, 1.6100760899398097, 2.6887323677578086, 9362.0, 30146.0, 35388.0, 9362.0, 8.17190170288086, 0.1991157978773117, 0.0043646832928061485, 0.06780683994293213, 0.02059454284608364, -0.017637621611356735, 0.9997907876968384, -0.059383098036050797, -0.01271820068359375, 1.494873046875, 1.220947265625, 0.2765960693359375, 1.4912109375
20279, 0.7413790822029114, -6.026121139526367, 1.517618179321289, 0.04259580373764038, -0.0041295564733445644, -3.748471975326538, 0.29967430233955383, -0.029005898162722588, -0.4114064574241638, -0.7110432386398315, -0.9336087703704834, 0.07042749226093292, -1.5260561298577413, 1.59376971075298, 2.6771912160447577, 9362.0, 30146.0, 35388.0, 9362.0, 8.17190170288086, -0.09997373819351196, -0.010946243070065975, -0.12511561810970306, 0.01888863928616047, -0.017775246873497963, 0.9998661279678345, -0.06452205032110214, 0.014162063598632812, 1.4970703125, 1.220947265625, 0.2765960693359375, 1.494873046875
20289, 0.741010844707489, -6.026895046234131, 1.52216374874115, 0.04879574477672577, -0.004729575011879206, -3.7567124366760254, 0.32031258940696716, -0.030995097011327744, -0.4126914143562317, -0.7110484838485718, -0.9336209297180176, 0.070492684841156, -1.521644252987666, 1.5912381904395545, 2.694468558988829, 9362.0, 30146.0, 35388.0, 9362.0, 8.17190170288086, -0.17240174114704132, -0.27895715832710266, 0.43912750482559204, 0.01888863928616047, -0.017775246873497963, 0.9998661279678345, -0.06452205032110214, 0.014162063598632812, 1.4970703125, 1.3388671875, 0.017120361328125, 1.494873046875
20299, 0.7408062815666199, -6.025256633758545, 1.524225115776062, 0.05205053091049194, -0.005044508725404739, -3.7608418464660645, 0.330644428730011, -0.031990811228752136, -0.41320398449897766, -0.7110247611999512, -0.9335778951644897, 0.07042665779590607, -1.5454240148437246, 1.596957727008288, 2.6779353117521323, 9362.0, 30146.0, 35388.0, 9362.0, 8.17190170288086, -0.031530823558568954, -0.04570173844695091, 0.14637388288974762, 0.01888863928616047, -0.017775246873497963, 0.9998661279678345, -0.06452205032110214, 0.014162063598632812, 1.4970703125, 0.9697265625, 3.7187347412109375, 1.494873046875
20319, 0.740922212600708, -6.024246692657471, 1.524122714996338, 0.05205053091049194, -0.005044508725404739, -3.7608418464660645, 0.330644428730011, -0.031990811228752136, -0.41320398449897766, -0.7110064029693604, -0.9335739016532898, 0.07035908102989197, -1.5584780587744465, 1.6017706860386056, 2.675373995001696, 9362.0, 30146.0, 35388.0, 9362.0, 8.17190170288086, -0.07373041659593582, -0.30039381980895996, -0.1857723891735077, 0.017950909212231636, -0.017145343124866486, 1.0006643533706665, -0.06555981189012527, 0.11272048950195312, 1.505126953125, 0.9697265625, 3.7187347412109375, 1.487548828125
20329, 0.7412424683570862, -6.023787498474121, 1.5247060060501099, 0.05205053091049194, -0.005044508725404739, -3.7608418464660645, 0.330644428730011, -0.031990811228752136, -0.41320398449897766, -0.7110204100608826, -0.9336084723472595, 0.07040327042341232, -1.5652008117676843, 1.5851652039924602, 2.693628250250522, 9362.0, 30146.0, 35388.0, 9362.0, 8.17190170288086, -0.07373041659593582, -0.30039381980895996, -0.1857723891735077, 0.018327828496694565, -0.015122463926672935, 1.0008715391159058, -0.06555981189012527, 0.11272048950195312, 1.505126953125, 0.9697265625, 3.7187347412109375, 1.4912109375
20339, 0.7412029504776001, -6.022963523864746, 1.525683045387268, 0.05205053091049194, -0.005044508725404739, -3.7608418464660645, 0.330644428730011, -0.031990811228752136, -0.41320398449897766, -0.7109942436218262, -0.9335664510726929, 0.0703149363398552, -1.5482387374465483, 1.5540235114610823, 2.666124431909795, 9362.0, 30146.0, 35388.0, 9362.0, 8.17190170288086, -0.07373041659593582, -0.30039381980895996, -0.1857723891735077, 0.01954992115497589, -0.014708624221384525, 0.9996542930603027, -0.06555981189012527, 0.11272048950195312, 1.505126953125, 0.9697265625, 3.7187347412109375, 1.4912109375
20349, 0.7415830492973328, -6.02026891708374, 1.525093674659729, 0.0698726624250412, -0.006768230348825455, -3.7815797328948975, 0.38226598501205444, -0.0369611456990242, -0.4160251319408417, -0.7110050916671753, -0.9335485696792603, 0.07031306624412537, -1.5419235276657606, 1.558570982552311, 2.6696746528032405, 9362.0, 30146.0, 35388.0, 9362.0, 8.17190170288086, -0.07373041659593582, -0.30039381980895996, -0.1857723891735077, 0.01954992115497589, -0.014708624221384525, 0.9996542930603027, -0.06976562738418579, 0.06792068481445312, 1.50146484375, 0.9697265625, 3.7187347412109375, 1.494873046875
20359, 0.7406559586524963, -6.018350601196289, 1.524561882019043, 0.0698726624250412, -0.006768230348825455, -3.7815797328948975, 0.38226598501205444, -0.0369611456990242, -0.4160251319408417, -0.7110175490379333, -0.9335692524909973, 0.07033220678567886, -1.556930504722799, 1.5648913269630498, 2.6731683046620818, 9362.0, 30146.0, 35388.0, 9362.0, 8.17190170288086, -0.24766169488430023, -0.25750741362571716, -0.21513724327087402, 0.01954992115497589, -0.014708624221384525, 0.9996542930603027, -0.06976562738418579, 0.06792068481445312, 1.50146484375, 0.9697265625, 3.7187347412109375, 1.494873046875
20379, 0.740956723690033, -6.016721248626709, 1.5249329805374146, 0.0698726624250412, -0.006768230348825455, -3.7815797328948975, 0.38226598501205444, -0.0369611456990242, -0.4160251319408417, -0.711048424243927, -0.933494508266449, 0.07021219283342361, -1.5777965441666162, 1.5380228448649689, 2.7687351215349385, 9362.0, 30146.0, 35388.0, 9362.0, 8.17190170288086, 0.160823792219162, 0.13026976585388184, 0.25951793789863586, 0.017881201580166817, -0.01715886779129505, 0.998190701007843, -0.08482754230499268, -0.06647872924804688, 1.490478515625, 0.9697265625, 3.7187347412109375, 1.48828125
20389, 0.7403739094734192, -6.016225337982178, 1.524409532546997, 0.0698726624250412, -0.006768230348825455, -3.7815797328948975, 0.38226598501205444, -0.0369611456990242, -0.4160251319408417, -0.7110902667045593, -0.9334567785263062, 0.07014241814613342, -1.5766966522209869, 1.5279373252670894, 2.7747165789275483, 9362.0, 30146.0, 35388.0, 9362.0, 8.17190170288086, 0.160823792219162, 0.13026976585388184, 0.25951793789863586, 0.017881201580166817, -0.01715886779129505, 0.998190701007843, -0.08482754230499268, -0.06647872924804688, 1.490478515625, 1.215087890625, 0.3043060302734375, 1.48828125
20399, 0.741237223148346, -6.017294883728027, 1.526202917098999, 0.0698726624250412, -0.006768230348825455, -3.7815797328948975, 0.38226598501205444, -0.0369611456990242, -0.4160251319408417, -0.711035966873169, -0.9335505366325378, 0.07014806568622589, -1.5970697310929018, 1.5461330456461155, 2.689186300246368, 9362.0, 30146.0, 35388.0, 9362.0, 8.17190170288086, 0.160823792219162, 0.13026976585388184, 0.25951793789863586, 0.01684592105448246, -0.01712615415453911, 0.9969570636749268, -0.08482754230499268, -0.06647872924804688, 1.490478515625, 1.215087890625, 0.3043060302734375, 1.493408203125
20409, 0.7414915561676025, -6.014561653137207, 1.526352882385254, 0.0698726624250412, -0.006768230348825455, -3.7815797328948975, 0.38226598501205444, -0.0369611456990242, -0.4160251319408417, -0.7110915184020996, -0.9334888458251953, 0.07015611976385117, -1.5816590997219173, 1.5231095700617345, 2.744011569224062, 9362.0, 30146.0, 35388.0, 9362.0, 8.17190170288086, 0.05586550384759903, -0.060020726174116135, 0.394599050283432, 0.01684592105448246, -0.01712615415453911, 0.9969570636749268, -0.08147110790014267, -0.09335899353027344, 1.48828125, 1.215087890625, 0.3043060302734375, 1.491943359375
20419, 0.7427964806556702, -6.011925220489502, 1.526989221572876, 0.09915703535079956, -0.00959903746843338, -3.8108534812927246, 0.4543727934360504, -0.04391377419233322, -0.4207923412322998, -0.7110725045204163, -0.9334439635276794, 0.07012508809566498, -1.571644314219831, 1.5343007828690531, 2.7793756301809376, 9362.0, 30146.0, 35388.0, 9362.0, 8.17190170288086, 0.05586550384759903, -0.060020726174116135, 0.394599050283432, 0.01809561811387539, -0.01518755592405796, 1.001145362854004, -0.08147110790014267, -0.09335899353027344, 1.48828125, 1.215087890625, 0.3043060302734375, 1.491943359375
20429, 0.7434733510017395, -6.009237766265869, 1.5279197692871094, 0.09915703535079956, -0.00959903746843338, -3.8108534812927246, 0.4543727934360504, -0.04391377419233322, -0.4207923412322998, -0.7110936045646667, -0.9334496855735779, 0.07013064622879028, -1.5755488060008043, 1.5382541708549127, 2.7773840141571173, 9362.0, 30146.0, 35388.0, 9362.0, 8.17190170288086, 0.05586550384759903, -0.060020726174116135, 0.394599050283432, 0.019428234547376633, -0.017801249399781227, 0.9988167881965637, -0.08147110790014267, -0.09335899353027344, 1.48828125, 1.215087890625, 0.3043060302734375, 1.493408203125
20449, 0.7442782521247864, -6.00593900680542, 1.533386468887329, 0.09915703535079956, -0.00959903746843338, -3.8108534812927246, 0.4543727934360504, -0.04391377419233322, -0.4207923412322998, -0.7110831141471863, -0.9334548115730286, 0.07013531774282455, -1.5692609135948248, 1.5367624089509206, 2.786601333151249, 9362.0, 30146.0, 35388.0, 9362.0, 8.17190170288086, 0.15120191872119904, 0.035611946135759354, 0.21866947412490845, 0.02042284607887268, -0.017016541212797165, 0.9980919361114502, -0.0542440302670002, -0.030637741088867188, 1.493408203125, 1.215087890625, 0.3043060302734375, 1.489013671875
20459, 0.7441349029541016, -6.007978439331055, 1.5333211421966553, 0.09915703535079956, -0.00959903746843338, -3.8108534812927246, 0.4543727934360504, -0.04391377419233322, -0.4207923412322998, -0.7110847234725952, -0.9334467053413391, 0.070126473903656, -1.5635906900046392, 1.5404766475681981, 2.7709903248185386, 9362.0, 30146.0, 35388.0, 9362.0, 8.17190170288086, -0.041771065443754196, 0.17804326117038727, 0.1780025213956833, 0.02042284607887268, -0.017016541212797165, 0.9980919361114502, -0.0542440302670002, -0.030637741088867188, 1.493408203125, 1.215087890625, 0.3043060302734375, 1.4970703125
20479, 0.7449615597724915, -6.009087085723877, 1.5354259014129639, 0.12827345728874207, -0.012413330376148224, -3.8362035751342773, 0.5161563754081726, -0.049899183213710785, -0.42424091696739197, -0.7111005783081055, -0.9335269927978516, 0.07028405368328094, -1.5566267382475087, 1.5512132966817376, 2.7611195491455547, 9362.0, 30146.0, 35388.0, 9362.0, 8.17190170288086, -0.0011885535204783082, 0.060730528086423874, -0.2600020468235016, 0.02042284607887268, -0.017016541212797165, 0.9980919361114502, -0.05104435235261917, -0.01271820068359375, 1.494873046875, 1.74462890625, 0.793792724609375, 1.49560546875
20489, 0.7445743680000305, -6.008044719696045, 1.5351685285568237, 0.1334865540266037, -0.012917320244014263, -3.8404486179351807, 0.5264623165130615, -0.05089869350194931, -0.4247434139251709, -0.7110875248908997, -0.9335970282554626, 0.07023536413908005, -1.5764025423181882, 1.5403494309018129, 2.745741153278158, 9362.0, 30146.0, 35388.0, 9362.0, 8.17190170288086, 0.06856945157051086, -0.19927990436553955, 0.5341278314590454, 0.02042284607887268, -0.017016541212797165, 0.9980919361114502, -0.05603355914354324, -0.14711761474609375, 1.48388671875, 1.74462890625, 0.793792724609375, 1.49560546875
20499, 0.744998574256897, -6.0079545974731445, 1.5395556688308716, 0.1334865540266037, -0.012917320244014263, -3.8404486179351807, 0.5264623165130615, -0.05089869350194931, -0.4247434139251709, -0.7110723257064819, -0.9335182905197144, 0.0702570453286171, -1.5452021120580126, 1.544799233550691, 2.7308643891064124, 9362.0, 30146.0, 35388.0, 9362.0, 8.17190170288086, -0.2497890740633011, -0.06768611073493958, 0.13709168136119843, 0.02042284607887268, -0.017016541212797165, 0.9980919361114502, -0.05603355914354324, -0.14711761474609375, 1.48388671875, 1.74462890625, 0.793792724609375, 1.4912109375
20519, 0.7441432476043701, -6.007968902587891, 1.5463262796401978, 0.1497432142496109, -0.014489193446934223, -3.8532216548919678, 0.5573238134384155, -0.0538923554122448, -0.42669641971588135, -0.7110579013824463, -0.9335301518440247, 0.07030129432678223, -1.5632763908428173, 1.5482498691239925, 2.732498572663922, 9362.0, 30146.0, 35388.0, 9362.0, 8.17190170288086, -0.08911986649036407, -0.16567383706569672, 0.39705535769462585, 0.02042284607887268, -0.017016541212797165, 0.9980919361114502, -0.0462796688079834, -0.0037593841552734375, 1.49560546875, 1.74462890625, 0.793792724609375, 1.4912109375
20529, 0.7432056069374084, -6.006964206695557, 1.5514488220214844, 0.1497432142496109, -0.014489193446934223, -3.8532216548919678, 0.5573238134384155, -0.0538923554122448, -0.42669641971588135, -0.7110586166381836, -0.933544933795929, 0.07029124349355698, -1.567748680946225, 1.542739722315531, 2.751124116459276, 9362.0, 30146.0, 35388.0, 9362.0, 8.17190170288086, 0.05742787942290306, -0.026602841913700104, 0.3293479084968567, 0.02042284607887268, -0.017016541212797165, 0.9980919361114502, -0.0462796688079834, -0.0037593841552734375, 1.49560546875, 1.74462890625, 0.793792724609375, 1.4912109375
20539, 0.7435435056686401, -6.007076740264893, 1.5537867546081543, 0.1610959768295288, -0.015587025322020054, -3.8617632389068604, 0.5779542922973633, -0.055889155715703964, -0.4274577796459198, -0.7109150290489197, -0.9335466027259827, 0.07046617567539215, -1.5119371405726034, 1.6029714940115696, 2.6190784085576495, 9362.0, 30146.0, 35388.0, 9362.0, 8.17190170288086, 0.05742787942290306, -0.026602841913700104, 0.3293479084968567, 0.01985221914947033, -0.01795535534620285, 0.9980005025863647, -0.0462796688079834, -0.0037593841552734375, 1.49560546875, 1.74462890625, 0.793792724609375, 1.4912109375
20549, 0.7442947626113892, -6.011117458343506, 1.5576319694519043, 0.16692693531513214, -0.016150880604982376, -3.8660411834716797, 0.5882375836372375, -0.056881584227085114, -0.42812415957450867, -0.7108268141746521, -0.9335536360740662, 0.07047384977340698, -1.5186445508391926, 1.6258387290090468, 2.553301533060743, 9362.0, 30146.0, 35388.0, 9362.0, 8.17190170288086, 0.05742787942290306, -0.026602841913700104, 0.3293479084968567, 0.01883688196539879, -0.016767732799053192, 0.9984411001205444, -0.0462796688079834, -0.0037593841552734375, 1.49560546875, 1.74462890625, 0.793792724609375, 1.4912109375
20559, 0.7449453473091125, -6.0132575035095215, 1.5602916479110718, 0.16692693531513214, -0.016150880604982376, -3.8660411834716797, 0.5882375836372375, -0.056881584227085114, -0.42812415957450867, -0.7108024954795837, -0.9336177706718445, 0.07063276320695877, -1.505499449082447, 1.6331586946955667, 2.567089683145843, 9362.0, 30146.0, 35388.0, 9362.0, 8.17190170288086, 0.05742787942290306, -0.026602841913700104, 0.3293479084968567, 0.01883688196539879, -0.016767732799053192, 0.9984411001205444, -0.0462796688079834, -0.0037593841552734375, 1.49560546875, 1.74462890625, 0.793792724609375, 1.489013671875
20579, 0.7452961802482605, -6.018370628356934, 1.5640615224838257, 0.16692693531513214, -0.016150880604982376, -3.8660411834716797, 0.5882375836372375, -0.056881584227085114, -0.42812415957450867, -0.7108232975006104, -0.9335957169532776, 0.07061722129583359, -1.5097407617007461, 1.6112741110261197, 2.577301622485964, 9362.0, 30146.0, 35388.0, 9362.0, 8.17190170288086, 0.05742787942290306, -0.026602841913700104, 0.3293479084968567, 0.020901521667838097, -0.017569590359926224, 0.999982476234436, -0.0462796688079834, -0.0037593841552734375, 1.49560546875, 1.74462890625, 0.793792724609375, 1.491943359375
20589, 0.7460119128227234, -6.023289203643799, 1.5655356645584106, 0.16692693531513214, -0.016150880604982376, -3.8660411834716797, 0.5882375836372375, -0.056881584227085114, -0.42812415957450867, -0.7108378410339355, -0.9335758686065674, 0.07052924484014511, -1.5132968496486152, 1.5944773104548915, 2.5804793865130735, 9362.0, 30146.0, 35388.0, 9362.0, 8.17190170288086, 0.05742787942290306, -0.026602841913700104, 0.3293479084968567, 0.020901521667838097, -0.017569590359926224, 0.999982476234436, -0.07179076969623566, -0.2187976837158203, 1.47802734375, 1.74462890625, 0.793792724609375, 1.491943359375
20609, 0.7447344064712524, -6.026883125305176, 1.5685597658157349, 0.19762495160102844, -0.019119052216410637, -3.8875322341918945, 0.6397287845611572, -0.061848245561122894, -0.431272029876709, -0.710943877696991, -0.9335579872131348, 0.07040837407112122, -1.5480450831013497, 1.5435583634915986, 2.6888664544952827, 9362.0, 30146.0, 35388.0, 9362.0, 8.17190170288086, 0.05742787942290306, -0.026602841913700104, 0.3293479084968567, 0.017982520163059235, -0.01770203746855259, 1.0007967948913574, -0.07277524471282959, -0.2187976837158203, 1.47802734375, 1.74462890625, 0.793792724609375, 1.494873046875
20629, 0.742591381072998, -6.032430171966553, 1.5641175508499146, 0.19762495160102844, -0.019119052216410637, -3.8875322341918945, 0.6397287845611572, -0.061848245561122894, -0.431272029876709, -0.7109479904174805, -0.9335619807243347, 0.07041133940219879, -1.5503847657640504, 1.5415358605754363, 2.6861343224856826, 9362.0, 30146.0, 35388.0, 9362.0, 8.17190170288086, 0.05742787942290306, -0.026602841913700104, 0.3293479084968567, 0.020881494507193565, -0.018982037901878357, 0.9988753795623779, -0.23129762709140778, -0.10231781005859375, 1.487548828125, 1.74462890625, 0.793792724609375, 1.49267578125
20639, 0.7407763004302979, -6.035633087158203, 1.5602227449417114, 0.19762495160102844, -0.019119052216410637, -3.8875322341918945, 0.6397287845611572, -0.061848245561122894, -0.431272029876709, -0.710938572883606, -0.9335587620735168, 0.07041879743337631, -1.5586634205184715, 1.543527177700156, 2.6901780082587146, 9362.0, 30146.0, 35388.0, 9362.0, 8.17190170288086, 0.05742787942290306, -0.026602841913700104, 0.3293479084968567, 0.018473338335752487, -0.016434114426374435, 0.9984833598136902, -0.23129762709140778, -0.10231781005859375, 1.487548828125, 1.74462890625, 0.793792724609375, 1.4912109375
20649, 0.7394353747367859, -6.03762674331665, 1.555193543434143, 0.23090288043022156, -0.022335752844810486, -3.9091598987579346, 0.691390335559845, -0.06681357324123383, -0.43396398425102234, -0.7110387682914734, -0.9336114525794983, 0.07039286196231842, -1.5757382016177743, 1.5203083257088679, 2.7416174347034046, 9362.0, 30146.0, 35388.0, 9362.0, 8.17190170288086, 0.05742787942290306, -0.026602841913700104, 0.3293479084968567, 0.018473338335752487, -0.016434114426374435, 0.9984833598136902, -0.15035684406757355, 0.014162063598632812, 1.4970703125, 1.74462890625, 0.793792724609375, 1.4912109375
20659, 0.7383635640144348, -6.039300918579102, 1.5488371849060059, 0.23090288043022156, -0.022335752844810486, -3.9091598987579346, 0.691390335559845, -0.06681357324123383, -0.43396398425102234, -0.710858166217804, -0.9335659742355347, 0.07053245604038239, -1.5125369659928583, 1.5889505559221107, 2.571156973465476, 9362.0, 30146.0, 35388.0, 9362.0, 8.17190170288086, 0.05742787942290306, -0.026602841913700104, 0.3293479084968567, 0.01952517218887806, -0.01837184652686119, 1.0002024173736572, -0.15035684406757355, 0.014162063598632812, 1.4970703125, 1.74462890625, 0.793792724609375, 1.4912109375
20669, 0.7371612787246704, -6.0400495529174805, 1.5446773767471313, 0.2449374496936798, -0.023691751062870026, -3.917851686477661, 0.7120682001113892, -0.06878672540187836, -0.4352065920829773, -0.7108343839645386, -0.933607280254364, 0.07062143087387085, -1.5040125429945155, 1.6246247707447594, 2.555167310962576, 9362.0, 30146.0, 35388.0, 9362.0, 8.17190170288086, 0.05742787942290306, -0.026602841913700104, 0.3293479084968567, 0.018368227407336235, -0.018273714929819107, 1.0004265308380127, -0.15035684406757355, 0.014162063598632812, 1.4970703125, 1.74462890625, 0.793792724609375, 1.487548828125
20679, 0.7359681129455566, -6.03978967666626, 1.5366456508636475, 0.2449374496936798, -0.023691751062870026, -3.917851686477661, 0.7120682001113892, -0.06878672540187836, -0.4352065920829773, -0.7108579277992249, -0.9336129426956177, 0.070656418800354, -1.5039571598337875, 1.653775636364287, 2.5635386083765077, 9362.0, 30146.0, 35388.0, 9362.0, 8.17190170288086, 0.05742787942290306, -0.026602841913700104, 0.3293479084968567, 0.0164256002753973, -0.017833558842539787, 0.9988596439361572, -0.0862409919500351, -0.09335899353027344, 1.48828125, 1.74462890625, 0.793792724609375, 1.490478515625
20689, 0.7348028421401978, -6.04067850112915, 1.5281299352645874, 0.2593858242034912, -0.025087181478738785, -3.9265668392181396, 0.7327653169631958, -0.07075656950473785, -0.4363611340522766, -0.7108699083328247, -0.9336248636245728, 0.07065092027187347, -1.5004986061534105, 1.652659991128786, 2.5589340908450366, 9362.0, 30146.0, 35388.0, 9362.0, 8.17190170288086, 0.08121393620967865, -0.18983733654022217, -0.7544034719467163, 0.0164256002753973, -0.017833558842539787, 0.9988596439361572, -0.0731913298368454, 0.10376167297363281, 1.50439453125, 1.74462890625, 0.793792724609375, 1.490478515625
20699, 0.7343733310699463, -6.038461208343506, 1.5218591690063477, 0.26676520705223083, -0.02579966001212597, -3.9309334754943848, 0.7431133985519409, -0.07174063473939896, -0.43694213032722473, -0.7109335660934448, -0.9336357116699219, 0.0707179605960846, -1.4927115549919212, 1.6127992678304963, 2.5121762683184934, 9362.0, 30146.0, 35388.0, 9362.0, 8.17190170288086, 0.08121393620967865, -0.18983733654022217, -0.7544034719467163, 0.01762808859348297, -0.017766382545232773, 0.9998250007629395, -0.0731913298368454, 0.10376167297363281, 1.50439453125, 1.74462890625, 0.793792724609375, 1.490478515625
20709, 0.7347524166107178, -6.034250736236572, 1.5128523111343384, 0.2742481231689453, -0.02652197889983654, -3.935305595397949, 0.7534679770469666, -0.07272431999444962, -0.4374740719795227, -0.710939884185791, -0.933634340763092, 0.07072804868221283, -1.4900603421513652, 1.6107685082595822, 2.5057557280331233, 9362.0, 30146.0, 35388.0, 9362.0, 8.17190170288086, -0.025801770389080048, -0.5847576856613159, -0.3611873984336853, 0.01762808859348297, -0.017766382545232773, 0.9998250007629395, -0.08132317662239075, 0.0052013397216796875, 1.496337890625, 1.74462890625, 0.793792724609375, 1.490478515625
20719, 0.7340160608291626, -6.030097007751465, 1.5087441205978394, 0.2742481231689453, -0.02652197889983654, -3.935305595397949, 0.7534679770469666, -0.07272431999444962, -0.4374740719795227, -0.7109623551368713, -0.9336279630661011, 0.07072819024324417, -1.4859066269898586, 1.6109004244611924, 2.4983507619529446, 9362.0, 30146.0, 35388.0, 9362.0, 8.17190170288086, -0.025801770389080048, -0.5847576856613159, -0.3611873984336853, 0.01762808859348297, -0.017766382545232773, 0.9998250007629395, -0.07585762441158295, -0.06647872924804688, 1.490478515625, 1.74462890625, 0.793792724609375, 1.490478515625
20739, 0.7350915670394897, -6.026981353759766, 1.5042399168014526, 0.28952425718307495, -0.027996137738227844, -3.9440672397613525, 0.7741373181343079, -0.07469285279512405, -0.438769668340683, -0.7109644412994385, -0.9336472153663635, 0.07072311639785767, -1.493192696114209, 1.6243194827492005, 2.5137427811227084, 9362.0, 30146.0, 35388.0, 9362.0, 8.17190170288086, 0.009529695846140385, -0.13206036388874054, 0.02180297113955021, 0.01762808859348297, -0.017766382545232773, 0.9998250007629395, -0.0672660544514656, 0.014162063598632812, 1.4970703125, 1.74462890625, 0.793792724609375, 1.494873046875
20749, 0.7365489602088928, -6.027377605438232, 1.5055238008499146, 0.3052135109901428, -0.029509682208299637, -3.952855348587036, 0.7947960495948792, -0.07666318863630295, -0.43994978070259094, -0.7109522819519043, -0.9336393475532532, 0.07072620093822479, -1.4896118475163698, 1.6270335265178915, 2.502977557863422, 9362.0, 30146.0, 35388.0, 9362.0, 8.17190170288086, 0.02038109488785267, -0.07791460305452347, 0.10206824541091919, 0.01762808859348297, -0.017766382545232773, 0.9998250007629395, -0.06371264904737473, -0.030637741088867188, 1.493408203125, 1.74462890625, 0.793792724609375, 1.494873046875
20759, 0.7377079725265503, -6.029767990112305, 1.5069849491119385, 0.3132132291793823, -0.03028126433491707, -3.957256317138672, 0.8051499724388123, -0.07765314728021622, -0.4402617812156677, -0.7109455466270447, -0.933626115322113, 0.07072433829307556, -1.4909677883735317, 1.6178477028299767, 2.5053886559609935, 9362.0, 30146.0, 35388.0, 9362.0, 8.17190170288086, 0.2768767178058624, 0.3087840974330902, 0.37683653831481934, 0.01762808859348297, -0.017766382545232773, 0.9998250007629395, -0.06371264904737473, -0.030637741088867188, 1.493408203125, 1.74462890625, 0.793792724609375, 1.494873046875
20769, 0.7388550043106079, -6.029140949249268, 1.5116201639175415, 0.3213164508342743, -0.03106275387108326, -3.961660861968994, 0.8154953122138977, -0.07864440977573395, -0.4406644105911255, -0.7109391093254089, -0.9336401224136353, 0.07073156535625458, -1.4915517150537583, 1.6132900987038568, 2.4950419931258208, 9362.0, 30146.0, 35388.0, 9362.0, 8.17190170288086, 0.05197286605834961, -0.302152156829834, 0.6239508986473083, 0.01762808859348297, -0.017766382545232773, 0.9998250007629395, -0.05696897581219673, -0.030637741088867188, 1.493408203125, 1.74462890625, 0.793792724609375, 1.494873046875
20779, 0.7411666512489319, -6.025458335876465, 1.51448655128479, 0.32952308654785156, -0.03185415640473366, -3.9660701751708984, 0.8258295059204102, -0.07963524758815765, -0.44121164083480835, -0.7109377384185791, -0.9336413741111755, 0.07073415815830231, -1.4979761412410157, 1.6135298933963895, 2.5134541442596383, 9362.0, 30146.0, 35388.0, 9362.0, 8.17190170288086, 0.14860087633132935, -0.2075788676738739, 0.9046195149421692, 0.01762808859348297, -0.017766382545232773, 0.9998250007629395, -0.054537348449230194, -0.07543754577636719, 1.48974609375, 1.74462890625, 0.793792724609375, 1.494873046875
20789, 0.7425870299339294, -6.023813247680664, 1.5181821584701538, 0.32952308654785156, -0.03185415640473366, -3.9660701751708984, 0.8258295059204102, -0.07963524758815765, -0.44121164083480835, -0.7109068036079407, -0.9336562752723694, 0.07075117528438568, -1.5081665262139303, 1.6014196896565807, 2.5393753737886606, 9362.0, 30146.0, 35388.0, 9362.0, 8.17190170288086, 0.14860087633132935, -0.2075788676738739, 0.9046195149421692, 0.01762808859348297, -0.017766382545232773, 0.9998250007629395, -0.054537348449230194, -0.07543754577636719, 1.48974609375, 1.74462890625, 0.793792724609375, 1.494873046875
20809, 0.7446209788322449, -6.02439022064209, 1.5276585817337036, 0.32952308654785156, -0.03185415640473366, -3.9660701751708984, 0.8258295059204102, -0.07963524758815765, -0.44121164083480835, -0.7110132575035095, -0.9336333274841309, 0.07063393294811249, -1.5410977464968252, 1.5633403694895094, 2.6147657424066133, 9362.0, 30146.0, 35388.0, 9362.0, 8.17190170288086, -0.10619664192199707, 0.08804137259721756, 0.22702603042125702, 0.017676031216979027, -0.019100584089756012, 1.0002206563949585, -0.054537348449230194, -0.07543754577636719, 1.48974609375, 1.74462890625, 0.793792724609375, 1.494873046875
20819, 0.7423295974731445, -6.026191711425781, 1.5291038751602173, 0.32952308654785156, -0.03185415640473366, -3.9660701751708984, 0.8258295059204102, -0.07963524758815765, -0.44121164083480835, -0.7110665440559387, -0.9336125254631042, 0.07048974931240082, -1.5557136043433621, 1.5314040222731364, 2.6656761578074657, 9362.0, 30146.0, 35388.0, 9362.0, 8.17190170288086, -0.10619664192199707, 0.08804137259721756, 0.22702603042125702, 0.019944941624999046, -0.016006814315915108, 1.0006861686706543, -0.054537348449230194, -0.07543754577636719, 1.48974609375, 0.894287109375, 6.0905609130859375, 1.494873046875
20829, 0.7393965125083923, -6.029183864593506, 1.529431939125061, 0.32952308654785156, -0.03185415640473366, -3.9660701751708984, 0.8258295059204102, -0.07963524758815765, -0.44121164083480835, -0.711031973361969, -0.9335765242576599, 0.07049406319856644, -1.5512445515755489, 1.5016915911929516, 2.629531258003315, 9362.0, 30146.0, 35388.0, 9362.0, 8.17190170288086, -0.029775215312838554, 0.5120794773101807, 0.130339115858078, 0.019944941624999046, -0.016006814315915108, 1.0006861686706543, -0.004751343745738268, -0.04855918884277344, 1.491943359375, 0.894287109375, 6.0905609130859375, 1.493408203125
20849, 0.7342281937599182, -6.039117336273193, 1.5278407335281372, 0.3809317350387573, -0.036811526864767075, -3.9926416873931885, 0.8878083825111389, -0.08561694622039795, -0.4443252980709076, -0.7109760642051697, -0.9335783123970032, 0.07041627913713455, -1.5524528812051865, 1.5471982273617186, 2.6786840550998936, 9362.0, 30146.0, 35388.0, 9362.0, 8.17190170288086, -0.09835202246904373, 0.34250181913375854, -0.2800494432449341, 0.019944941624999046, -0.016006814315915108, 1.0006861686706543, -0.03216026350855827, -0.06647872924804688, 1.490478515625, 0.894287109375, 6.0905609130859375, 1.493408203125
20859, 0.7309041023254395, -6.044839382171631, 1.5250513553619385, 0.3809317350387573, -0.036811526864767075, -3.9926416873931885, 0.8878083825111389, -0.08561694622039795, -0.4443252980709076, -0.7109658122062683, -0.9335712790489197, 0.07041996717453003, -1.5521599376246091, 1.5566238597572521, 2.6913120922128915, 9362.0, 30146.0, 35388.0, 9362.0, 8.17190170288086, -0.4808199405670166, 0.6423935890197754, -0.24846169352531433, 0.019944941624999046, -0.016006814315915108, 1.0006861686706543, -0.03216026350855827, -0.06647872924804688, 1.490478515625, 0.894287109375, 6.0905609130859375, 1.493408203125
20879, 0.7228901386260986, -6.054113864898682, 1.518735647201538, 0.3809317350387573, -0.036811526864767075, -3.9926416873931885, 0.8878083825111389, -0.08561694622039795, -0.4443252980709076, -0.7109778523445129, -0.9335886836051941, 0.07039222866296768, -1.5534683221287, 1.5570484144102181, 2.6881936471502983, 9362.0, 30146.0, 35388.0, 9362.0, 8.17190170288086, -0.10568143427371979, 0.680338442325592, -0.4367885887622833, 0.015599650330841541, -0.01992861181497574, 0.9999590516090393, -0.046699315309524536, -0.10231781005859375, 1.487548828125, 0.894287109375, 6.0905609130859375, 1.493408203125
20889, 0.7207140326499939, -6.057626247406006, 1.513741135597229, 0.4266148805618286, -0.04121553525328636, -4.014928817749023, 0.9395831823348999, -0.09052455425262451, -0.44687479734420776, -0.7109800577163696, -0.9335842728614807, 0.07039359956979752, -1.5510542241335252, 1.5673301911515125, 2.694874436534686, 9362.0, 30146.0, 35388.0, 9362.0, 8.17190170288086, -0.033051952719688416, 0.6077168583869934, -0.3863263428211212, 0.015599650330841541, -0.01992861181497574, 0.9999590516090393, -0.046699315309524536, -0.10231781005859375, 1.487548828125, 0.894287109375, 6.0905609130859375, 1.493408203125
20899, 0.7184769511222839, -6.057635307312012, 1.509414792060852, 0.4360625147819519, -0.04212559014558792, -4.0194010734558105, 0.9499449133872986, -0.09148727357387543, -0.447551429271698, -0.7109708786010742, -0.9335877895355225, 0.07041037082672119, -1.5480962140671999, 1.5718833894190425, 2.6947873264373343, 9362.0, 30146.0, 35388.0, 9362.0, 8.17190170288086, -0.033051952719688416, 0.6077168583869934, -0.3863263428211212, 0.01457793079316616, -0.01793481782078743, 0.9972248077392578, -0.046699315309524536, -0.10231781005859375, 1.487548828125, 0.894287109375, 6.0905609130859375, 1.493408203125
20909, 0.7166838645935059, -6.05583381652832, 1.5020560026168823, 0.4456137716770172, -0.043045252561569214, -4.023880481719971, 0.9603042602539062, -0.09244616329669952, -0.4483059048652649, -0.7109968066215515, -0.9335838556289673, 0.07040666043758392, -1.5492881780131147, 1.561706946732528, 2.689313861605525, 9362.0, 30146.0, 35388.0, 9362.0, 8.17190170288086, -0.033051952719688416, 0.6077168583869934, -0.3863263428211212, 0.013239466585218906, -0.01985936425626278, 0.9990702271461487, -0.046699315309524536, -0.10231781005859375, 1.487548828125, 0.894287109375, 6.0905609130859375, 1.493408203125
20919, 0.7175710201263428, -6.053315162658691, 1.4955509901046753, 0.45526859164237976, -0.043974485248327255, -4.028367519378662, 0.9706577062606812, -0.09340201318264008, -0.44911327958106995, -0.710991382598877, -0.9335943460464478, 0.07041545957326889, -1.5472688699264812, 1.5759569696350013, 2.695983295795324, 9362.0, 30146.0, 35388.0, 9362.0, 8.17190170288086, -0.0259361881762743, -0.2979806959629059, -0.6662240624427795, 0.013239466585218906, -0.01985936425626278, 0.9990702271461487, -0.046699315309524536, -0.10231781005859375, 1.487548828125, 0.894287109375, 6.0905609130859375, 1.493408203125
20929, 0.7176448106765747, -6.05064058303833, 1.4913122653961182, 0.45526859164237976, -0.043974485248327255, -4.028367519378662, 0.9706577062606812, -0.09340201318264008, -0.44911327958106995, -0.7109984755516052, -0.9335894584655762, 0.07039999216794968, -1.5421273907565554, 1.5781751679428453, 2.686817455000779, 9362.0, 30146.0, 35388.0, 9362.0, 8.17190170288086, 0.22494839131832123, -0.42088598012924194, -0.4875541627407074, 0.016209296882152557, -0.020318465307354927, 0.9995741844177246, -0.046699315309524536, -0.10231781005859375, 1.487548828125, 0.894287109375, 6.0905609130859375, 1.493408203125
20939, 0.7191318273544312, -6.048412799835205, 1.4889063835144043, 0.47488921880722046, -0.04586165398359299, -4.037361145019531, 0.9914040565490723, -0.09531718492507935, -0.4502538740634918, -0.7109813094139099, -0.9335988759994507, 0.07039682567119598, -1.5399547225708734, 1.5889662660906367, 2.6854646514546987, 9362.0, 30146.0, 35388.0, 9362.0, 8.17190170288086, 0.22494839131832123, -0.42088598012924194, -0.4875541627407074, 0.014647240750491619, -0.019787896424531937, 0.9994186758995056, -0.046699315309524536, -0.10231781005859375, 1.487548828125, 0.894287109375, 6.0905609130859375, 1.493408203125
20959, 0.7234503030776978, -6.040980339050293, 1.4798656702041626, 0.47488921880722046, -0.04586165398359299, -4.037361145019531, 0.9914040565490723, -0.09531718492507935, -0.4502538740634918, -0.7110148072242737, -0.9335978627204895, 0.0703996866941452, -1.5468507173423283, 1.5815830848894166, 2.693489081782815, 9362.0, 30146.0, 35388.0, 9362.0, 8.17190170288086, 0.22494839131832123, -0.42088598012924194, -0.4875541627407074, 0.019327757880091667, -0.019430436193943024, 0.9994899034500122, -0.06300654262304306, 0.11272048950195312, 1.505126953125, 0.894287109375, 6.0905609130859375, 1.48681640625
20969, 0.7264918088912964, -6.031795501708984, 1.4769041538238525, 0.47488921880722046, -0.04586165398359299, -4.037361145019531, 0.9914040565490723, -0.09531718492507935, -0.4502538740634918, -0.7110103368759155, -0.9335949420928955, 0.0704113245010376, -1.5425875845509123, 1.5821090759474998, 2.6858175417149255, 9362.0, 30146.0, 35388.0, 9362.0, 8.17190170288086, 0.22494839131832123, -0.42088598012924194, -0.4875541627407074, 0.01881241612136364, -0.018212541937828064, 1.0001238584518433, -0.06300654262304306, 0.11272048950195312, 1.505126953125, 0.894287109375, 6.0905609130859375, 1.48681640625
20979, 0.7306985855102539, -6.028724670410156, 1.4769808053970337, 0.47488921880722046, -0.04586165398359299, -4.037361145019531, 0.9914040565490723, -0.09531718492507935, -0.4502538740634918, -0.7110026478767395, -0.9335978031158447, 0.07039686292409897, -1.542237844461033, 1.5876370747913597, 2.684120390429625, 9362.0, 30146.0, 35388.0, 9362.0, 8.17190170288086, 0.22494839131832123, -0.42088598012924194, -0.4875541627407074, 0.01881241612136364, -0.018212541937828064, 1.0001238584518433, -0.06292584538459778, -0.13815879821777344, 1.484619140625, 0.894287109375, 6.0905609130859375, 1.490478515625
20989, 0.7337579131126404, -6.023238658905029, 1.479026436805725, 0.47488921880722046, -0.04586165398359299, -4.037361145019531, 0.9914040565490723, -0.09531718492507935, -0.4502538740634918, -0.7110031247138977, -0.9335949420928955, 0.07041119784116745, -1.5409008524057377, 1.5868942763257223, 2.686637116770502, 9362.0, 30146.0, 35388.0, 9362.0, 8.17190170288086, 0.22494839131832123, -0.42088598012924194, -0.4875541627407074, 0.021396098658442497, -0.017048848792910576, 1.0006273984909058, -0.06292584538459778, -0.13815879821777344, 1.484619140625, 0.894287109375, 6.0905609130859375, 1.490478515625
20999, 0.737330973148346, -6.018000602722168, 1.4806779623031616, 0.5362375378608704, -0.05175449326634407, -4.06448221206665, 1.053490400314331, -0.10113971680402756, -0.4538117051124573, -0.7109894156455994, -0.9335910081863403, 0.07041772454977036, -1.5410334847344238, 1.5880358047675998, 2.6893055017642244, 9362.0, 30146.0, 35388.0, 9362.0, 8.17190170288086, -0.016205573454499245, -0.8410683870315552, 0.15584972500801086, 0.021396098658442497, -0.017048848792910576, 1.0006273984909058, -0.06292584538459778, -0.13815879821777344, 1.484619140625, 0.894287109375, 6.0905609130859375, 1.490478515625
21009, 0.7396736741065979, -6.011570930480957, 1.4830842018127441, 0.5468240976333618, -0.05277084559202194, -4.0690226554870605, 1.0638232231140137, -0.10213066637516022, -0.4542582631111145, -0.710996150970459, -0.9335935711860657, 0.07039833068847656, -1.5505767020165493, 1.583759303462358, 2.6969883577271583, 9362.0, 30146.0, 35388.0, 9362.0, 8.17190170288086, -0.016205573454499245, -0.8410683870315552, 0.15584972500801086, 0.019499938935041428, -0.015246528200805187, 0.9985894560813904, -0.06292584538459778, -0.13815879821777344, 1.484619140625, 0.894287109375, 6.0905609130859375, 1.490478515625
21019, 0.742063045501709, -6.008975982666016, 1.4881434440612793, 0.5468240976333618, -0.05277084559202194, -4.0690226554870605, 1.0638232231140137, -0.10213066637516022, -0.4542582631111145, -0.7109956741333008, -0.933602511882782, 0.0704050362110138, -1.548309160584652, 1.584324012597989, 2.688101103835397, 9362.0, 30146.0, 35388.0, 9362.0, 8.17190170288086, -0.016205573454499245, -0.8410683870315552, 0.15584972500801086, 0.019499938935041428, -0.015246528200805187, 0.9985894560813904, -0.06878267973661423, -0.03959846496582031, 1.49267578125, 0.894287109375, 6.0905609130859375, 1.490478515625
21029, 0.7443393468856812, -6.005648612976074, 1.4941586256027222, 0.5468240976333618, -0.05277084559202194, -4.0690226554870605, 1.0638232231140137, -0.10213066637516022, -0.4542582631111145, -0.7109830379486084, -0.9335880875587463, 0.0703982263803482, -1.5436247413731086, 1.5754172087629854, 2.680743281115212, 9362.0, 30146.0, 35388.0, 9362.0, 8.17190170288086, 0.18972992897033691, -0.007621439173817635, 0.4415130615234375, 0.019499938935041428, -0.015246528200805187, 0.9985894560813904, -0.07930046319961548, -0.27255821228027344, 1.4736328125, 0.894287109375, 6.0905609130859375, 1.491943359375
21039, 0.7450330257415771, -6.005387783050537, 1.5004732608795166, 0.5792024731636047, -0.055879656225442886, -4.082676887512207, 1.0947099924087524, -0.10512536019086838, -0.45615920424461365, -0.7109797596931458, -0.9335861802101135, 0.07040354609489441, -1.551832265134727, 1.5759181935263769, 2.6852214504016043, 9362.0, 30146.0, 35388.0, 9362.0, 8.17190170288086, 0.18972992897033691, -0.007621439173817635, 0.4415130615234375, 0.0218966007232666, -0.015334608033299446, 0.9979168176651001, -0.07930046319961548, -0.27255821228027344, 1.4736328125, 0.894287109375, 6.0905609130859375, 1.491943359375
21049, 0.7439394593238831, -6.004732131958008, 1.5081993341445923, 0.5902010202407837, -0.05693593993782997, -4.0872416496276855, 1.1049975156784058, -0.10613006353378296, -0.45675697922706604, -0.7109845876693726, -0.9335923194885254, 0.0704161748290062, -1.558151912054923, 1.571160361866788, 2.6955695352058133, 9362.0, 30146.0, 35388.0, 9362.0, 8.17190170288086, 0.18972992897033691, -0.007621439173817635, 0.4415130615234375, 0.021141918376088142, -0.017214877530932426, 0.99830561876297, -0.07930046319961548, -0.27255821228027344, 1.4736328125, 0.894287109375, 6.0905609130859375, 1.491943359375
21059, 0.7419295310974121, -6.007209300994873, 1.515577793121338, 0.6013023257255554, -0.05800226330757141, -4.091813087463379, 1.115269422531128, -0.10713306814432144, -0.457498699426651, -0.7109844088554382, -0.9335813522338867, 0.07037705928087234, -1.5585347215475451, 1.5759922978612906, 2.699510527832347, 9362.0, 30146.0, 35388.0, 9362.0, 8.17190170288086, -0.2789228558540344, 0.4450949728488922, 0.6236633062362671, 0.021141918376088142, -0.017214877530932426, 0.99830561876297, -0.07930046319961548, -0.27255821228027344, 1.4736328125, 0.894287109375, 6.0905609130859375, 1.491943359375
21069, 0.7399472594261169, -6.0096259117126465, 1.5219428539276123, 0.6013023257255554, -0.05800226330757141, -4.091813087463379, 1.115269422531128, -0.10713306814432144, -0.457498699426651, -0.710978627204895, -0.9335785508155823, 0.07040738314390182, -1.5571194813213556, 1.5689791114051275, 2.6903430770976913, 9362.0, 30146.0, 35388.0, 9362.0, 8.17190170288086, -0.2789228558540344, 0.4450949728488922, 0.6236633062362671, 0.020191067829728127, -0.014842978678643703, 1.0014125108718872, -0.07930046319961548, -0.27255821228027344, 1.4736328125, 0.894287109375, 6.0905609130859375, 1.491943359375
21079, 0.7380496859550476, -6.014410018920898, 1.5270512104034424, 0.623813271522522, -0.0601649209856987, -4.100976943969727, 1.1358308792114258, -0.10912957787513733, -0.45883646607398987, -0.7109757661819458, -0.9335804581642151, 0.0704028457403183, -1.5576805943368566, 1.5680673399060368, 2.691444843631565, 9362.0, 30146.0, 35388.0, 9362.0, 8.17190170288086, -0.2789228558540344, 0.4450949728488922, 0.6236633062362671, 0.02218586765229702, -0.01521259918808937, 1.0002976655960083, -0.07930046319961548, -0.27255821228027344, 1.4736328125, 0.894287109375, 6.0905609130859375, 1.491943359375
21089, 0.734441876411438, -6.017718315124512, 1.5306888818740845, 0.623813271522522, -0.0601649209856987, -4.100976943969727, 1.1358308792114258, -0.10912957787513733, -0.45883646607398987, -0.7109753489494324, -0.9335857033729553, 0.07038818299770355, -1.56278424097465, 1.5652715256959198, 2.6935614657514617, 9362.0, 30146.0, 35388.0, 9362.0, 8.17190170288086, -0.2789228558540344, 0.4450949728488922, 0.6236633062362671, 0.02218586765229702, -0.01521259918808937, 1.0002976655960083, -0.07930046319961548, -0.27255821228027344, 1.4736328125, 0.894287109375, 6.0905609130859375, 1.4912109375
