timeTick, roll, pitch, yaw, stateX, stateY, stateZ, stateVX, stateVY, stateVZ, otX0, otY0, otZ0, otRoll0, otPitch0, otYaw0, left wing, pitch motor, yaw motor, right wing, voltage, roll rate, pitch rate, yaw rate, A_x, A_y, A_z, current, i_raw, v_raw, airflow_voltage, airflow_speed, pot_Pitch
18014, -1.1748385429382324, 3.890951156616211, -0.12389712780714035, 0, 0, 0, 0, 0, 0, -0.4087528586387634, -1.1032581329345703, 0.06605784595012665, -1.68658062397423, 1.224372915468365, 0.20605673943587277, 0, 0, 0, 0, 0, 0, 0, 0, 0, 0, 0, 0, 0, 0, 0, 0, 0
18024, -1.1742709875106812, 3.892727851867676, -0.12378368526697159, 0.00014032643230166286, -4.2790423322003335e-05, -1.6536859273910522, 0.00036329892463982105, -0.00011124832963105291, -0.20155473053455353, -0.4087451994419098, -1.1032698154449463, 0.06601933389902115, -1.6984254548750584, 1.2345268495411688, 0.21781015607251542, 9362.0, 30146.0, 35388.0, 9362.0, 7.933885097503662, 0.12831991910934448, 0.07369755953550339, -0.2121533751487732, 0.011679858900606632, -0.020192023366689682, 1.0026707649230957, -0.04310974106192589, -0.08439826965332031, 1.489013671875, 0, 0, 0
18034, -1.1737698316574097, 3.893327474594116, -0.1248508095741272, 0.00011064503632951528, -3.375612504896708e-05, -1.6557018756866455, -0.006299582310020924, 0.0019180912058800459, -0.20162782073020935, -0.4087492823600769, -1.103251576423645, 0.06606876105070114, -1.684171769321108, 1.2200309526976412, 0.20707938298629966, 9362.0, 30146.0, 35388.0, 9362.0, 7.933885097503662, -0.06935861706733704, -0.036526553332805634, 0.07879732549190521, 0.012151164002716541, -0.02051897719502449, 0.9985324144363403, -0.04713299497961998, -0.06647872924804688, 1.490478515625, 0.6943359375, 17.360198974609375, 1.49267578125
18044, -1.1736390590667725, 3.8935248851776123, -0.12663987278938293, 1.431972486898303e-05, -4.43337376054842e-06, -1.657718539237976, -0.012965441681444645, 0.003946579992771149, -0.20170138776302338, -0.40877482295036316, -1.1032315492630005, 0.066046804189682, -1.6910931917643264, 1.2239923579353729, 0.1928480608289438, 9362.0, 30146.0, 35388.0, 9362.0, 7.933885097503662, -0.1184568852186203, 0.010859890840947628, -0.06130938231945038, 0.013814198784530163, -0.020610211417078972, 0.99989914894104, -0.05593470484018326, 0.11272048950195312, 1.505126953125, 1.108154296875, 1.16796875, 1.493408203125
18054, -1.1735057830810547, 3.893362045288086, -0.1275114119052887, -0.00014857247879263014, 4.514121246756986e-05, -1.6597373485565186, -0.019612934440374374, 0.005968544166535139, -0.20205919444561005, -0.408773809671402, -1.103244423866272, 0.06605105102062225, -1.6928331564694543, 1.2240078074567862, 0.19288314364264142, 9362.0, 30146.0, 35388.0, 9362.0, 7.933885097503662, -0.1875976175069809, 0.21475081145763397, 0.06290361285209656, 0.012162809260189533, -0.021158492192626, 1.001218557357788, -0.05460669472813606, -0.06647872924804688, 1.490478515625, 1.822265625, 1.0563507080078125, 1.4970703125
18064, -1.1740317344665527, 3.893313407897949, -0.1269557774066925, -0.000377991033019498, 0.0001149505769717507, -1.6617590188980103, -0.02627074345946312, 0.007993428036570549, -0.20226983726024628, -0.40879344940185547, -1.103252649307251, 0.0661267638206482, -1.680577421799146, 1.2181574465735139, 0.22401174532723117, 9362.0, 30146.0, 35388.0, 9362.0, 7.933885097503662, -0.14098945260047913, -0.34658631682395935, -0.08987536281347275, 0.009642918594181538, -0.021274501457810402, 1.0000587701797485, -0.04868211969733238, -0.24567794799804688, 1.475830078125, 1.65966796875, 0.5630340576171875, 1.490478515625
18074, -1.1735533475875854, 3.894498586654663, -0.12974883615970612, -0.0006740065291523933, 0.00020501436665654182, -1.6637824773788452, -0.032932382076978683, 0.010019267909228802, -0.20242038369178772, -0.4088246822357178, -1.1032726764678955, 0.06616541743278503, -1.6869109536373263, 1.2395827308624803, 0.214828279438786, 9362.0, 30146.0, 35388.0, 9362.0, 7.933885097503662, 0.10048119723796844, 0.2883472740650177, -0.021809274330735207, 0.011044398881494999, -0.021406153216958046, 0.9997460842132568, -0.044213760644197464, -0.01271820068359375, 1.494873046875, 1.7109375, 0.6976776123046875, 1.496337890625
18084, -1.173741102218628, 3.8935163021087646, -0.12976066768169403, -0.0010366112692281604, 0.00031533255241811275, -1.665807843208313, -0.03958845138549805, 0.012044690549373627, -0.20265008509159088, -0.4088160991668701, -1.1032785177230835, 0.06616725027561188, -1.6931603637727577, 1.2459898870023096, 0.2241741357408254, 9362.0, 30146.0, 35388.0, 9362.0, 7.933885097503662, -0.1397380381822586, -0.23378852009773254, -0.1940160095691681, 0.011020372621715069, -0.021147040650248528, 1.0014598369598389, -0.031854234635829926, 0.16648101806640625, 1.509521484375, 1.177001953125, 0.52899169921875, 1.49267578125
18094, -1.1743031740188599, 3.8967700004577637, -0.13002647459506989, -0.0014657903229817748, 0.0004459037445485592, -1.6678354740142822, -0.046247370541095734, 0.014069550670683384, -0.20286785066127777, -0.4088141918182373, -1.1032614707946777, 0.06618393957614899, -1.6898323357816039, 1.2439360640934467, 0.2232240275411191, 9362.0, 30146.0, 35388.0, 9362.0, 7.933885097503662, -0.11081061512231827, 0.012396270409226418, -0.12088523805141449, 0.0115420613437891, -0.020366966724395752, 1.000451922416687, -0.03837000951170921, 0.15752029418945312, 1.5087890625, 1.316162109375, 0.030517578125, 1.4912109375
18104, -1.1739672422409058, 3.8968493938446045, -0.1328948438167572, -0.001961573027074337, 0.000596732075791806, -1.6698648929595947, -0.052909184247255325, 0.01609615609049797, -0.20301848649978638, -0.4088160991668701, -1.103270173072815, 0.06616076081991196, -1.6901779089476663, 1.2439920445017378, 0.22127895450132404, 9362.0, 30146.0, 35388.0, 9362.0, 7.933885097503662, 0.024414310231804848, 0.12851403653621674, 0.22496674954891205, 0.012416877783834934, -0.021455083042383194, 1.000667691230774, -0.050421424210071564, 0.10376167297363281, 1.50439453125, 1.430419921875, 0.0756378173828125, 1.49560546875
18114, -1.1735743284225464, 3.895073175430298, -0.13060186803340912, -0.002523993141949177, 0.0007678288966417313, -1.671895980834961, -0.05957471579313278, 0.01812353916466236, -0.20319457352161407, -0.40881988406181335, -1.1032743453979492, 0.0661720335483551, -1.6891402908342767, 1.2509251650913313, 0.21994820678202884, 9362.0, 30146.0, 35388.0, 9362.0, 7.933885097503662, 0.11231762915849686, -0.03456111252307892, 0.14473514258861542, 0.011288933455944061, -0.02242695726454258, 0.9999527335166931, -0.04523960128426552, 0.08584022521972656, 1.5029296875, 1.370361328125, 0.0194549560546875, 1.491943359375
18124, -1.1745003461837769, 3.8959383964538574, -0.12937714159488678, -0.003153047291561961, 0.0009591918205842376, -1.6739290952682495, -0.06623620539903641, 0.020148776471614838, -0.20343340933322906, -0.4088209867477417, -1.1032735109329224, 0.06616383045911789, -1.6925957531419946, 1.2522044135718886, 0.2212609197370888, 9362.0, 30146.0, 35388.0, 9362.0, 7.933885097503662, 0.003541190642863512, -0.005102172959595919, -0.06859312206506729, 0.01163389440625906, -0.02381054498255253, 0.9973848462104797, -0.04311816394329071, 0.09480094909667969, 1.503662109375, 1.33154296875, 0.0198516845703125, 1.49267578125
18134, -1.1755317449569702, 3.8956186771392822, -0.12925958633422852, -0.00384867237880826, 0.0011707935482263565, -1.6759650707244873, -0.0728888288140297, 0.022171420976519585, -0.2037583440542221, -0.40882670879364014, -1.103281855583191, 0.06617716699838638, -1.6901527400148537, 1.2544771188086088, 0.22272728691542537, 9362.0, 30146.0, 35388.0, 9362.0, 7.933885097503662, -0.11986110359430313, -0.07646206766366959, -0.02568679302930832, 0.013701187446713448, -0.02287933975458145, 0.9988006353378296, -0.04384917393326759, -0.09335899353027344, 1.48828125, 1.8603515625, 1.21820068359375, 1.493408203125
18144, -1.1758193969726562, 3.8950204849243164, -0.12850739061832428, -0.004610788077116013, 0.0014026158023625612, -1.6780048608779907, -0.07953426986932755, 0.02419300004839897, -0.20421050488948822, -0.4088238477706909, -1.1032835245132446, 0.06613890826702118, -1.6908968485249316, 1.2549427972817853, 0.2265718875287473, 9362.0, 30146.0, 35388.0, 9362.0, 7.933885097503662, 0.03811807930469513, -0.08230533450841904, 0.06177461892366409, 0.013922063633799553, -0.020081965252757072, 1.0023607015609741, -0.0478932224214077, 0.09480094909667969, 1.503662109375, 0.935302734375, 4.69915771484375, 1.493408203125
18154, -1.1753859519958496, 3.896286725997925, -0.1282419115304947, -0.005439434666186571, 0.001654686639085412, -1.6800481081008911, -0.08619504421949387, 0.026221079751849174, -0.20442982017993927, -0.40880492329597473, -1.1032743453979492, 0.06611478328704834, -1.6764984204422886, 1.242456389629666, 0.22148241166179902, 9362.0, 30146.0, 35388.0, 9362.0, 7.933885097503662, 0.254940003156662, -0.006842122878879309, -0.024440376088023186, 0.01369570754468441, -0.020076973363757133, 1.0034701824188232, -0.03881188854575157, 0.05000114440917969, 1.5, 0.503173828125, 37.94578552246094, 1.48974609375
18164, -1.1750140190124512, 3.8939337730407715, -0.12785042822360992, -0.0063347662799060345, 0.0019270654302090406, -1.682092308998108, -0.09287130832672119, 0.028254641219973564, -0.2044065147638321, -0.4088059067726135, -1.1032992601394653, 0.06609077006578445, -1.6837243613518735, 1.234882922485241, 0.22924900446072177, 9362.0, 30146.0, 35388.0, 9362.0, 7.933885097503662, -0.14643190801143646, -0.2533401548862457, 0.10396301001310349, 0.010325878858566284, -0.020633498206734657, 1.000849723815918, -0.05143626779317856, -0.2904777526855469, 1.47216796875, 1.868408203125, 1.25634765625, 1.489013671875
18174, -1.175703763961792, 3.894963026046753, -0.12657462060451508, -0.0072968704625964165, 0.002219775691628456, -1.6841362714767456, -0.09954950958490372, 0.03028734028339386, -0.2043866366147995, -0.40876439213752747, -1.103299856185913, 0.0661107748746872, -1.67461936895751, 1.2419173166709925, 0.21730174073521943, 9362.0, 30146.0, 35388.0, 9362.0, 7.933885097503662, -0.09606508165597916, -0.1788730025291443, 0.1084442138671875, 0.011563985608518124, -0.02123149111866951, 0.9989182949066162, -0.051582831889390945, -0.14711761474609375, 1.48388671875, 1.095703125, 1.3213653564453125, 1.49560546875
18184, -1.1754003763198853, 3.896900177001953, -0.12507157027721405, -0.008325645700097084, 0.0025327815674245358, -1.6861814260482788, -0.10620548576116562, 0.03231370076537132, -0.20463517308235168, -0.40876391530036926, -1.1032663583755493, 0.06603122502565384, -1.6622846814560823, 1.2461498866415752, 0.18514551197874055, 9362.0, 30146.0, 35388.0, 9362.0, 7.933885097503662, -0.038233432918787, -0.05279810354113579, -0.016321949660778046, 0.013259616680443287, -0.021002747118473053, 1.0000290870666504, -0.054463911801576614, 0.06792068481445312, 1.50146484375, 1.301513671875, 0.046966552734375, 1.494140625
18194, -1.1756402254104614, 3.900198221206665, -0.12480006366968155, -0.00942095834761858, 0.002866046968847513, -1.6882294416427612, -0.11285712569952011, 0.03433919697999954, -0.20497386157512665, -0.4087699055671692, -1.1032673120498657, 0.0660373792052269, -1.6593164634786786, 1.2378504955395613, 0.19329235414908966, 9362.0, 30146.0, 35388.0, 9362.0, 7.933885097503662, -0.00458861468359828, -0.05124314874410629, -0.03477853536605835, 0.01253023836761713, -0.019956223666667938, 1.0014026165008545, -0.051640674471855164, -0.2187976837158203, 1.47802734375, 0.844482421875, 8.147430419921875, 1.489013671875
18204, -1.175916075706482, 3.9005966186523438, -0.12503181397914886, -0.01058284379541874, 0.0032195758540183306, -1.6902803182601929, -0.11951995640993118, 0.0363665446639061, -0.20519758760929108, -0.4087499678134918, -1.1033035516738892, 0.06605102121829987, -1.6591231437377432, 1.2329606950320624, 0.20225491230902512, 9362.0, 30146.0, 35388.0, 9362.0, 7.933885097503662, -0.11994307488203049, -0.1631738543510437, -0.15404124557971954, 0.012256165035068989, -0.021557455882430077, 1.000421404838562, -0.05856873840093613, -0.11127853393554688, 1.48681640625, 1.21142578125, 0.3224945068359375, 1.48974609375
18214, -1.1769121885299683, 3.9013051986694336, -0.126095712184906, -0.011811424046754837, 0.0035933919716626406, -1.6923328638076782, -0.12619616091251373, 0.03839670494198799, -0.20530740916728973, -0.40874600410461426, -1.1032800674438477, 0.06603453308343887, -1.6663008736269371, 1.238853579136844, 0.1980170038475683, 9362.0, 30146.0, 35388.0, 9362.0, 7.933885097503662, -0.1274452954530716, -0.16688650846481323, -0.25282710790634155, 0.011578683741390705, -0.02066306211054325, 1.0006344318389893, -0.05692923814058304, -0.11127853393554688, 1.48681640625, 1.65966796875, 0.5630340576171875, 1.493408203125
18224, -1.1782516241073608, 3.9033589363098145, -0.1258498728275299, -0.013106736354529858, 0.0039875018410384655, -1.6943869590759277, -0.13286630809307098, 0.04042542725801468, -0.20551590621471405, -0.40875253081321716, -1.1032809019088745, 0.06601928174495697, -1.6655795724887192, 1.22815922849054, 0.20536841357680666, 9362.0, 30146.0, 35388.0, 9362.0, 7.933885097503662, -0.016103772446513176, -0.34987932443618774, 0.03674710914492607, 0.011191852390766144, -0.02029753476381302, 0.9990744590759277, -0.059777241200208664, -0.06647872924804688, 1.490478515625, 1.418701171875, 0.0603485107421875, 1.494873046875
18234, -1.1779378652572632, 3.905045986175537, -0.12575167417526245, -0.01446875836700201, 0.0044019087217748165, -1.6964430809020996, -0.13953812420368195, 0.04245596379041672, -0.20571787655353546, -0.40873149037361145, -1.1032829284667969, 0.066019207239151, -1.678705767301687, 1.2222930097875917, 0.21418012471611447, 9362.0, 30146.0, 35388.0, 9362.0, 7.933885097503662, 0.01829817332327366, 0.17820978164672852, 0.19447775185108185, 0.012920133769512177, -0.020358221605420113, 0.9989757537841797, -0.06551972776651382, -0.10231781005859375, 1.487548828125, 1.3916015625, 0.0325927734375, 1.491943359375
18244, -1.1777222156524658, 3.906771421432495, -0.12528759241104126, -0.015897467732429504, 0.00483661750331521, -1.6985019445419312, -0.14620362222194672, 0.044485799968242645, -0.20606385171413422, -0.40877240896224976, -1.1032730340957642, 0.06605391949415207, -1.6635770124164337, 1.193685074115507, 0.21283491406085944, 9362.0, 30146.0, 35388.0, 9362.0, 7.933885097503662, 0.01820371299982071, -0.07811737805604935, 0.10320979356765747, 0.01382584311068058, -0.01985560916364193, 1.0000656843185425, -0.05082256719470024, 0.15752029418945312, 1.5087890625, 1.883056640625, 1.329254150390625, 1.494140625
18254, -1.177749752998352, 3.9055280685424805, -0.12499552220106125, -0.01739284209907055, 0.00529162073507905, -1.7005643844604492, -0.15287116169929504, 0.04651479423046112, -0.2064228653907776, -0.4086979627609253, -1.1032185554504395, 0.06593520939350128, -1.6688934034359941, 1.2171762919352602, 0.22152581865671037, 9362.0, 30146.0, 35388.0, 9362.0, 7.933885097503662, 0.0823526605963707, 0.00795021653175354, -0.04453454911708832, 0.01281112153083086, -0.020327284932136536, 1.0004582405090332, -0.05812370777130127, -0.15607833862304688, 1.483154296875, 1.061279296875, 1.8151702880859375, 1.48974609375
18264, -1.1776410341262817, 3.905768871307373, -0.1236986517906189, -0.018954958766698837, 0.005766927730292082, -1.7026296854019165, -0.15955226123332977, 0.04854661598801613, -0.2066260725259781, -0.40815338492393494, -1.103519082069397, 0.06646266579627991, -1.9469639473798819, 1.427089825564508, 0.7079514457255652, 9362.0, 30146.0, 35388.0, 9362.0, 7.933885097503662, -0.09015428274869919, -0.056544430553913116, 0.2027352899312973, 0.01389229018241167, -0.020383816212415695, 0.9991455674171448, -0.05084724724292755, 0.0052013397216796875, 1.496337890625, 1.654541015625, 0.5500640869140625, 1.497802734375
18274, -1.1773878335952759, 3.9065628051757812, -0.12474191188812256, -0.02058386243879795, 0.006262548733502626, -1.7046971321105957, -0.1662285476922989, 0.05057748779654503, -0.20687000453472137, -0.40870872139930725, -1.1031715869903564, 0.06579740345478058, -1.7269069279014475, 1.217090194335043, 0.2689730718390719, 9362.0, 30146.0, 35388.0, 9362.0, 7.933885097503662, 0.019133511930704117, -0.03719650208950043, -0.23747874796390533, 0.013791513629257679, -0.02175450138747692, 1.0002204179763794, -0.053889043629169464, 0.0052013397216796875, 1.496337890625, 1.7841796875, 0.918548583984375, 1.494873046875
18284, -1.1761776208877563, 3.9037320613861084, -0.1261582374572754, -0.0222795270383358, 0.0067784758284688, -1.7067670822143555, -0.17290423810482025, 0.052608001977205276, -0.20712746679782867, -0.40870732069015503, -1.103166103363037, 0.06578853726387024, -1.7277048813678741, 1.2059478543930595, 0.25523287811803635, 9362.0, 30146.0, 35388.0, 9362.0, 7.933885097503662, 0.006089541595429182, 0.1642647385597229, -0.05364255979657173, 0.013093369081616402, -0.02259364165365696, 0.9993553757667542, -0.05406941846013069, 0.03208160400390625, 1.49853515625, 0.8759765625, 6.79736328125, 1.49560546875
18294, -1.1761966943740845, 3.903214693069458, -0.12462865561246872, -0.024041948840022087, 0.007314704824239016, -1.708839774131775, -0.1795801967382431, 0.054637935012578964, -0.2074003964662552, -0.408704936504364, -1.1031734943389893, 0.0658075362443924, -1.723038561441256, 1.211106624418079, 0.2549967849454422, 9362.0, 30146.0, 35388.0, 9362.0, 7.933885097503662, 0.05033581331372261, 0.19893202185630798, 0.2971706688404083, 0.012862474657595158, -0.021881503984332085, 1.0014784336090088, -0.056338220834732056, 0.0052013397216796875, 1.496337890625, 0.911865234375, 5.462860107421875, 1.494873046875
18314, -1.1757854223251343, 3.8971869945526123, -0.12107526510953903, -0.02587112784385681, 0.007871230132877827, -1.7109148502349854, -0.1862558275461197, 0.05666695907711983, -0.20760799944400787, -0.4087105393409729, -1.103217363357544, 0.06581223011016846, -1.7564089573809027, 1.2373151416366568, 0.28180213520917496, 9362.0, 30146.0, 35388.0, 9362.0, 7.933885097503662, 0.05033581331372261, 0.19893202185630798, 0.2971706688404083, 0.0120038827881217, -0.02022031880915165, 1.0012511014938354, -0.056338220834732056, 0.0052013397216796875, 1.496337890625, 1.8603515625, 1.21820068359375, 1.494873046875
18344, -1.1775761842727661, 3.899693250656128, -0.1199178621172905, -0.03175921365618706, 0.00966258067637682, -1.7171496152877808, -0.2062680870294571, 0.06275324523448944, -0.20817019045352936, -0.4087826907634735, -1.1031494140625, 0.06579682976007462, -1.7405912221148925, 1.2694583222205154, 0.24487064339265383, 9362.0, 30146.0, 35388.0, 9362.0, 7.933885097503662, 0.2132064253091812, 0.15137456357479095, 0.3877914249897003, 0.009824479930102825, -0.022182945162057877, 0.9986539483070374, -0.056338220834732056, 0.0052013397216796875, 1.496337890625, 1.8603515625, 1.21820068359375, 1.497802734375
18394, -1.178035855293274, 3.8984992504119873, -0.11214583367109299, -0.03601761907339096, 0.010958176106214523, -1.721321940422058, -0.21958027780056, 0.06680835038423538, -0.20892980694770813, -0.40882137417793274, -1.1032131910324097, 0.06585991382598877, -1.732023363595874, 1.2459235631943955, 0.2655894861984849, 9362.0, 30146.0, 35388.0, 9362.0, 7.933885097503662, 0.2132064253091812, 0.15137456357479095, 0.3877914249897003, 0.013105954974889755, -0.021188028156757355, 0.9999280571937561, -0.04833252355456352, -0.030637741088867188, 1.493408203125, 1.8603515625, 1.21820068359375, 1.493408203125
18414, -1.1764565706253052, 3.893836498260498, -0.10575319081544876, -0.03601761907339096, 0.010958176106214523, -1.721321940422058, -0.21958027780056, 0.06680835038423538, -0.20892980694770813, -0.4087985157966614, -1.1032401323318481, 0.065965935587883, -1.715553039316418, 1.2511356575433865, 0.23555771608073187, 9362.0, 30146.0, 35388.0, 9362.0, 7.933885097503662, -0.1645299345254898, 0.3753993809223175, 0.3092043101787567, 0.013105954974889755, -0.021188028156757355, 0.9999280571937561, -0.048740219324827194, 0.04104042053222656, 1.499267578125, 1.8603515625, 1.21820068359375, 1.49560546875
18434, -1.176773190498352, 3.886439800262451, -0.09496822208166122, -0.05571657419204712, 0.01695224642753601, -1.7381263971328735, -0.27287715673446655, 0.0830359011888504, -0.21123775839805603, -0.40873321890830994, -1.10325288772583, 0.06600768119096756, -1.7186008706684908, 1.2528581073490273, 0.22462388541129358, 9362.0, 30146.0, 35388.0, 9362.0, 7.933885097503662, -0.1645299345254898, 0.3753993809223175, 0.3092043101787567, 0.01223399955779314, -0.022548895329236984, 0.9990485310554504, -0.048740219324827194, 0.04104042053222656, 1.499267578125, 1.8603515625, 1.21820068359375, 1.49560546875
18464, -1.1761746406555176, 3.8823583126068115, -0.08463670313358307, -0.05571657419204712, 0.01695224642753601, -1.7381263971328735, -0.27287715673446655, 0.0830359011888504, -0.21123775839805603, -0.40872716903686523, -1.1032509803771973, 0.06601056456565857, -1.7008209338619973, 1.1843273361974411, 0.20187259134647795, 9362.0, 30146.0, 35388.0, 9362.0, 7.933885097503662, 0.057119034230709076, 0.03206944838166237, 0.17720964550971985, 0.01195456087589264, -0.02172146365046501, 0.9990050792694092, -0.05940386652946472, -0.05751800537109375, 1.4912109375, 1.8603515625, 1.21820068359375, 1.48974609375
18494, -1.1772533655166626, 3.8748018741607666, -0.0721609815955162, -0.05571657419204712, 0.01695224642753601, -1.7381263971328735, -0.27287715673446655, 0.0830359011888504, -0.21123775839805603, -0.4086269736289978, -1.1032748222351074, 0.06601766496896744, -1.681966404154463, 1.1598892367315443, 0.25436690891787433, 9362.0, 30146.0, 35388.0, 9362.0, 7.933885097503662, -0.0317799337208271, 0.44833528995513916, 0.23257823288440704, 0.01242730300873518, -0.022045062854886055, 0.998716413974762, -0.06608442962169647, -0.0037593841552734375, 1.49560546875, 1.8603515625, 1.21820068359375, 1.493408203125
18514, -1.179011344909668, 3.8626933097839355, -0.07019564509391785, -0.05571657419204712, 0.01695224642753601, -1.7381263971328735, -0.27287715673446655, 0.0830359011888504, -0.21123775839805603, -0.40857699513435364, -1.1032932996749878, 0.06616391986608505, -1.6629452642701918, 1.1831317571533475, 0.1314701113903785, 9362.0, 30146.0, 35388.0, 9362.0, 7.933885097503662, 0.04822825267910957, 0.5559520721435547, -0.23450149595737457, 0.01242730300873518, -0.022045062854886055, 0.998716413974762, -0.06474678963422775, 0.08584022521972656, 1.5029296875, 1.626708984375, 0.4812774658203125, 1.493408203125
18534, -1.1790037155151367, 3.8539469242095947, -0.08168546855449677, -0.08632320165634155, 0.02626783773303032, -1.7593892812728882, -0.33919814229011536, 0.10327914357185364, -0.21380312740802765, -0.40856051445007324, -1.1033024787902832, 0.06617531180381775, -1.657246654546241, 1.1820576774133542, 0.1375046367969769, 9362.0, 30146.0, 35388.0, 9362.0, 7.933885097503662, 0.04822825267910957, 0.5559520721435547, -0.23450149595737457, 0.01419067569077015, -0.01987510174512863, 0.9995473027229309, -0.06147238239645958, 0.09480094909667969, 1.503662109375, 1.626708984375, 0.4812774658203125, 1.493408203125
18544, -1.1797000169754028, 3.8482377529144287, -0.09176938235759735, -0.08632320165634155, 0.02626783773303032, -1.7593892812728882, -0.33919814229011536, 0.10327914357185364, -0.21380312740802765, -0.408603310585022, -1.1033053398132324, 0.06618130207061768, -1.6611423522639905, 1.216424740729451, 0.12987267204121936, 9362.0, 30146.0, 35388.0, 9362.0, 7.933885097503662, 0.029479552060365677, 0.5403808355331421, -1.5065488815307617, 0.01419067569077015, -0.01987510174512863, 0.9995473027229309, -0.06147238239645958, 0.09480094909667969, 1.503662109375, 1.626708984375, 0.4812774658203125, 1.493408203125
18554, -1.1797274351119995, 3.8431503772735596, -0.10382888466119766, -0.09323909133672714, 0.02837395668029785, -1.7636698484420776, -0.3523871898651123, 0.10733522474765778, -0.21424758434295654, -0.4086179733276367, -1.1033132076263428, 0.06618224084377289, -1.6671334701831175, 1.2409114442610587, 0.14223892970227617, 9362.0, 30146.0, 35388.0, 9362.0, 7.933885097503662, 0.13824144005775452, 0.8509609699249268, -1.1201940774917603, 0.01419067569077015, -0.01987510174512863, 0.9995473027229309, -0.06147238239645958, 0.09480094909667969, 1.503662109375, 1.626708984375, 0.4812774658203125, 1.493408203125
18594, -1.1815367937088013, 3.8252575397491455, -0.15745073556900024, -0.09679586440324783, 0.029457462951540947, -1.7658134698867798, -0.358967661857605, 0.10936734825372696, -0.21446454524993896, -0.4087124168872833, -1.103327751159668, 0.066240094602108, -1.6375681371318749, 1.2246805528091897, 0.07999987046863376, 9362.0, 30146.0, 35388.0, 9362.0, 7.933885097503662, -0.24018634855747223, 0.530362069606781, -1.3248566389083862, 0.006162090227007866, -0.021751362830400467, 1.0003730058670044, -0.06398789584636688, -0.01271820068359375, 1.494873046875, 1.626708984375, 0.4812774658203125, 1.493408203125
18604, -1.1804358959197998, 3.8255789279937744, -0.16944314539432526, -0.09679586440324783, 0.029457462951540947, -1.7658134698867798, -0.358967661857605, 0.10936734825372696, -0.21446454524993896, -0.40870821475982666, -1.1033388376235962, 0.0662437453866005, -1.6409738088289698, 1.2468729774662393, 0.09365511782469357, 9362.0, 30146.0, 35388.0, 9362.0, 7.933885097503662, -0.24018634855747223, 0.530362069606781, -1.3248566389083862, 0.006592839024960995, -0.020037446171045303, 1.0002684593200684, -0.06398789584636688, -0.01271820068359375, 1.494873046875, 1.626708984375, 0.4812774658203125, 1.493408203125
18634, -1.1745389699935913, 3.843234062194824, -0.1829121857881546, -0.11556406319141388, 0.03518020734190941, -1.7765662670135498, -0.3917269706726074, 0.11955226212739944, -0.2156606912612915, -0.4087296426296234, -1.1033298969268799, 0.06623507291078568, -1.6340447151255322, 1.2532473425045225, 0.08655944837278873, 9362.0, 30146.0, 35388.0, 9362.0, 7.933885097503662, 0.2615097463130951, -0.4739575684070587, -0.32522881031036377, 0.006248779594898224, -0.0202912837266922, 0.9990371465682983, -0.058629993349313736, -0.04855918884277344, 1.491943359375, 1.626708984375, 0.4812774658203125, 1.4912109375
18644, -1.1729415655136108, 3.8527755737304688, -0.18169425427913666, -0.11556406319141388, 0.03518020734190941, -1.7765662670135498, -0.3917269706726074, 0.11955226212739944, -0.2156606912612915, -0.40873634815216064, -1.1033086776733398, 0.06621766835451126, -1.647293331515295, 1.2638030232673145, 0.07200057246527858, 9362.0, 30146.0, 35388.0, 9362.0, 7.933885097503662, 0.2615097463130951, -0.4739575684070587, -0.32522881031036377, 0.006248779594898224, -0.0202912837266922, 0.9990371465682983, -0.058629993349313736, -0.04855918884277344, 1.491943359375, 1.626708984375, 0.4812774658203125, 1.4912109375
18664, -1.1698620319366455, 3.8793764114379883, -0.1780024766921997, -0.13175702095031738, 0.040125422179698944, -1.7852094173431396, -0.41793739795684814, 0.12769855558872223, -0.21660985052585602, -0.40871185064315796, -1.1033082008361816, 0.06622759997844696, -1.6533333776423862, 1.2589322297654348, 0.08654629337109515, 9362.0, 30146.0, 35388.0, 9362.0, 7.933885097503662, 0.2615097463130951, -0.4739575684070587, -0.32522881031036377, 0.01421067863702774, -0.01975295878946781, 0.9997021555900574, -0.058629993349313736, -0.04855918884277344, 1.491943359375, 1.626708984375, 0.4812774658203125, 1.4912109375
18694, -1.1684414148330688, 3.9047255516052246, -0.1678185909986496, -0.13175702095031738, 0.040125422179698944, -1.7852094173431396, -0.41793739795684814, 0.12769855558872223, -0.21660985052585602, -0.40870845317840576, -1.1032958030700684, 0.06622956693172455, -1.659363567716034, 1.2318047374711227, 0.09499887964082394, 9362.0, 30146.0, 35388.0, 9362.0, 7.933885097503662, -0.017089596018195152, -0.3686197102069855, 0.4535534083843231, 0.018395332619547844, -0.0185410026460886, 1.001168131828308, -0.0628301277756691, -0.27255821228027344, 1.4736328125, 1.626708984375, 0.4812774658203125, 1.4970703125
18724, -1.171341896057129, 3.8968446254730225, -0.15842323005199432, -0.1626342386007309, 0.04956022650003433, -1.8004432916641235, -0.4644008278846741, 0.14185509085655212, -0.21854569017887115, -0.4086848497390747, -1.1033042669296265, 0.06613229215145111, -1.69605594232012, 1.1730318580880237, 0.20185948921924815, 9362.0, 30146.0, 35388.0, 9362.0, 7.933885097503662, -0.017089596018195152, -0.3686197102069855, 0.4535534083843231, 0.019668888300657272, -0.020571447908878326, 1.0011738538742065, -0.041467953473329544, -0.12023735046386719, 1.486083984375, 1.626708984375, 0.4812774658203125, 1.494873046875
18734, -1.1737736463546753, 3.885636329650879, -0.15822085738182068, -0.1626342386007309, 0.04956022650003433, -1.8004432916641235, -0.4644008278846741, 0.14185509085655212, -0.21854569017887115, -0.408744215965271, -1.1032707691192627, 0.0660838708281517, -1.6915013313831706, 1.1707959806680037, 0.15536805824087707, 9362.0, 30146.0, 35388.0, 9362.0, 7.933885097503662, -0.017089596018195152, -0.3686197102069855, 0.4535534083843231, 0.01749379001557827, -0.01911102794110775, 0.9994205236434937, -0.041467953473329544, -0.12023735046386719, 1.486083984375, 1.626708984375, 0.4812774658203125, 1.494873046875
18744, -1.1759766340255737, 3.870602607727051, -0.15900938212871552, -0.17205558717250824, 0.052437759935855865, -1.8048193454742432, -0.4777328372001648, 0.14590056240558624, -0.21900834143161774, -0.40874314308166504, -1.1032605171203613, 0.06602253764867783, -1.6926773892153955, 1.141636499823079, 0.18616539119642514, 9362.0, 30146.0, 35388.0, 9362.0, 7.933885097503662, -0.2976214289665222, 1.1859569549560547, -0.49695417284965515, 0.01749379001557827, -0.01911102794110775, 0.9994205236434937, -0.041467953473329544, -0.12023735046386719, 1.486083984375, 1.626708984375, 0.4812774658203125, 1.494873046875
18804, -1.1880310773849487, 3.808243989944458, -0.18812790513038635, -0.1817428469657898, 0.055396322160959244, -1.8092057704925537, -0.4909796714782715, 0.1499578058719635, -0.21962890028953552, -0.4086962044239044, -1.1032801866531372, 0.06603967398405075, -1.6867971104900794, 1.1962405028584726, 0.2197522784552503, 9362.0, 30146.0, 35388.0, 9362.0, 7.933885097503662, 0.11588119715452194, 0.21879640221595764, -0.6841174960136414, 0.012965306639671326, -0.020531130954623222, 0.9997465014457703, -0.036786481738090515, -0.08439826965332031, 1.489013671875, 1.626708984375, 0.4812774658203125, 1.491943359375
18814, -1.1872833967208862, 3.808393716812134, -0.19458922743797302, -0.20711377263069153, 0.06314996629953384, -1.8202002048492432, -0.5237826704978943, 0.16020497679710388, -0.22015130519866943, -0.40872424840927124, -1.1032565832138062, 0.06600986421108246, -1.699600623982592, 1.2175389774449457, 0.2185980975409384, 9362.0, 30146.0, 35388.0, 9362.0, 7.933885097503662, 0.11588119715452194, 0.21879640221595764, -0.6841174960136414, 0.012965306639671326, -0.020531130954623222, 0.9997465014457703, -0.036786481738090515, -0.08439826965332031, 1.489013671875, 1.626708984375, 0.4812774658203125, 1.491943359375
18824, -1.1877667903900146, 3.8070874214172363, -0.2004823088645935, -0.20711377263069153, 0.06314996629953384, -1.8202002048492432, -0.5237826704978943, 0.16020497679710388, -0.22015130519866943, -0.4087248742580414, -1.1032794713974, 0.06602305173873901, -1.6864698965190272, 1.2107046213559727, 0.22258474420911875, 9362.0, 30146.0, 35388.0, 9362.0, 7.933885097503662, 0.11588119715452194, 0.21879640221595764, -0.6841174960136414, 0.0058751096948981285, -0.022829562425613403, 1.0009629726409912, -0.036786481738090515, -0.08439826965332031, 1.489013671875, 1.626708984375, 0.4812774658203125, 1.491943359375
18834, -1.1862132549285889, 3.8116064071655273, -0.2026171088218689, -0.21771970391273499, 0.06639521569013596, -1.824605941772461, -0.5368108749389648, 0.16432084143161774, -0.22042080760002136, -0.40874001383781433, -1.103285789489746, 0.06603562086820602, -1.6871904489799072, 1.2173598446554763, 0.22232999372737594, 9362.0, 30146.0, 35388.0, 9362.0, 7.933885097503662, 0.11588119715452194, 0.21879640221595764, -0.6841174960136414, 0.007412020117044449, -0.0212580393999815, 1.001706838607788, -0.036786481738090515, -0.08439826965332031, 1.489013671875, 1.626708984375, 0.4812774658203125, 1.491943359375
18844, -1.183487057685852, 3.8180413246154785, -0.20334824919700623, -0.21771970391273499, 0.06639521569013596, -1.824605941772461, -0.5368108749389648, 0.16432084143161774, -0.22042080760002136, -0.408742219209671, -1.1032826900482178, 0.06602752953767776, -1.686609473008688, 1.219723621260755, 0.22060528780669805, 9362.0, 30146.0, 35388.0, 9362.0, 7.933885097503662, 0.11588119715452194, 0.21879640221595764, -0.6841174960136414, 0.007412020117044449, -0.0212580393999815, 1.001706838607788, -0.036786481738090515, -0.08439826965332031, 1.489013671875, 1.626708984375, 0.4812774658203125, 1.491943359375
18864, -1.1791568994522095, 3.837359666824341, -0.20482662320137024, -0.22858619689941406, 0.06972279399633408, -1.829016923904419, -0.5498442649841309, 0.16843631863594055, -0.22065845131874084, -0.4087526798248291, -1.103262186050415, 0.06602144241333008, -1.689976047720381, 1.2331646433341916, 0.211498223066703, 9362.0, 30146.0, 35388.0, 9362.0, 7.933885097503662, 0.11588119715452194, 0.21879640221595764, -0.6841174960136414, 0.010607399046421051, -0.021803639829158783, 1.0003578662872314, -0.036786481738090515, -0.08439826965332031, 1.489013671875, 1.626708984375, 0.4812774658203125, 0.984375
18924, -1.169701337814331, 3.8933699131011963, -0.18043039739131927, -0.22858619689941406, 0.06972279399633408, -1.829016923904419, -0.5498442649841309, 0.16843631863594055, -0.22065845131874084, -0.4087481200695038, -1.1032589673995972, 0.06603178381919861, -1.6981552554480794, 1.2275178937031797, 0.2142245658968531, 9362.0, 30146.0, 35388.0, 9362.0, 7.933885097503662, 0.2208070158958435, -0.9921472072601318, 0.6448814868927002, 0.018731432035565376, -0.018449822440743446, 1.001956820487976, -0.05938767269253731, -0.2546367645263672, 1.47509765625, 1.626708984375, 0.4812774658203125, 1.497802734375
18934, -1.1714301109313965, 3.8976497650146484, -0.17626434564590454, -0.27467554807662964, 0.08385127782821655, -1.8467178344726562, -0.6025895476341248, 0.184736967086792, -0.22177281975746155, -0.40874260663986206, -1.1032757759094238, 0.06603601574897766, -1.6832385011308653, 1.2145921867898153, 0.21488800394697588, 9362.0, 30146.0, 35388.0, 9362.0, 7.933885097503662, 0.2208070158958435, -0.9921472072601318, 0.6448814868927002, 0.019549602642655373, -0.019522469490766525, 1.002053141593933, -0.05938767269253731, -0.2546367645263672, 1.47509765625, 1.626708984375, 0.4812774658203125, 1.497802734375
18954, -1.1748918294906616, 3.8935136795043945, -0.16999518871307373, -0.28073474764823914, 0.08570878207683563, -1.8489360809326172, -0.6092530488967896, 0.18676310777664185, -0.22187133133411407, -0.4087170660495758, -1.1032565832138062, 0.06603138148784637, -1.7012645139029792, 1.2155418539120433, 0.21860238435577087, 9362.0, 30146.0, 35388.0, 9362.0, 7.933885097503662, 0.2208070158958435, -0.9921472072601318, 0.6448814868927002, 0.018941223621368408, -0.019739259034395218, 0.9974845051765442, -0.05500956252217293, -0.06647872924804688, 1.490478515625, 1.626708984375, 0.4812774658203125, 1.493408203125
18964, -1.176750659942627, 3.8883779048919678, -0.16827265918254852, -0.29305315017700195, 0.08948460966348648, -1.8533765077590942, -0.6225775480270386, 0.19081762433052063, -0.22227582335472107, -0.4087222218513489, -1.1032650470733643, 0.06601616740226746, -1.6950579833805373, 1.2056232681538575, 0.2146890270709856, 9362.0, 30146.0, 35388.0, 9362.0, 7.933885097503662, 0.2208070158958435, -0.9921472072601318, 0.6448814868927002, 0.01818876713514328, -0.021170560270547867, 0.9980787634849548, -0.05500956252217293, -0.06647872924804688, 1.490478515625, 1.626708984375, 0.4812774658203125, 1.493408203125
19034, -1.19736909866333, 3.830404043197632, -0.16593803465366364, -0.3382572829723358, 0.10334143787622452, -1.8690118789672852, -0.6688675880432129, 0.20514382421970367, -0.22419525682926178, -0.40861815214157104, -1.1034096479415894, 0.06644845008850098, -1.6196355851693451, 1.063232277660461, 0.2900325796184862, 9362.0, 30146.0, 35388.0, 9362.0, 7.933885097503662, 0.016688726842403412, 0.8227704167366028, 0.11970457434654236, 0.008262797258794308, -0.02489054575562477, 1.0002461671829224, -0.05675695464015007, -0.04855918884277344, 1.491943359375, 1.626708984375, 0.4812774658203125, 1.491943359375
19044, -1.1979221105575562, 3.8281807899475098, -0.1669493019580841, -0.3449787497520447, 0.10540320724248886, -1.8712550401687622, -0.6754252314567566, 0.2072106897830963, -0.22443178296089172, -0.40869367122650146, -1.1032812595367432, 0.06603231281042099, -1.6876107923149632, 1.191624085604019, 0.22408967053076742, 9362.0, 30146.0, 35388.0, 9362.0, 7.933885097503662, 0.066736601293087, 0.13502147793769836, -0.15335039794445038, 0.008262797258794308, -0.02489054575562477, 1.0002461671829224, -0.05675695464015007, -0.04855918884277344, 1.491943359375, 1.626708984375, 0.4812774658203125, 1.491943359375
19064, -1.196691632270813, 3.8310558795928955, -0.1685231477022171, -0.35861802101135254, 0.10958876460790634, -1.8757504224777222, -0.6885045170783997, 0.21134696900844574, -0.2250450849533081, -0.40872621536254883, -1.1032588481903076, 0.06599882245063782, -1.6941731593306795, 1.2104316543146751, 0.2099130261699603, 9362.0, 30146.0, 35388.0, 9362.0, 7.933885097503662, 0.066736601293087, 0.13502147793769836, -0.15335039794445038, 0.007037295028567314, -0.02358173578977585, 1.0008764266967773, -0.05675695464015007, -0.04855918884277344, 1.491943359375, 1.626708984375, 0.4812774658203125, 1.491943359375
19134, -1.1858940124511719, 3.8745651245117188, -0.16609829664230347, -0.4084184765815735, 0.12488894164562225, -1.8915722370147705, -0.7344143390655518, 0.22577401995658875, -0.2273329347372055, -0.40872758626937866, -1.103272795677185, 0.06599834561347961, -1.6833045109705447, 1.2236587767037008, 0.219899380775594, 9362.0, 30146.0, 35388.0, 9362.0, 7.933885097503662, 0.01755814254283905, -0.6127616167068481, -0.34583011269569397, 0.013092750683426857, -0.021182792261242867, 0.9990199208259583, -0.09195198863744736, 0.10376167297363281, 1.50439453125, 1.626708984375, 0.4812774658203125, 1.493408203125
19144, -1.1854764223098755, 3.883444309234619, -0.16320517659187317, -0.41579562425613403, 0.12715692818164825, -1.8938473463058472, -0.7410179972648621, 0.22782248258590698, -0.22768746316432953, -0.4087451696395874, -1.1032483577728271, 0.06597043573856354, -1.6920755065840514, 1.2312858465443526, 0.2063986460367348, 9362.0, 30146.0, 35388.0, 9362.0, 7.933885097503662, 0.1355375498533249, -0.7606640458106995, -0.009877570904791355, 0.013092750683426857, -0.021182792261242867, 0.9990199208259583, -0.09195198863744736, 0.10376167297363281, 1.50439453125, 1.626708984375, 0.4812774658203125, 1.493408203125
19154, -1.185938835144043, 3.8873448371887207, -0.16243042051792145, -0.4232389032840729, 0.1294454038143158, -1.8961255550384521, -0.7476388812065125, 0.22987142205238342, -0.22794371843338013, -0.40873590111732483, -1.103270411491394, 0.06598322838544846, -1.683956027254924, 1.2285452855280425, 0.2123981932807535, 9362.0, 30146.0, 35388.0, 9362.0, 7.933885097503662, 0.1355375498533249, -0.7606640458106995, -0.009877570904791355, 0.015735210850834846, -0.021787265315651894, 1.0024065971374512, -0.09195198863744736, 0.10376167297363281, 1.50439453125, 1.626708984375, 0.4812774658203125, 1.493408203125
19174, -1.1876040697097778, 3.8910274505615234, -0.15750381350517273, -0.43074852228164673, 0.13175438344478607, -1.8984054327011108, -0.7542867064476013, 0.23192328214645386, -0.22802799940109253, -0.40863338112831116, -1.1033902168273926, 0.06642381846904755, -1.6265301971273363, 1.0773401793804283, 0.29828933005308583, 9362.0, 30146.0, 35388.0, 9362.0, 7.933885097503662, -0.16666245460510254, 0.10831750184297562, -0.0934375450015068, 0.015735210850834846, -0.021787265315651894, 1.0024065971374512, -0.03969213366508484, -0.030637741088867188, 1.493408203125, 1.626708984375, 0.4812774658203125, 1.493408203125
19194, -1.1905697584152222, 3.887603521347046, -0.15804222226142883, -0.45367658138275146, 0.13880440592765808, -1.9052518606185913, -0.7742435932159424, 0.23807618021965027, -0.22858083248138428, -0.4086385667324066, -1.10337233543396, 0.06640704721212387, -1.6251032551039275, 1.0806521672447218, 0.2956057029353515, 9362.0, 30146.0, 35388.0, 9362.0, 7.933885097503662, -0.16666245460510254, 0.10831750184297562, -0.0934375450015068, 0.015855513513088226, -0.018656618893146515, 0.9980450868606567, -0.04676175117492676, -0.030637741088867188, 1.493408203125, 1.626708984375, 0.4812774658203125, 1.493408203125
19214, -1.1929467916488647, 3.8778183460235596, -0.1602407544851303, -0.46929416060447693, 0.14360696077346802, -1.9098312854766846, -0.7875173091888428, 0.2421819418668747, -0.229322612285614, -0.4086163640022278, -1.1033762693405151, 0.06641237437725067, -1.6288097510135577, 1.0636089556645913, 0.2930147124777593, 9362.0, 30146.0, 35388.0, 9362.0, 7.933885097503662, 0.06899886578321457, 1.1094828844070435, 0.31483006477355957, 0.013254934921860695, -0.0225723534822464, 1.0023788213729858, -0.03918714448809624, -0.2098369598388672, 1.478759765625, 1.626708984375, 0.4812774658203125, 1.497802734375
19224, -1.1945176124572754, 3.8712668418884277, -0.1610655039548874, -0.4772025942802429, 0.14603909850120544, -1.912124514579773, -0.7941715717315674, 0.24424712359905243, -0.22932393848896027, -0.4086308181285858, -1.1033581495285034, 0.06639889627695084, -1.6280069838295943, 1.068273105453187, 0.282866495724864, 9362.0, 30146.0, 35388.0, 9362.0, 7.933885097503662, 0.06899886578321457, 1.1094828844070435, 0.31483006477355957, 0.012007818557322025, -0.021190162748098373, 1.000308632850647, -0.03918714448809624, -0.2098369598388672, 1.478759765625, 1.626708984375, 0.4812774658203125, 1.497802734375
19234, -1.1968944072723389, 3.86663818359375, -0.16107836365699768, -0.48517751693725586, 0.14849188923835754, -1.91441810131073, -0.8008100986480713, 0.24631167948246002, -0.2293996512889862, -0.40863293409347534, -1.1033575534820557, 0.06638560444116592, -1.6366835522455154, 1.0741152738523567, 0.2969790597005005, 9362.0, 30146.0, 35388.0, 9362.0, 7.933885097503662, 0.06899886578321457, 1.1094828844070435, 0.31483006477355957, 0.011867686174809933, -0.021683882921934128, 0.9981963634490967, -0.03918714448809624, -0.2098369598388672, 1.478759765625, 1.626708984375, 0.4812774658203125, 1.497802734375
19244, -1.197849988937378, 3.8598506450653076, -0.16311554610729218, -0.48517751693725586, 0.14849188923835754, -1.91441810131073, -0.8008100986480713, 0.24631167948246002, -0.2293996512889862, -0.4086282551288605, -1.1033556461334229, 0.06639379262924194, -1.6318324764998582, 1.0738976038095984, 0.2907953923505097, 9362.0, 30146.0, 35388.0, 9362.0, 7.933885097503662, 0.06899886578321457, 1.1094828844070435, 0.31483006477355957, 0.011041161604225636, -0.02271086908876896, 1.0001943111419678, -0.03918714448809624, -0.2098369598388672, 1.478759765625, 1.626708984375, 0.4812774658203125, 1.493408203125
19264, -1.1998690366744995, 3.8517496585845947, -0.16430136561393738, -0.509499192237854, 0.1559741497039795, -1.9213132858276367, -0.8206275105476379, 0.25251179933547974, -0.23017704486846924, -0.4085889458656311, -1.1033539772033691, 0.0663909837603569, -1.6269873203107605, 1.0948397123533482, 0.3213645883490099, 9362.0, 30146.0, 35388.0, 9362.0, 7.933885097503662, 0.06899886578321457, 1.1094828844070435, 0.31483006477355957, 0.010160202160477638, -0.02307824231684208, 1.0003060102462769, -0.04503393918275833, -0.13815879821777344, 1.484619140625, 1.626708984375, 0.4812774658203125, 1.493408203125
19344, -1.1932172775268555, 3.8552637100219727, -0.17214106023311615, -0.5260435938835144, 0.16106586158275604, -1.9259198904037476, -0.8338069915771484, 0.25665900111198425, -0.23054273426532745, -0.4086122512817383, -1.1033623218536377, 0.06639250367879868, -1.6184725190831244, 1.1079772105689756, 0.3182900915077686, 9362.0, 30146.0, 35388.0, 9362.0, 7.933885097503662, 0.16146092116832733, -0.5095134377479553, -0.5487536191940308, 0.010095215402543545, -0.018705381080508232, 1.0004159212112427, -0.05579407140612602, -0.04855918884277344, 1.491943359375, 1.626708984375, 0.4812774658203125, 1.49560546875
19354, -1.190898060798645, 3.8617801666259766, -0.17657923698425293, -0.5860187411308289, 0.1795395016670227, -1.9421188831329346, -0.8797854781150818, 0.27114686369895935, -0.23227691650390625, -0.40862083435058594, -1.1033527851104736, 0.06635796278715134, -1.6265834012658844, 1.1188421890892073, 0.31821925731572653, 9362.0, 30146.0, 35388.0, 9362.0, 7.933885097503662, 0.16146092116832733, -0.5095134377479553, -0.5487536191940308, 0.011413222178816795, -0.02076343074440956, 1.0007985830307007, -0.05579407140612602, -0.04855918884277344, 1.491943359375, 1.626708984375, 0.4812774658203125, 1.49560546875
19364, -1.1901605129241943, 3.8668737411499023, -0.1774439960718155, -0.5860187411308289, 0.1795395016670227, -1.9421188831329346, -0.8797854781150818, 0.27114686369895935, -0.23227691650390625, -0.4086168110370636, -1.1033421754837036, 0.06637396663427353, -1.6249870573515024, 1.1193994859786756, 0.3184976485992611, 9362.0, 30146.0, 35388.0, 9362.0, 7.933885097503662, -0.09182682633399963, -0.4349653124809265, -0.2282014787197113, 0.012608753517270088, -0.020077548921108246, 1.0012832880020142, -0.05579407140612602, -0.04855918884277344, 1.491943359375, 1.626708984375, 0.4812774658203125, 1.49560546875
19374, -1.190087914466858, 3.871476411819458, -0.18122710287570953, -0.603746235370636, 0.18500366806983948, -1.9467695951461792, -0.8929764628410339, 0.2752704322338104, -0.23271337151527405, -0.40862348675727844, -1.1033462285995483, 0.06637699902057648, -1.623687701214567, 1.1121034356207815, 0.3134470451860361, 9362.0, 30146.0, 35388.0, 9362.0, 7.933885097503662, -0.09182682633399963, -0.4349653124809265, -0.2282014787197113, 0.013640978373587132, -0.020622095093131065, 1.0007675886154175, -0.05579407140612602, -0.04855918884277344, 1.491943359375, 1.626708984375, 0.4812774658203125, 1.49560546875
19394, -1.1886749267578125, 3.878485679626465, -0.1824788898229599, -0.6217381358146667, 0.1905502825975418, -1.9514265060424805, -0.9062149524688721, 0.2793920934200287, -0.23297883570194244, -0.40861976146698, -1.10334050655365, 0.06637600809335709, -1.6243184256218324, 1.110297445647035, 0.3099794766632129, 9362.0, 30146.0, 35388.0, 9362.0, 7.933885097503662, -0.09182682633399963, -0.4349653124809265, -0.2282014787197113, 0.014959456399083138, -0.02156471461057663, 1.000295639038086, -0.04366384074091911, -0.11127853393554688, 1.48681640625, 1.626708984375, 0.4812774658203125, 1.49560546875
19444, -1.1887494325637817, 3.8763647079467773, -0.19282712042331696, -0.6217381358146667, 0.1905502825975418, -1.9514265060424805, -0.9062149524688721, 0.2793920934200287, -0.23297883570194244, -0.40862131118774414, -1.1033570766448975, 0.06638454645872116, -1.6179609597587084, 1.1065622947295708, 0.3067529374633408, 9362.0, 30146.0, 35388.0, 9362.0, 7.933885097503662, -0.13854478299617767, -0.11918657273054123, -0.2504480183124542, 0.014959456399083138, -0.02156471461057663, 1.000295639038086, -0.03798516467213631, -0.12023735046386719, 1.486083984375, 1.626708984375, 0.4812774658203125, 1.49853515625
19454, -1.1894060373306274, 3.87222957611084, -0.19380590319633484, -0.6773043870925903, 0.20768408477306366, -1.9654432535171509, -0.9460000395774841, 0.2917369306087494, -0.23414817452430725, -0.4086168706417084, -1.103358268737793, 0.06637713313102722, -1.615059388210706, 1.1108657005776763, 0.3062412125190529, 9362.0, 30146.0, 35388.0, 9362.0, 7.933885097503662, -0.13854478299617767, -0.11918657273054123, -0.2504480183124542, 0.014179450459778309, -0.02107112482190132, 1.002297282218933, -0.03798516467213631, -0.12023735046386719, 1.486083984375, 1.626708984375, 0.4812774658203125, 1.49853515625
19494, -1.1933016777038574, 3.8492579460144043, -0.18999223411083221, -0.6867976188659668, 0.21061179041862488, -1.9677839279174805, -0.9526513814926147, 0.2938031852245331, -0.233981192111969, -0.4086330533027649, -1.1033812761306763, 0.06640612334012985, -1.6297751850339715, 1.1097478022614666, 0.32836667200309216, 9362.0, 30146.0, 35388.0, 9362.0, 7.933885097503662, -0.13854478299617767, -0.11918657273054123, -0.2504480183124542, 0.008641446940600872, -0.021108023822307587, 1.0003076791763306, -0.03798516467213631, -0.12023735046386719, 1.486083984375, 1.626708984375, 0.4812774658203125, 1.491943359375
19534, -1.1964472532272339, 3.8443405628204346, -0.18063583970069885, -0.6867976188659668, 0.21061179041862488, -1.9677839279174805, -0.9526513814926147, 0.2938031852245331, -0.233981192111969, -0.4086543619632721, -1.1033892631530762, 0.06645988672971725, -1.6258691412319455, 1.0955193779222725, 0.2975345964508479, 9362.0, 30146.0, 35388.0, 9362.0, 7.933885097503662, -0.10171910375356674, -0.17895148694515228, 0.22957710921764374, 0.011704877018928528, -0.021637583151459694, 1.0009158849716187, -0.06241346895694733, -0.03959846496582031, 1.49267578125, 1.626708984375, 0.4812774658203125, 1.4970703125
19544, -1.1961759328842163, 3.844924211502075, -0.17865723371505737, -0.7651204466819763, 0.23477588593959808, -1.9865738153457642, -1.0053406953811646, 0.3103129267692566, -0.23586593568325043, -0.40865200757980347, -1.1033878326416016, 0.06645253300666809, -1.624097750154913, 1.0952623336986562, 0.29155458526800676, 9362.0, 30146.0, 35388.0, 9362.0, 7.933885097503662, -0.10171910375356674, -0.17895148694515228, 0.22957710921764374, 0.013131856918334961, -0.020311065018177032, 1.0010006427764893, -0.06241346895694733, -0.03959846496582031, 1.49267578125, 1.626708984375, 0.4812774658203125, 1.4970703125
19554, -1.1967872381210327, 3.8477065563201904, -0.17709551751613617, -0.7752067446708679, 0.237889364361763, -1.9889332056045532, -1.0119158029556274, 0.31238362193107605, -0.23602142930030823, -0.4086509048938751, -1.103386640548706, 0.06643911451101303, -1.6275072701963913, 1.0933312702843239, 0.2954251299518185, 9362.0, 30146.0, 35388.0, 9362.0, 7.933885097503662, -0.10171910375356674, -0.17895148694515228, 0.22957710921764374, 0.010852113366127014, -0.021807804703712463, 1.0017321109771729, -0.06241346895694733, -0.03959846496582031, 1.49267578125, 1.626708984375, 0.4812774658203125, 1.4970703125
19574, -1.1963896751403809, 3.8547728061676025, -0.1768796145915985, -0.7853587865829468, 0.24102355539798737, -1.991294264793396, -1.0184917449951172, 0.3144535720348358, -0.23618169128894806, -0.40873071551322937, -1.1032731533050537, 0.06604282557964325, -1.6892267346433125, 1.2181085240240748, 0.22285263327896093, 9362.0, 30146.0, 35388.0, 9362.0, 7.933885097503662, -0.10171910375356674, -0.17895148694515228, 0.22957710921764374, 0.011185700073838234, -0.020098354667425156, 1.0000433921813965, -0.06241346895694733, -0.03959846496582031, 1.49267578125, 1.626708984375, 0.4812774658203125, 1.494140625
19594, -1.1939526796340942, 3.859705924987793, -0.17490758001804352, -0.8162097334861755, 0.2505502700805664, -1.9983887672424316, -1.038236379623413, 0.32065942883491516, -0.23687215149402618, -0.40872523188591003, -1.1032837629318237, 0.06603247672319412, -1.690282301900477, 1.2219759986579106, 0.22050339783822523, 9362.0, 30146.0, 35388.0, 9362.0, 7.933885097503662, -0.10171910375356674, -0.17895148694515228, 0.22957710921764374, 0.013858409598469734, -0.020182382315397263, 0.9993695020675659, -0.06241346895694733, -0.03959846496582031, 1.49267578125, 1.626708984375, 0.4812774658203125, 1.494140625
19604, -1.1931639909744263, 3.861525774002075, -0.17429080605506897, -0.8162097334861755, 0.2505502700805664, -1.9983887672424316, -1.038236379623413, 0.32065942883491516, -0.23687215149402618, -0.4087333381175995, -1.1032660007476807, 0.06600580364465714, -1.6999770123405273, 1.2279808727232364, 0.2169262632397569, 9362.0, 30146.0, 35388.0, 9362.0, 7.933885097503662, 0.12745951116085052, -0.049796655774116516, -0.13158589601516724, 0.013858409598469734, -0.020182382315397263, 0.9993695020675659, -0.06241346895694733, -0.03959846496582031, 1.49267578125, 1.626708984375, 0.4812774658203125, 1.494140625
19634, -1.1907044649124146, 3.87192440032959, -0.18049965798854828, -0.8476535677909851, 0.26026296615600586, -2.0055060386657715, -1.0580189228057861, 0.3268507421016693, -0.23767457902431488, -0.40874508023262024, -1.103269338607788, 0.06600495427846909, -1.6955765675823276, 1.222078232171981, 0.21921581329504483, 9362.0, 30146.0, 35388.0, 9362.0, 7.933885097503662, 0.10260441154241562, -0.5116387009620667, -0.3304077982902527, 0.013858409598469734, -0.020182382315397263, 0.9993695020675659, -0.03834758326411247, -0.1291980743408203, 1.4853515625, 1.626708984375, 0.4812774658203125, 1.49267578125
19654, -1.19223952293396, 3.872196674346924, -0.17903926968574524, -0.8689459562301636, 0.26684117317199707, -2.010265827178955, -1.0712312459945679, 0.33097100257873535, -0.23824362456798553, -0.40875640511512756, -1.103270411491394, 0.06601231545209885, -1.687153122011272, 1.2323368869914475, 0.21268330686846676, 9362.0, 30146.0, 35388.0, 9362.0, 7.933885097503662, 0.08619906008243561, 0.07549016922712326, -0.1128389909863472, 0.013858409598469734, -0.020182382315397263, 0.9993695020675659, -0.037368133664131165, -0.14711761474609375, 1.48388671875, 1.626708984375, 0.4812774658203125, 1.49560546875
19664, -1.1928058862686157, 3.8719396591186523, -0.1808992326259613, -0.8689459562301636, 0.26684117317199707, -2.010265827178955, -1.0712312459945679, 0.33097100257873535, -0.23824362456798553, -0.40873709321022034, -1.103272557258606, 0.06599202752113342, -1.6903506623343039, 1.2305377200492273, 0.2083429508215793, 9362.0, 30146.0, 35388.0, 9362.0, 7.933885097503662, 0.08619906008243561, 0.07549016922712326, -0.1128389909863472, 0.014222512021660805, -0.022328564897179604, 0.9969184398651123, -0.037368133664131165, -0.14711761474609375, 1.48388671875, 1.626708984375, 0.4812774658203125, 1.49560546875
19674, -1.192373275756836, 3.870513439178467, -0.18351492285728455, -0.9013805985450745, 0.2768629789352417, -2.017425298690796, -1.091067910194397, 0.33714812994003296, -0.2392096370458603, -0.4087465703487396, -1.1032750606536865, 0.0659852996468544, -1.690930670572212, 1.2323137906468844, 0.21522338485780085, 9362.0, 30146.0, 35388.0, 9362.0, 7.933885097503662, 0.08619906008243561, 0.07549016922712326, -0.1128389909863472, 0.014016455039381981, -0.022110961377620697, 0.9978678822517395, -0.037368133664131165, -0.14711761474609375, 1.48388671875, 1.626708984375, 0.4812774658203125, 1.49560546875
19684, -1.1937181949615479, 3.8677878379821777, -0.1824663281440735, -0.9123242497444153, 0.28024473786354065, -2.019819974899292, -1.097665548324585, 0.33920562267303467, -0.2397295981645584, -0.4087595045566559, -1.103271722793579, 0.06598945707082748, -1.685234433666626, 1.2349194556229293, 0.19568882899403578, 9362.0, 30146.0, 35388.0, 9362.0, 7.933885097503662, -0.14099562168121338, 0.22498710453510284, -0.010098046623170376, 0.014016455039381981, -0.022110961377620697, 0.9978678822517395, -0.02354639396071434, -0.04855918884277344, 1.491943359375, 1.626708984375, 0.4812774658203125, 1.49560546875
19754, -1.1967943906784058, 3.855086088180542, -0.17688928544521332, -0.9793721437454224, 0.3009682595729828, -2.0342726707458496, -1.1372569799423218, 0.3515886068344116, -0.24179497361183167, -0.4087926149368286, -1.1032531261444092, 0.06600399315357208, -1.7078052575138492, 1.2789604279281832, 0.2057285769299932, 9362.0, 30146.0, 35388.0, 9362.0, 7.933885097503662, -0.26201727986335754, 0.03252792730927467, 0.050403982400894165, 0.011762689799070358, -0.02402118407189846, 0.9992346167564392, -0.04038163274526596, -0.2635974884033203, 1.474365234375, 1.626708984375, 0.4812774658203125, 1.493408203125
19764, -1.1978274583816528, 3.8521974086761475, -0.17496730387210846, -1.0022488832473755, 0.3080413341522217, -2.0391173362731934, -1.1504138708114624, 0.3557172119617462, -0.24266892671585083, -0.40881505608558655, -1.1032463312149048, 0.06599689275026321, -1.7031220395115543, 1.2884465108359109, 0.20765729838104954, 9362.0, 30146.0, 35388.0, 9362.0, 7.933885097503662, -0.26201727986335754, 0.03252792730927467, 0.050403982400894165, 0.00998373981565237, -0.023753033950924873, 1.0009535551071167, -0.04038163274526596, -0.2635974884033203, 1.474365234375, 1.626708984375, 0.4812774658203125, 1.493408203125
19774, -1.1991385221481323, 3.8505442142486572, -0.17206718027591705, -1.0137859582901, 0.31160885095596313, -2.0415451526641846, -1.1570024490356445, 0.35778653621673584, -0.24289949238300323, -0.40880686044692993, -1.103276252746582, 0.0660298615694046, -1.699509852861452, 1.2856763586353566, 0.2191730909619405, 9362.0, 30146.0, 35388.0, 9362.0, 7.933885097503662, -0.26201727986335754, 0.03252792730927467, 0.050403982400894165, 0.00998373981565237, -0.023753033950924873, 1.0009535551071167, -0.04038163274526596, -0.2635974884033203, 1.474365234375, 1.626708984375, 0.4812774658203125, 1.493408203125
19784, -1.199652910232544, 3.850898504257202, -0.17190082371234894, -1.0253889560699463, 0.31519708037376404, -2.0439746379852295, -1.1635947227478027, 0.35985997319221497, -0.24300366640090942, -0.4088228642940521, -1.1032392978668213, 0.0659957304596901, -1.7082119125646291, 1.2958547109055303, 0.20280908509188078, 9362.0, 30146.0, 35388.0, 9362.0, 7.933885097503662, -0.26201727986335754, 0.03252792730927467, 0.050403982400894165, 0.012866952456533909, -0.021048804745078087, 1.002217411994934, -0.04038163274526596, -0.2635974884033203, 1.474365234375, 1.626708984375, 0.4812774658203125, 1.493408203125
19794, -1.1995497941970825, 3.8515217304229736, -0.17069385945796967, -1.037057876586914, 0.3188060522079468, -2.0464048385620117, -1.1701884269714355, 0.3619369566440582, -0.2430466264486313, -0.40882810950279236, -1.1032416820526123, 0.06600528210401535, -1.712553629830728, 1.301575420967282, 0.2073638811816805, 9362.0, 30146.0, 35388.0, 9362.0, 7.933885097503662, -0.26201727986335754, 0.03252792730927467, 0.050403982400894165, 0.011595703661441803, -0.019338460639119148, 1.0009292364120483, -0.04038163274526596, -0.2635974884033203, 1.474365234375, 1.626708984375, 0.4812774658203125, 1.493408203125
19804, -1.2005088329315186, 3.8552210330963135, -0.16832129657268524, -1.037057876586914, 0.3188060522079468, -2.0464048385620117, -1.1701884269714355, 0.3619369566440582, -0.2430466264486313, -0.40884077548980713, -1.1032429933547974, 0.06600894033908844, -1.7118406785734255, 1.3002821228992616, 0.2069495866881339, 9362.0, 30146.0, 35388.0, 9362.0, 7.933885097503662, -0.26201727986335754, 0.03252792730927467, 0.050403982400894165, 0.011595703661441803, -0.019338460639119148, 1.0009292364120483, -0.04038163274526596, -0.2635974884033203, 1.474365234375, 1.626708984375, 0.4812774658203125, 1.493408203125
19844, -1.2000031471252441, 3.868378162384033, -0.1609189361333847, -1.037057876586914, 0.3188060522079468, -2.0464048385620117, -1.1701884269714355, 0.3619369566440582, -0.2430466264486313, -0.40884748101234436, -1.1032453775405884, 0.06601754575967789, -1.7155193162250906, 1.3166859766635355, 0.21060220338342078, 9362.0, 30146.0, 35388.0, 9362.0, 7.933885097503662, 0.12725453078746796, -0.23626139760017395, -0.23848049342632294, 0.011595703661441803, -0.019338460639119148, 1.0009292364120483, -0.05547000840306282, -0.07543754577636719, 1.48974609375, 1.626708984375, 0.4812774658203125, 1.491943359375
