timeTick, roll, pitch, yaw, stateX, stateY, stateZ, stateVX, stateVY, stateVZ, otX0, otY0, otZ0, otRoll0, otPitch0, otYaw0, left wing, pitch motor, yaw motor, right wing, voltage, roll rate, pitch rate, yaw rate, A_x, A_y, A_z, current, i_raw, v_raw, airflow_voltage, airflow_speed, pot_Pitch
15908, 1.491748332977295, -2.4415810108184814, 0.15880565345287323, 0, 0, 0, 0, 0, 0, -0.42425447702407837, -1.1581552028656006, 0.06626710295677185, -2.4379342539750213, 1.7557429033383016, 6.5047943926349765, 0, 0, 0, 0, 0, 0, 0, 0, 0, 0, 0, 0, 0, 0, 0, 0, 0
15918, 1.496405005455017, -2.4442543983459473, 0.15691053867340088, 0.00010026004019891843, -6.099254824221134e-05, 0.1395517736673355, 0.009213185869157314, -0.005602979566901922, 0.020053116604685783, -0.4242825210094452, -1.1581518650054932, 0.0663069561123848, -2.4333523450547014, 1.7634566064694752, 6.517788594757928, 9362.0, 30146.0, 35388.0, 9362.0, 8.17190170288086, 0.273658812046051, 0.7493531107902527, 1.4712121486663818, 0, 0, 0, 0, 0, 0, 0, 0, 0
15928, 1.4929540157318115, -2.436863899230957, 0.16379548609256744, 0.00021373276831582189, -0.00012998685997445136, 0.13976144790649414, 0.013481348752975464, -0.00819618720561266, 0.021883130073547363, -0.42427244782447815, -1.1581262350082397, 0.06628705561161041, -2.444987016743706, 1.7756194359895687, 6.509000674665008, 9362.0, 30146.0, 35388.0, 9362.0, 8.17190170288086, -0.36914125084877014, -2.5163097381591797, -3.1888554096221924, 0.01756075583398342, -0.027102697640657425, 1.0187400579452515, -0.042340703308582306, 0.11272048950195312, 1.505126953125, 1.634033203125, 0.499237060546875, 1.497802734375
15938, 1.4841796159744263, -2.4258804321289062, 0.16425417363643646, 0.0003695889317896217, -0.00022475904552266002, 0.13998191058635712, 0.017690157517790794, -0.01075771264731884, 0.022211719304323196, -0.4243001341819763, -1.1581237316131592, 0.06622695922851562, -2.4533149647023023, 1.7825236811201535, 6.517059726701267, 9362.0, 30146.0, 35388.0, 9362.0, 8.17190170288086, -1.3775256872177124, -0.2920532822608948, -0.3001031279563904, 0.021921614184975624, -0.04449344798922539, 0.9783750772476196, -0.04096053168177605, 0.014162063598632812, 1.4970703125, 1.809814453125, 1.009002685546875, 1.5
15948, 1.472571611404419, -2.418734073638916, 0.15645790100097656, 0.0005666842334903777, -0.00034463516203686595, 0.14018720388412476, 0.02172958105802536, -0.01321796327829361, 0.01884952187538147, -0.4242941737174988, -1.1581183671951294, 0.06629245728254318, -2.4762206889905607, 1.7850573610703009, 6.523035035356662, 9362.0, 30146.0, 35388.0, 9362.0, 8.17190170288086, -0.8194054365158081, -0.6940929889678955, 2.634680986404419, 0.015117610804736614, -0.03814079612493515, 0.9493823051452637, -0.04802099987864494, -0.2635974884033203, 1.474365234375, 1.188720703125, 0.4511871337890625, 1.491943359375
15958, 1.465375304222107, -2.4207193851470947, 0.16724622249603271, 0.0008038162486627698, -0.0004888790426775813, 0.14035260677337646, 0.025697091594338417, -0.015632258728146553, 0.01423141360282898, -0.4243006110191345, -1.1581135988235474, 0.06628302484750748, -2.4704361257227725, 1.7885836953261105, 6.5275430702540636, 9362.0, 30146.0, 35388.0, 9362.0, 8.17190170288086, -0.6315812468528748, 0.18720677495002747, -0.7292291522026062, 0.010818297043442726, -0.017168087884783745, 0.9785385131835938, -0.047920022159814835, -0.20087814331054688, 1.4794921875, 0.787353515625, 11.072372436523438, 1.494140625
15968, 1.4586608409881592, -2.412428855895996, 0.17336536943912506, 0.0010814897250384092, -0.0006577348103746772, 0.1404937207698822, 0.02983808144927025, -0.018138131126761436, 0.013992935419082642, -0.4243032932281494, -1.158127784729004, 0.06625626236200333, -2.4751326374993705, 1.7855272202681363, 6.525528854340746, 9362.0, 30146.0, 35388.0, 9362.0, 8.17190170288086, -0.6590350270271301, -0.6730127930641174, 0.7717518210411072, 0.02772289142012596, -0.030266940593719482, 1.0308499336242676, -0.04042402654886246, 0.06792068481445312, 1.50146484375, 0.942626953125, 4.4769134521484375, 1.494140625
15978, 1.4521706104278564, -2.41020131111145, 0.16305314004421234, 0.0014014013577252626, -0.0008520706905983388, 0.14065155386924744, 0.03414401412010193, -0.02072814479470253, 0.01757623255252838, -0.4242869019508362, -1.1581350564956665, 0.06627354025840759, -2.4651263424710805, 1.786369325338768, 6.518547509361548, 9362.0, 30146.0, 35388.0, 9362.0, 8.17190170288086, -0.4628484845161438, -0.473467081785202, -0.2511678636074066, 0.018991321325302124, -0.04806792736053467, 1.0386749505996704, -0.03741084039211273, -0.01271820068359375, 1.494873046875, 1.194580078125, 0.4152679443359375, 1.4970703125
15988, 1.450638771057129, -2.4016754627227783, 0.1720796525478363, 0.0017641031881794333, -0.0010721266735345125, 0.1408405750989914, 0.03839581087231636, -0.02328351140022278, 0.02022741176187992, -0.4243013858795166, -1.1581590175628662, 0.06624096632003784, -2.463217394751126, 1.7752829396160053, 6.512760736206719, 9362.0, 30146.0, 35388.0, 9362.0, 8.17190170288086, -0.16177211701869965, -0.4317840039730072, -0.43612492084503174, 0.026311226189136505, -0.033432040363550186, 1.0056449174880981, -0.03291618451476097, 0.10376167297363281, 1.50439453125, 1.7841796875, 0.918548583984375, 1.491943359375
15998, 1.4490468502044678, -2.405111789703369, 0.17734433710575104, 0.0021685936953872442, -0.0013172596227377653, 0.14103932678699493, 0.04250280186533928, -0.025742433965206146, 0.01952456682920456, -0.4242635667324066, -1.1581450700759888, 0.06624069809913635, -2.429490292084887, 1.7620480830466079, 6.509669725250407, 9362.0, 30146.0, 35388.0, 9362.0, 8.17190170288086, -0.12201199680566788, 0.48718225955963135, 1.09002685546875, 0.016389736905694008, -0.030551152303814888, 0.9769214391708374, -0.03643953055143356, -0.2187976837158203, 1.47802734375, 0.83349609375, 8.6605224609375, 1.4970703125
16008, 1.4465967416763306, -2.4030544757843018, 0.1770666390657425, 0.002613669726997614, -0.0015867173206061125, 0.14122121036052704, 0.046512480825185776, -0.028148798272013664, 0.016851434484124184, -0.4242551326751709, -1.1581268310546875, 0.06634434312582016, -2.371826153259569, 1.7858060579655728, 6.511043698641785, 9362.0, 30146.0, 35388.0, 9362.0, 8.17190170288086, -0.33076921105384827, -0.0641469806432724, 0.11653093993663788, 0.023248275741934776, -0.04574628919363022, 0.9720930457115173, -0.054614949971437454, -0.07543754577636719, 1.48974609375, 1.84716796875, 1.1590423583984375, 1.491943359375
16018, 1.4448961019515991, -2.4057700634002686, 0.17602182924747467, 0.0030989497900009155, -0.0018802699632942677, 0.14137820899486542, 0.050543636083602905, -0.03056182712316513, 0.014547531493008137, -0.42421892285346985, -1.158116340637207, 0.06631922721862793, -2.3384873951261405, 1.7634574507641503, 6.498204787907586, 9362.0, 30146.0, 35388.0, 9362.0, 8.17190170288086, -0.12423570454120636, 0.03826116397976875, -0.24902655184268951, 0.016830354928970337, -0.04616529121994972, 0.9924876093864441, -0.05052344128489494, -0.20087814331054688, 1.4794921875, 1.885986328125, 1.3446044921875, 1.48681640625
16028, 1.447387456893921, -2.4044508934020996, 0.18071019649505615, 0.003625006414949894, -0.002198220929130912, 0.14152362942695618, 0.054667647927999496, -0.03302842378616333, 0.014537219889461994, -0.42421412467956543, -1.158128261566162, 0.06630825996398926, -2.330779777690539, 1.7580424228227969, 6.491122196031288, 9362.0, 30146.0, 35388.0, 9362.0, 8.17190170288086, 0.3874017894268036, 0.37177354097366333, 0.8468173742294312, 0.024701325222849846, -0.0282957274466753, 1.0136971473693848, -0.0561394989490509, -0.20087814331054688, 1.4794921875, 1.464111328125, 0.1283111572265625, 1.496337890625
16038, 1.4519540071487427, -2.4081575870513916, 0.18262642621994019, 0.004192647058516741, -0.0025410151574760675, 0.14167657494544983, 0.05886068567633629, -0.03553014248609543, 0.016052791848778725, -0.42420414090156555, -1.1581394672393799, 0.0662384182214737, -2.365091757949336, 1.746343252631533, 6.4917731172901965, 9362.0, 30146.0, 35388.0, 9362.0, 8.17190170288086, 0.5202120542526245, 0.44188153743743896, -0.10646159201860428, 0.017388224601745605, -0.03045937418937683, 1.017107367515564, -0.03603236377239227, -0.03959846496582031, 1.49267578125, 1.79443359375, 0.9536285400390625, 1.493408203125
16048, 1.4584629535675049, -2.40841007232666, 0.18178172409534454, 0.0048021068796515465, -0.0029087860602885485, 0.14184227585792542, 0.06303142011165619, -0.03802400827407837, 0.017087459564208984, -0.4242092967033386, -1.1581202745437622, 0.0662495568394661, -2.368213677696154, 1.754780500081381, 6.487154194962361, 9362.0, 30146.0, 35388.0, 9362.0, 8.17190170288086, 0.4772021472454071, 0.1359962522983551, -0.30372294783592224, 0.02380162663757801, -0.0426543727517128, 0.9988092184066772, -0.04245652258396149, -0.2904777526855469, 1.47216796875, 1.260498046875, 0.1313934326171875, 1.49267578125
16058, 1.4640032052993774, -2.4142847061157227, 0.18011710047721863, 0.005452904850244522, -0.003301293822005391, 0.14200878143310547, 0.06712812185287476, -0.04047752916812897, 0.016215015202760696, -0.4242219626903534, -1.1581157445907593, 0.06621930003166199, -2.383305838631167, 1.7595766546814389, 6.497598916014372, 9362.0, 30146.0, 35388.0, 9362.0, 8.17190170288086, 0.6701644062995911, 0.702670156955719, 0.5971700549125671, 0.015256292186677456, -0.03814145550131798, 0.985262930393219, -0.03575214371085167, -0.030637741088867188, 1.493408203125, 0.873046875, 6.9156646728515625, 1.5
16068, 1.4719663858413696, -2.419684410095215, 0.18339404463768005, 0.006144521292299032, -0.003718301886692643, 0.1421629935503006, 0.07119495421648026, -0.04292406514286995, 0.01462771836668253, -0.4242226779460907, -1.1581230163574219, 0.06623230129480362, -2.393145758481827, 1.7614650977279496, 6.504820011049674, 9362.0, 30146.0, 35388.0, 9362.0, 8.17190170288086, 0.6964253187179565, 0.44649848341941833, 0.03313323110342026, 0.019094472751021385, -0.026827141642570496, 0.9873467683792114, -0.029686015099287033, -0.05751800537109375, 1.4912109375, 1.4794921875, 0.155975341796875, 1.49560546875
16078, 1.4797898530960083, -2.4269683361053467, 0.1831837147474289, 0.006877014879137278, -0.004159918520599604, 0.14230510592460632, 0.0753038227558136, -0.045398928225040436, 0.013794987462460995, -0.4242141842842102, -1.1581109762191772, 0.0662389025092125, -2.397747833487874, 1.7694408513616509, 6.5139593171550825, 9362.0, 30146.0, 35388.0, 9362.0, 8.17190170288086, 0.7820767760276794, 0.25890156626701355, -0.593029260635376, 0.014440949074923992, -0.03335170820355415, 1.0034316778182983, -0.03712761402130127, -0.03959846496582031, 1.49267578125, 1.29052734375, 0.06378173828125, 1.490478515625
16088, 1.4874382019042969, -2.4309310913085938, 0.18021179735660553, 0.007650943007320166, -0.004626531153917313, 0.14244595170021057, 0.07948189228773117, -0.04792368784546852, 0.014375154860317707, -0.4241994619369507, -1.1580889225006104, 0.06624528020620346, -2.4012648121482, 1.7588375145880093, 6.4831408698813, 9362.0, 30146.0, 35388.0, 9362.0, 8.17190170288086, 0.8670896887779236, 0.9360987544059753, -0.1234513521194458, 0.022220734506845474, -0.03664318844676018, 1.0112831592559814, -0.05412878841161728, -0.27255821228027344, 1.4736328125, 0.860595703125, 7.434844970703125, 1.4912109375
16098, 1.4933401346206665, -2.4370744228363037, 0.18213464319705963, 0.008466767147183418, -0.005118490196764469, 0.14259383082389832, 0.0836828276515007, -0.05046845227479935, 0.015200569294393063, -0.42417585849761963, -1.1581231355667114, 0.06614989042282104, -2.427986919120844, 1.7570333308889872, 6.48252119173151, 9362.0, 30146.0, 35388.0, 9362.0, 8.17190170288086, 0.43863585591316223, 0.4272509515285492, 0.4795103967189789, 0.01948539726436138, -0.029175136238336563, 1.0044337511062622, -0.04107016324996948, -0.32631683349609375, 1.46923828125, 1.70361328125, 0.6776885986328125, 1.49267578125
16108, 1.4985946416854858, -2.4429898262023926, 0.18601997196674347, 0.009324443526566029, -0.005635848268866539, 0.1427454799413681, 0.0878525897860527, -0.053003016859292984, 0.015130213461816311, -0.42417702078819275, -1.15812349319458, 0.06616063416004181, -2.4215778870833122, 1.7548538335133514, 6.484224319321337, 9362.0, 30146.0, 35388.0, 9362.0, 8.17190170288086, 0.35705041885375977, 0.7621805667877197, 0.05658342316746712, 0.018283387646079063, -0.026936892420053482, 0.9939174056053162, -0.04879031330347061, -0.1291980743408203, 1.4853515625, 1.937255859375, 1.652099609375, 1.49560546875
16118, 1.5030533075332642, -2.4481756687164307, 0.1855219602584839, 0.010223698802292347, -0.0061784968711435795, 0.14289239048957825, 0.09199851006269455, -0.05552632361650467, 0.01425125915557146, -0.42414888739585876, -1.1581485271453857, 0.06617601215839386, -2.4080189190426813, 1.7490982116370617, 6.477232036482319, 9362.0, 30146.0, 35388.0, 9362.0, 8.17190170288086, 0.18666480481624603, 0.17567943036556244, -0.02218986116349697, 0.01544925570487976, -0.02898266538977623, 0.9922225475311279, -0.045182790607213974, 0.10376167297363281, 1.50439453125, 1.780517578125, 0.906280517578125, 1.489013671875
16128, 1.505591630935669, -2.450587511062622, 0.1853661984205246, 0.011164522729814053, -0.0067464569583535194, 0.14303186535835266, 0.09616618603467941, -0.05806569382548332, 0.013644653372466564, -0.42415568232536316, -1.1581454277038574, 0.06616678833961487, -2.4047718818177324, 1.744452361969536, 6.472513102228439, 9362.0, 30146.0, 35388.0, 9362.0, 8.17190170288086, 0.20657460391521454, -0.05729356408119202, -0.17245851457118988, 0.016236750409007072, -0.028997261077165604, 1.002071499824524, -0.041994255036115646, 0.03208160400390625, 1.49853515625, 1.32568359375, 0.0232086181640625, 1.491943359375
16138, 1.5066304206848145, -2.4501891136169434, 0.18718500435352325, 0.012147272005677223, -0.007339973468333483, 0.1431700587272644, 0.10038366913795471, -0.06063765287399292, 0.013993095606565475, -0.4241935610771179, -1.1580712795257568, 0.06601342558860779, -2.4176348135686117, 1.7061589191002042, 6.493791628824463, 9362.0, 30146.0, 35388.0, 9362.0, 8.17190170288086, -0.0705287754535675, 0.11170750111341476, 0.22799266874790192, 0.016704807057976723, -0.027221957221627235, 1.007326602935791, -0.04120223596692085, -0.12023735046386719, 1.486083984375, 1.75634765625, 0.8292083740234375, 1.4970703125
16148, 1.50385582447052, -2.4503772258758545, 0.19011059403419495, 0.013172236271202564, -0.007959242910146713, 0.14331217110157013, 0.10460923612117767, -0.06321616470813751, 0.014431134797632694, -0.4241996109485626, -1.1580514907836914, 0.0659811720252037, -2.4292020151707594, 1.7099142530995834, 6.485709459466158, 9362.0, 30146.0, 35388.0, 9362.0, 8.17190170288086, -0.22676265239715576, 0.038957808166742325, 0.020581498742103577, 0.016672419384121895, -0.026066426187753677, 1.0021212100982666, -0.04596547782421112, 0.03208160400390625, 1.49853515625, 1.4443359375, 0.0959930419921875, 1.4912109375
16158, 1.4998704195022583, -2.449899435043335, 0.19405491650104523, 0.014239327982068062, -0.008604229427874088, 0.14345575869083405, 0.10880924761295319, -0.06578097492456436, 0.014286191202700138, -0.42420151829719543, -1.1580337285995483, 0.06599511206150055, -2.4283423464729292, 1.7002827009883958, 6.490059484256476, 9362.0, 30146.0, 35388.0, 9362.0, 8.17190170288086, -0.16076618432998657, -0.22233201563358307, 0.265705943107605, 0.01650988683104515, -0.030316513031721115, 0.9953441023826599, -0.0370757095515728, -0.04855918884277344, 1.491943359375, 0.797607421875, 10.499130249023438, 1.4970703125
16168, 1.4949694871902466, -2.448479652404785, 0.19769136607646942, 0.015348298475146294, -0.009274763986468315, 0.14359501004219055, 0.11298505961894989, -0.06832572817802429, 0.013565322384238243, -0.42419174313545227, -1.158033847808838, 0.06600818037986755, -2.432288775285448, 1.6965669223788211, 6.491614401369442, 9362.0, 30146.0, 35388.0, 9362.0, 8.17190170288086, -0.6002808809280396, -0.005163435358554125, 0.6644499897956848, 0.014701098203659058, -0.029759451746940613, 0.9938910603523254, -0.04819127917289734, -0.1739978790283203, 1.481689453125, 1.6201171875, 0.4653778076171875, 1.493408203125
16178, 1.4896689653396606, -2.447089910507202, 0.20277316868305206, 0.016499055549502373, -0.009970730170607567, 0.14372779428958893, 0.11716658622026443, -0.07086730003356934, 0.012993309646844864, -0.4241577684879303, -1.158046841621399, 0.06599895656108856, -2.452201673326861, 1.704676324166769, 6.502536153103525, 9362.0, 30146.0, 35388.0, 9362.0, 8.17190170288086, -0.754412055015564, -0.4190530478954315, 0.10845737904310226, 0.017494022846221924, -0.028559984639286995, 0.9978379011154175, -0.055045079439878464, -0.06647872924804688, 1.490478515625, 1.0078125, 2.8119964599609375, 1.489013671875
16188, 1.4846612215042114, -2.443027973175049, 0.20378175377845764, 0.01769171468913555, -0.010692127980291843, 0.14385713636875153, 0.12136533111333847, -0.07341192662715912, 0.012875353917479515, -0.4241992235183716, -1.1580603122711182, 0.06608344614505768, -2.44001691122997, 1.6868660371715407, 6.524449537671497, 9362.0, 30146.0, 35388.0, 9362.0, 8.17190170288086, -0.6696426868438721, -0.1580163538455963, 0.2558266520500183, 0.017117459326982498, -0.02960577793419361, 1.0032893419265747, -0.06376577913761139, -0.27255821228027344, 1.4736328125, 1.072998046875, 1.6350555419921875, 1.5
16198, 1.4782460927963257, -2.4398601055145264, 0.20636095106601715, 0.01769171468913555, -0.010692127980291843, 0.14385713636875153, 0.12136533111333847, -0.07341192662715912, 0.012875353917479515, -0.42419272661209106, -1.1580524444580078, 0.06607535481452942, -2.4502585925619327, 1.687125808185499, 6.520578514724829, 9362.0, 30146.0, 35388.0, 9362.0, 8.17190170288086, -0.6696426868438721, -0.1580163538455963, 0.2558266520500183, 0.019431402906775475, -0.030483819544315338, 1.004855751991272, -0.0583210252225399, -0.10231781005859375, 1.487548828125, 1.072998046875, 1.6350555419921875, 1.491943359375
16208, 1.471657395362854, -2.4409115314483643, 0.21005719900131226, 0.020203229039907455, -0.012211224064230919, 0.14411969482898712, 0.1297798603773117, -0.07849136739969254, 0.013310394249856472, -0.4241986572742462, -1.1580471992492676, 0.06611195206642151, -2.445101699595241, 1.682803830474171, 6.511951990161845, 9362.0, 30146.0, 35388.0, 9362.0, 8.17190170288086, -0.7368376851081848, -0.24800893664360046, 0.016677027568221092, 0.019431402906775475, -0.030483819544315338, 1.004855751991272, -0.0583210252225399, -0.10231781005859375, 1.487548828125, 1.072998046875, 1.6350555419921875, 1.4912109375
16218, 1.4649856090545654, -2.4412150382995605, 0.21037299931049347, 0.020203229039907455, -0.012211224064230919, 0.14411969482898712, 0.1297798603773117, -0.07849136739969254, 0.013310394249856472, -0.4241396188735962, -1.1580822467803955, 0.06626034528017044, -2.4272111408314374, 1.720303650257108, 6.472468461566369, 9362.0, 30146.0, 35388.0, 9362.0, 8.17190170288086, -0.4239109456539154, -0.07530462741851807, -0.0027354639023542404, 0.019431402906775475, -0.030483819544315338, 1.004855751991272, -0.05067019909620285, -0.03959846496582031, 1.49267578125, 1.072998046875, 1.6350555419921875, 1.491943359375
16228, 1.4608625173568726, -2.44003963470459, 0.20936569571495056, 0.020203229039907455, -0.012211224064230919, 0.14411969482898712, 0.1297798603773117, -0.07849136739969254, 0.013310394249856472, -0.4240632653236389, -1.1580861806869507, 0.06628888845443726, -2.421822680934716, 1.7536497991294482, 6.430520064371752, 9362.0, 30146.0, 35388.0, 9362.0, 8.17190170288086, -0.4644419550895691, -0.02647579461336136, -0.044617801904678345, 0.019431402906775475, -0.030483819544315338, 1.004855751991272, -0.043988123536109924, 0.06792068481445312, 1.50146484375, 1.072998046875, 1.6350555419921875, 1.49267578125
16238, 1.4587302207946777, -2.440762996673584, 0.20871950685977936, 0.020203229039907455, -0.012211224064230919, 0.14411969482898712, 0.1297798603773117, -0.07849136739969254, 0.013310394249856472, -0.42408835887908936, -1.1580859422683716, 0.06629396975040436, -2.4246775638648628, 1.747237729188754, 6.421320960508545, 9362.0, 30146.0, 35388.0, 9362.0, 8.17190170288086, -0.13815513253211975, 0.061192821711301804, 0.048222865909338, 0.019431402906775475, -0.030483819544315338, 1.004855751991272, -0.04759944975376129, -0.03959846496582031, 1.49267578125, 1.072998046875, 1.6350555419921875, 1.49267578125
16258, 1.4593337774276733, -2.4471065998077393, 0.20927104353904724, 0.027214307337999344, -0.016448015347123146, 0.14474554359912872, 0.15070024132728577, -0.09096809476613998, 0.012578408233821392, -0.42405635118484497, -1.1581475734710693, 0.06637166440486908, -2.3940277103464473, 1.757995724527774, 6.418592553548431, 9362.0, 30146.0, 35388.0, 9362.0, 8.17190170288086, 0.36456817388534546, 0.512751579284668, -0.004748948384076357, 0.02002156525850296, -0.03299079090356827, 1.0003231763839722, -0.053263936191797256, -0.15607833862304688, 1.483154296875, 1.072998046875, 1.6350555419921875, 1.5
16268, 1.4616490602493286, -2.4514057636260986, 0.21126863360404968, 0.027214307337999344, -0.016448015347123146, 0.14474554359912872, 0.15070024132728577, -0.09096809476613998, 0.012578408233821392, -0.42406877875328064, -1.1581518650054932, 0.06636877357959747, -2.3946142909244714, 1.7606112301005226, 6.418083552153893, 9362.0, 30146.0, 35388.0, 9362.0, 8.17190170288086, 0.4522259533405304, 0.4000793695449829, 0.03444879502058029, 0.02061556465923786, -0.03266243264079094, 0.9958799481391907, -0.053263936191797256, -0.15607833862304688, 1.483154296875, 1.072998046875, 1.6350555419921875, 1.48974609375
16278, 1.4658340215682983, -2.453522205352783, 0.20865653455257416, 0.030311983078718185, -0.01831689663231373, 0.14499084651470184, 0.1590650975704193, -0.09591812640428543, 0.011826515197753906, -0.42407670617103577, -1.1581640243530273, 0.06636491417884827, -2.383606809489917, 1.777198003690927, 6.426956262161469, 9362.0, 30146.0, 35388.0, 9362.0, 8.17190170288086, 0.39250633120536804, 0.29806289076805115, -0.18702517449855804, 0.02061556465923786, -0.03266243264079094, 0.9958799481391907, -0.053263936191797256, -0.15607833862304688, 1.483154296875, 1.072998046875, 1.6350555419921875, 1.48974609375
16288, 1.4701873064041138, -2.4578170776367188, 0.2084345519542694, 0.031923651695251465, -0.01928851194679737, 0.14510846138000488, 0.16326844692230225, -0.09840498119592667, 0.011697766371071339, -0.4240950345993042, -1.1581873893737793, 0.06640715897083282, -2.3817147052821652, 1.796484727892448, 6.43500616043523, 9362.0, 30146.0, 35388.0, 9362.0, 8.17190170288086, 0.7035703063011169, 0.542843759059906, 0.1223447397351265, 0.02061556465923786, -0.03266243264079094, 0.9958799481391907, -0.053263936191797256, -0.15607833862304688, 1.483154296875, 1.072998046875, 1.6350555419921875, 1.493408203125
16298, 1.4766963720321655, -2.4617807865142822, 0.20959991216659546, 0.03357744216918945, -0.020285073667764664, 0.14522646367549896, 0.16748973727226257, -0.10090748220682144, 0.011901275254786015, -0.42410823702812195, -1.1581904888153076, 0.06638205796480179, -2.3855154098076676, 1.8025200379516946, 6.427939143205817, 9362.0, 30146.0, 35388.0, 9362.0, 8.17190170288086, 0.579754650592804, -0.06066058576107025, 0.039356451481580734, 0.02061556465923786, -0.03266243264079094, 0.9958799481391907, -0.053263936191797256, -0.15607833862304688, 1.483154296875, 1.072998046875, 1.6350555419921875, 1.496337890625
16308, 1.4838507175445557, -2.464085817337036, 0.21011857688426971, 0.03357744216918945, -0.020285073667764664, 0.14522646367549896, 0.16748973727226257, -0.10090748220682144, 0.011901275254786015, -0.42410969734191895, -1.158189296722412, 0.06637713313102722, -2.3811512812158155, 1.8135321985540713, 6.44342321632075, 9362.0, 30146.0, 35388.0, 9362.0, 8.17190170288086, 0.5365409255027771, 0.1724582016468048, 0.19488225877285004, 0.02061556465923786, -0.03266243264079094, 0.9958799481391907, -0.055714111775159836, -0.06647872924804688, 1.490478515625, 1.072998046875, 1.6350555419921875, 1.493408203125
16318, 1.4891459941864014, -2.466991901397705, 0.2104170173406601, 0.03701169043779373, -0.022353384643793106, 0.1454649567604065, 0.17592817544937134, -0.10592295229434967, 0.01170765608549118, -0.42420801520347595, -1.1582016944885254, 0.06646057218313217, -2.384658667763952, 1.7638587901242317, 6.382606875745084, 9362.0, 30146.0, 35388.0, 9362.0, 8.17190170288086, 0.4378046691417694, 0.648061990737915, -0.06422286480665207, 0.02061556465923786, -0.03266243264079094, 0.9958799481391907, -0.055714111775159836, -0.06647872924804688, 1.490478515625, 1.072998046875, 1.6350555419921875, 1.49267578125
16328, 1.4943606853485107, -2.468446731567383, 0.20763449370861053, 0.03879201039671898, -0.023425184190273285, 0.14557935297489166, 0.1801358312368393, -0.10843709111213684, 0.011171067133545876, -0.4241935908794403, -1.1582096815109253, 0.06648316979408264, -2.381378315715808, 1.7573780742481802, 6.372208397803387, 9362.0, 30146.0, 35388.0, 9362.0, 8.17190170288086, 0.4094872772693634, 0.15865673124790192, -0.06931910663843155, 0.02061556465923786, -0.03266243264079094, 0.9958799481391907, -0.055714111775159836, -0.06647872924804688, 1.490478515625, 1.072998046875, 1.6350555419921875, 1.493408203125
16348, 1.5017976760864258, -2.4755725860595703, 0.20948757231235504, 0.03879201039671898, -0.023425184190273285, 0.14557935297489166, 0.1801358312368393, -0.10843709111213684, 0.011171067133545876, -0.42419004440307617, -1.1581943035125732, 0.06643180549144745, -2.388211816140229, 1.7556995266946558, 6.38334697287998, 9362.0, 30146.0, 35388.0, 9362.0, 8.17190170288086, 0.19692093133926392, 0.09192011505365372, -0.1546533703804016, 0.01626393012702465, -0.029940485954284668, 1.0041067600250244, -0.070889413356781, -0.20087814331054688, 1.4794921875, 1.072998046875, 1.6350555419921875, 1.4912109375
16358, 1.5028281211853027, -2.4799129962921143, 0.20808181166648865, 0.03879201039671898, -0.023425184190273285, 0.14557935297489166, 0.1801358312368393, -0.10843709111213684, 0.011171067133545876, -0.42417842149734497, -1.1581929922103882, 0.06646176427602768, -2.398604198644036, 1.7515687822178165, 6.388914019266191, 9362.0, 30146.0, 35388.0, 9362.0, 8.17190170288086, 0.1509009748697281, 0.4683215320110321, -0.47830143570899963, 0.01626393012702465, -0.029940485954284668, 1.0041067600250244, -0.06535501033067703, 0.04104042053222656, 1.499267578125, 1.072998046875, 1.6350555419921875, 1.493408203125
16368, 1.5028225183486938, -2.483083486557007, 0.20487751066684723, 0.03879201039671898, -0.023425184190273285, 0.14557935297489166, 0.1801358312368393, -0.10843709111213684, 0.011171067133545876, -0.4241788983345032, -1.1581813097000122, 0.06644651293754578, -2.3968272791390826, 1.7380258069114234, 6.384000850364222, 9362.0, 30146.0, 35388.0, 9362.0, 8.17190170288086, -0.17226731777191162, 0.14683279395103455, -0.4115377366542816, 0.017154965549707413, -0.02754867449402809, 0.998153030872345, -0.06535501033067703, 0.04104042053222656, 1.499267578125, 1.072998046875, 1.6350555419921875, 1.493408203125
16378, 1.4991182088851929, -2.4862403869628906, 0.19957590103149414, 0.04832911491394043, -0.02916548401117325, 0.14614342153072357, 0.2013522982597351, -0.12118779122829437, 0.01096699945628643, -0.42416954040527344, -1.158170461654663, 0.06644298136234283, -2.4036453706605334, 1.739326370947822, 6.3863269440842485, 9362.0, 30146.0, 35388.0, 9362.0, 8.17190170288086, -0.27923548221588135, 0.34929871559143066, -0.8100230097770691, 0.017154965549707413, -0.02754867449402809, 0.998153030872345, -0.06535501033067703, 0.04104042053222656, 1.499267578125, 1.072998046875, 1.6350555419921875, 1.493408203125
16388, 1.495953917503357, -2.4927237033843994, 0.19536951184272766, 0.04832911491394043, -0.02916548401117325, 0.14614342153072357, 0.2013522982597351, -0.12118779122829437, 0.01096699945628643, -0.42416393756866455, -1.1581740379333496, 0.06644298881292343, -2.40132429731712, 1.733888710556073, 6.383491032903877, 9362.0, 30146.0, 35388.0, 9362.0, 8.17190170288086, -0.4340660870075226, 0.2925466299057007, -0.4889553189277649, 0.017154965549707413, -0.02754867449402809, 0.998153030872345, -0.05777769908308983, 0.014162063598632812, 1.4970703125, 1.072998046875, 1.6350555419921875, 1.491943359375
16398, 1.4912973642349243, -2.497288942337036, 0.19114255905151367, 0.04832911491394043, -0.02916548401117325, 0.14614342153072357, 0.2013522982597351, -0.12118779122829437, 0.01096699945628643, -0.42414864897727966, -1.1581659317016602, 0.06644755601882935, -2.407786705091661, 1.7150685808320247, 6.385289118649111, 9362.0, 30146.0, 35388.0, 9362.0, 8.17190170288086, -0.4964648187160492, 0.5396592617034912, -0.3921735882759094, 0.015502589754760265, -0.025825055316090584, 1.001070499420166, -0.05777769908308983, 0.014162063598632812, 1.4970703125, 1.342529296875, 0.0161895751953125, 1.490478515625
16408, 1.4862444400787354, -2.502164840698242, 0.1870126724243164, 0.054561108350753784, -0.0329158753156662, 0.14645910263061523, 0.21413786709308624, -0.12883932888507843, 0.010392491705715656, -0.42414116859436035, -1.1581555604934692, 0.06647112220525742, -2.413580032716938, 1.7150167289056242, 6.382985626553094, 9362.0, 30146.0, 35388.0, 9362.0, 8.17190170288086, -0.627804696559906, 0.35951539874076843, -0.3308766782283783, 0.015502589754760265, -0.025825055316090584, 1.001070499420166, -0.05777769908308983, 0.014162063598632812, 1.4970703125, 1.342529296875, 0.0161895751953125, 1.49267578125
16418, 1.4807912111282349, -2.5064215660095215, 0.18223504722118378, 0.056723855435848236, -0.03421694040298462, 0.14656147360801697, 0.21841104328632355, -0.13137362897396088, 0.0100810956209898, -0.4241426885128021, -1.15816068649292, 0.06644845753908157, -2.4066200503113233, 1.701307870188998, 6.376463654298347, 9362.0, 30146.0, 35388.0, 9362.0, 8.17190170288086, -0.471271812915802, 0.5173518657684326, -0.808448076248169, 0.015502589754760265, -0.025825055316090584, 1.001070499420166, -0.05777769908308983, 0.014162063598632812, 1.4970703125, 1.342529296875, 0.0161895751953125, 1.49267578125
16428, 1.4737056493759155, -2.5112061500549316, 0.1740299016237259, 0.056723855435848236, -0.03421694040298462, 0.14656147360801697, 0.21841104328632355, -0.13137362897396088, 0.0100810956209898, -0.42412543296813965, -1.1581568717956543, 0.06643760204315186, -2.4152735183520075, 1.7103394991400478, 6.397611462466972, 9362.0, 30146.0, 35388.0, 9362.0, 8.17190170288086, -0.5281796455383301, 0.30570006370544434, -0.7297143936157227, 0.018348563462495804, -0.03471950814127922, 0.9957551956176758, -0.05777769908308983, 0.014162063598632812, 1.4970703125, 1.342529296875, 0.0161895751953125, 1.493408203125
16448, 1.4635632038116455, -2.5203182697296143, 0.154686838388443, 0.06117746978998184, -0.03689472749829292, 0.14675071835517883, 0.226958230137825, -0.1364039033651352, 0.008951671421527863, -0.4242021143436432, -1.1581532955169678, 0.06632494181394577, -2.434517517010984, 1.67196767982324, 6.456582679640929, 9362.0, 30146.0, 35388.0, 9362.0, 8.17190170288086, -0.3706922233104706, 0.11874330788850784, -0.981670081615448, 0.018348563462495804, -0.03471950814127922, 0.9957551956176758, -0.060785748064517975, -0.03959846496582031, 1.49267578125, 1.342529296875, 0.0161895751953125, 1.4912109375
16468, 1.4569292068481445, -2.5252039432525635, 0.1351318657398224, 0.06580273807048798, -0.03967294842004776, 0.14692679047584534, 0.23557473719120026, -0.14141516387462616, 0.008701703511178493, -0.42420095205307007, -1.1581116914749146, 0.06629892438650131, -2.4127211003919724, 1.6585415776445984, 6.432575967589691, 9362.0, 30146.0, 35388.0, 9362.0, 8.17190170288086, -0.15679317712783813, 0.2258308380842209, -1.1117106676101685, 0.018348563462495804, -0.03471950814127922, 0.9957551956176758, -0.060785748064517975, -0.03959846496582031, 1.49267578125, 1.342529296875, 0.0161895751953125, 1.490478515625
16478, 1.4543142318725586, -2.5243842601776123, 0.1276347041130066, 0.06580273807048798, -0.03967294842004776, 0.14692679047584534, 0.23557473719120026, -0.14141516387462616, 0.008701703511178493, -0.4242224097251892, -1.158129334449768, 0.06627645343542099, -2.420141971046988, 1.6496056925423943, 6.442936660063817, 9362.0, 30146.0, 35388.0, 9362.0, 8.17190170288086, -0.09100008010864258, 0.2496766299009323, -0.484988272190094, 0.018348563462495804, -0.03471950814127922, 0.9957551956176758, -0.060785748064517975, -0.03959846496582031, 1.49267578125, 1.342529296875, 0.0161895751953125, 1.4912109375
16488, 1.4532313346862793, -2.524456262588501, 0.12002406269311905, 0.06580273807048798, -0.03967294842004776, 0.14692679047584534, 0.23557473719120026, -0.14141516387462616, 0.008701703511178493, -0.4241444170475006, -1.1581164598464966, 0.066196508705616, -2.4135303225241835, 1.7225052530879736, 6.4946271159271225, 9362.0, 30146.0, 35388.0, 9362.0, 8.17190170288086, -0.07895780354738235, -0.19697831571102142, -1.0192831754684448, 0.018348563462495804, -0.03471950814127922, 0.9957551956176758, -0.041095051914453506, 0.05000114440917969, 1.5, 1.342529296875, 0.0161895751953125, 1.490478515625
16498, 1.4544689655303955, -2.5262274742126465, 0.11329509317874908, 0.06580273807048798, -0.03967294842004776, 0.14692679047584534, 0.23557473719120026, -0.14141516387462616, 0.008701703511178493, -0.42415112257003784, -1.1581300497055054, 0.0662071630358696, -2.413010509636157, 1.7323038402835493, 6.499980388015775, 9362.0, 30146.0, 35388.0, 9362.0, 8.17190170288086, -0.07895780354738235, -0.19697831571102142, -1.0192831754684448, 0.018348563462495804, -0.03471950814127922, 0.9957551956176758, -0.041095051914453506, 0.05000114440917969, 1.5, 1.342529296875, 0.0161895751953125, 1.494873046875
16508, 1.4568864107131958, -2.5264406204223633, 0.10985476523637772, 0.0781208947300911, -0.0470542348921299, 0.14732597768306732, 0.25716274976730347, -0.1538255214691162, 0.007411922328174114, -0.4241660535335541, -1.1581374406814575, 0.06619597971439362, -2.4109765526318476, 1.7262177881421223, 6.506410277537005, 9362.0, 30146.0, 35388.0, 9362.0, 8.17190170288086, 0.48832204937934875, -0.42143726348876953, -0.285433292388916, 0.018348563462495804, -0.03471950814127922, 0.9957551956176758, -0.041095051914453506, 0.05000114440917969, 1.5, 1.342529296875, 0.0161895751953125, 1.494873046875
16518, 1.4608266353607178, -2.520137071609497, 0.1088714450597763, 0.0781208947300911, -0.0470542348921299, 0.14732597768306732, 0.25716274976730347, -0.1538255214691162, 0.007411922328174114, -0.4241604506969452, -1.1581443548202515, 0.0661885216832161, -2.412484152270628, 1.7317439441895885, 6.506683132724138, 9362.0, 30146.0, 35388.0, 9362.0, 8.17190170288086, 0.6133833527565002, -0.28779372572898865, 0.29271501302719116, 0.018348563462495804, -0.03471950814127922, 0.9957551956176758, -0.041095051914453506, 0.05000114440917969, 1.5, 1.342529296875, 0.0161895751953125, 1.4912109375
16538, 1.472645878791809, -2.508469343185425, 0.1191028282046318, 0.08335059881210327, -0.0501803420484066, 0.14746937155723572, 0.2658078372478485, -0.1587875634431839, 0.006937077268958092, -0.4241909384727478, -1.158148169517517, 0.06618889421224594, -2.3987858306562275, 1.7404959676442218, 6.508407521272085, 9362.0, 30146.0, 35388.0, 9362.0, 8.17190170288086, 0.4174589514732361, -0.4548574388027191, 0.7450370192527771, 0.018348563462495804, -0.03471950814127922, 0.9957551956176758, -0.04275723546743393, 0.03208160400390625, 1.49853515625, 1.342529296875, 0.0161895751953125, 1.5
16548, 1.4770456552505493, -2.5027201175689697, 0.1280321180820465, 0.08875299245119095, -0.05340594798326492, 0.14760388433933258, 0.2744315564632416, -0.1637786626815796, 0.006570485420525074, -0.42416268587112427, -1.1581404209136963, 0.066224105656147, -2.3986902183503656, 1.7518197266856248, 6.498289757285209, 9362.0, 30146.0, 35388.0, 9362.0, 8.17190170288086, 0.41471877694129944, -0.6845123171806335, 0.7089781761169434, 0.018348563462495804, -0.03471950814127922, 0.9957551956176758, -0.04275723546743393, 0.03208160400390625, 1.49853515625, 1.342529296875, 0.0161895751953125, 1.494873046875
16568, 1.4873732328414917, -2.489462375640869, 0.14168713986873627, 0.08875299245119095, -0.05340594798326492, 0.14760388433933258, 0.2744315564632416, -0.1637786626815796, 0.006570485420525074, -0.42419150471687317, -1.158148169517517, 0.0661737397313118, -2.4032627733638443, 1.746884128431958, 6.5055960431872, 9362.0, 30146.0, 35388.0, 9362.0, 8.17190170288086, 0.25065818428993225, -0.7439287900924683, 0.9214901328086853, 0.018348563462495804, -0.03471950814127922, 0.9957551956176758, -0.03339124470949173, -0.19191741943359375, 1.480224609375, 1.342529296875, 0.0161895751953125, 1.491943359375
16588, 1.493354320526123, -2.4788639545440674, 0.16084782779216766, 0.09717884659767151, -0.058432385325431824, 0.14779017865657806, 0.28727152943611145, -0.17132408916950226, 0.005724523216485977, -0.4241793751716614, -1.1581401824951172, 0.06618145108222961, -2.411522617090637, 1.7434831567861693, 6.509489403973888, 9362.0, 30146.0, 35388.0, 9362.0, 8.17190170288086, 0.26020386815071106, -0.09738261997699738, 0.9857285022735596, 0.018348563462495804, -0.03471950814127922, 0.9957551956176758, -0.06380322575569153, -0.1291980743408203, 1.4853515625, 1.342529296875, 0.0161895751953125, 1.489013671875
16608, 1.4954406023025513, -2.4786229133605957, 0.1747719645500183, 0.10598848015069962, -0.06368616968393326, 0.1479509323835373, 0.30003121495246887, -0.17893607914447784, 0.005099480040371418, -0.4241766333580017, -1.158130407333374, 0.06618732959032059, -2.416495133182271, 1.7373395386723303, 6.510490230082462, 9362.0, 30146.0, 35388.0, 9362.0, 8.17190170288086, -0.08503461629152298, 0.3704052269458771, 0.5326291918754578, 0.018348563462495804, -0.03471950814127922, 0.9957551956176758, -0.055896639823913574, -0.04855918884277344, 1.491943359375, 1.342529296875, 0.0161895751953125, 1.489013671875
16618, 1.4932693243026733, -2.484196662902832, 0.1803399622440338, 0.10598848015069962, -0.06368616968393326, 0.1479509323835373, 0.30003121495246887, -0.17893607914447784, 0.005099480040371418, -0.42417073249816895, -1.1581352949142456, 0.06616121530532837, -2.4205737875177173, 1.7345945032291468, 6.518096031906043, 9362.0, 30146.0, 35388.0, 9362.0, 8.17190170288086, -0.21965959668159485, 0.43382713198661804, 0.3698226511478424, 0.018348563462495804, -0.03471950814127922, 0.9957551956176758, -0.0486702099442482, -0.09335899353027344, 1.48828125, 1.342529296875, 0.0161895751953125, 1.493408203125
16638, 1.4873353242874146, -2.4947197437286377, 0.18760401010513306, 0.11207395792007446, -0.06731576472520828, 0.14804744720458984, 0.3085170388221741, -0.18402311205863953, 0.004564415663480759, -0.42416656017303467, -1.1581268310546875, 0.06619061529636383, -2.4284044013162327, 1.7236268271251731, 6.512206840919071, 9362.0, 30146.0, 35388.0, 9362.0, 8.17190170288086, -0.48402169346809387, 0.5518182516098022, 0.017483025789260864, 0.018348563462495804, -0.03471950814127922, 0.9957551956176758, -0.048692911863327026, 0.023120880126953125, 1.497802734375, 1.342529296875, 0.0161895751953125, 1.491943359375
16648, 1.482509732246399, -2.497906446456909, 0.18649345636367798, 0.11207395792007446, -0.06731576472520828, 0.14804744720458984, 0.3085170388221741, -0.18402311205863953, 0.004564415663480759, -0.4241325557231903, -1.1580983400344849, 0.06616364419460297, -2.4298568186480285, 1.7350294593341289, 6.505726270818799, 9362.0, 30146.0, 35388.0, 9362.0, 8.17190170288086, -0.6046072244644165, 0.4140063226222992, -0.0815659612417221, 0.018348563462495804, -0.03471950814127922, 0.9957551956176758, -0.051975980401039124, 0.05896186828613281, 1.500732421875, 1.342529296875, 0.0161895751953125, 1.487548828125
16658, 1.4775382280349731, -2.506025552749634, 0.18365560472011566, 0.12152110040187836, -0.07295063883066177, 0.1481734961271286, 0.3212995231151581, -0.19162504374980927, 0.00372210587374866, -0.42415091395378113, -1.1580816507339478, 0.06616049259901047, -2.4255047278545123, 1.7242826892006065, 6.501141492180419, 9362.0, 30146.0, 35388.0, 9362.0, 8.17190170288086, -0.4235179126262665, 0.695476233959198, -0.6352672576904297, 0.018348563462495804, -0.03471950814127922, 0.9957551956176758, -0.051975980401039124, 0.05896186828613281, 1.500732421875, 1.342529296875, 0.0161895751953125, 1.491943359375
16668, 1.4733816385269165, -2.5131266117095947, 0.17983414232730865, 0.12152110040187836, -0.07295063883066177, 0.1481734961271286, 0.3212995231151581, -0.19162504374980927, 0.00372210587374866, -0.42417553067207336, -1.158117413520813, 0.0661492720246315, -2.432501986302742, 1.7218759889319415, 6.507583719063175, 9362.0, 30146.0, 35388.0, 9362.0, 8.17190170288086, -0.5157253742218018, 0.8116236329078674, -0.22912953794002533, 0.018348563462495804, -0.03471950814127922, 0.9957551956176758, -0.051727045327425, -0.021678924560546875, 1.494140625, 1.342529296875, 0.0161895751953125, 1.48828125
16678, 1.4671878814697266, -2.5207512378692627, 0.17175200581550598, 0.12803253531455994, -0.07683342695236206, 0.1482393592596054, 0.32985493540763855, -0.19665215909481049, 0.0029542995616793633, -0.42415955662727356, -1.15812349319458, 0.06617793440818787, -2.4302209715656926, 1.7331079146870536, 6.50977178516761, 9362.0, 30146.0, 35388.0, 9362.0, 8.17190170288086, -0.5523760318756104, 0.7222166061401367, -0.6806269884109497, 0.018348563462495804, -0.03471950814127922, 0.9957551956176758, -0.051727045327425, -0.021678924560546875, 1.494140625, 1.342529296875, 0.0161895751953125, 1.49267578125
16688, 1.4622631072998047, -2.527801752090454, 0.16586102545261383, 0.13135267794132233, -0.07881252467632294, 0.1482696235179901, 0.3341745138168335, -0.19916854798793793, 0.0030980033334344625, -0.4241670072078705, -1.158131718635559, 0.06615963578224182, -2.4308072661096167, 1.7329967463196851, 6.511975521558043, 9362.0, 30146.0, 35388.0, 9362.0, 8.17190170288086, -0.5892245173454285, 0.4473114013671875, -0.6800019145011902, 0.018348563462495804, -0.03471950814127922, 0.9957551956176758, -0.051727045327425, -0.021678924560546875, 1.494140625, 1.342529296875, 0.0161895751953125, 1.487548828125
16698, 1.4576197862625122, -2.533104181289673, 0.15916411578655243, 0.13135267794132233, -0.07881252467632294, 0.1482696235179901, 0.3341745138168335, -0.19916854798793793, 0.0030980033334344625, -0.42416924238204956, -1.158127784729004, 0.06617335975170135, -2.429537746002103, 1.7274322864234932, 6.512348238950833, 9362.0, 30146.0, 35388.0, 9362.0, 8.17190170288086, -0.2785036563873291, 0.4680522680282593, -0.38538020849227905, 0.018348563462495804, -0.03471950814127922, 0.9957551956176758, -0.051727045327425, -0.021678924560546875, 1.494140625, 1.342529296875, 0.0161895751953125, 1.4912109375
16708, 1.4555001258850098, -2.5371572971343994, 0.15417008101940155, 0.1381228268146515, -0.08284594118595123, 0.14833331108093262, 0.34283459186553955, -0.2041635513305664, 0.003014966147020459, -0.4241833984851837, -1.158139705657959, 0.06619098782539368, -2.427442397977605, 1.7387346302188007, 6.513826144845148, 9362.0, 30146.0, 35388.0, 9362.0, 8.17190170288086, -0.14082013070583344, -0.04543660581111908, -0.9204732179641724, 0.018348563462495804, -0.03471950814127922, 0.9957551956176758, -0.051727045327425, -0.021678924560546875, 1.494140625, 1.342529296875, 0.0161895751953125, 1.4853515625
16718, 1.4536024332046509, -2.5390682220458984, 0.1494288146495819, 0.14157278835773468, -0.08489993959665298, 0.14836075901985168, 0.34715721011161804, -0.20663681626319885, 0.002473585307598114, -0.4241842031478882, -1.1581476926803589, 0.06617124378681183, -2.41592420648693, 1.738621621740009, 6.505304958405611, 9362.0, 30146.0, 35388.0, 9362.0, 8.17190170288086, -0.06297110766172409, 0.14741918444633484, -0.01886213943362236, 0.018348563462495804, -0.03471950814127922, 0.9957551956176758, -0.051727045327425, -0.021678924560546875, 1.494140625, 1.342529296875, 0.0161895751953125, 1.49267578125
16728, 1.4542434215545654, -2.539785146713257, 0.1443415880203247, 0.14506608247756958, -0.08697869628667831, 0.1483844667673111, 0.35150146484375, -0.20911531150341034, 0.0022678475361317396, -0.42417603731155396, -1.1581485271453857, 0.06615207344293594, -2.412213876305126, 1.7418660470672194, 6.51215672472448, 9362.0, 30146.0, 35388.0, 9362.0, 8.17190170288086, 0.12475883960723877, 0.17105735838413239, -0.14932093024253845, 0.018348563462495804, -0.03471950814127922, 0.9957551956176758, -0.051727045327425, -0.021678924560546875, 1.494140625, 1.342529296875, 0.0161895751953125, 1.491943359375
16738, 1.4564348459243774, -2.536679267883301, 0.14191648364067078, 0.14860287308692932, -0.0890822485089302, 0.14840692281723022, 0.3558559715747833, -0.21159504354000092, 0.002224224153906107, -0.4241827428340912, -1.158157229423523, 0.06615905463695526, -2.4157416823193114, 1.7449495784074145, 6.502607992632491, 9362.0, 30146.0, 35388.0, 9362.0, 8.17190170288086, 0.12475883960723877, 0.17105735838413239, -0.14932093024253845, 0.018348563462495804, -0.03471950814127922, 0.9957551956176758, -0.051727045327425, -0.021678924560546875, 1.494140625, 1.342529296875, 0.0161895751953125, 1.48974609375
16758, 1.4625462293624878, -2.529050827026367, 0.13797737658023834, 0.15218320488929749, -0.09121060371398926, 0.14842893183231354, 0.36021146178245544, -0.2140759527683258, 0.0021782517433166504, -0.4241947531700134, -1.1581615209579468, 0.06615078449249268, -2.4056714903169922, 1.748226487561709, 6.507872765297286, 9362.0, 30146.0, 35388.0, 9362.0, 8.17190170288086, 0.572050929069519, -0.974291205406189, -0.14383357763290405, 0.018348563462495804, -0.03471950814127922, 0.9957551956176758, -0.051727045327425, -0.021678924560546875, 1.494140625, 1.342529296875, 0.0161895751953125, 1.491943359375
16778, 1.47207510471344, -2.512803316116333, 0.14348439872264862, 0.16318464279174805, -0.09774451702833176, 0.14848022162914276, 0.3732094168663025, -0.22152572870254517, 0.0012587201781570911, -0.424174427986145, -1.1581292152404785, 0.0661495178937912, -2.3996473629667645, 1.7475032569192024, 6.492138952690379, 9362.0, 30146.0, 35388.0, 9362.0, 8.17190170288086, 0.641899585723877, -0.75795978307724, 0.3739881217479706, 0.018348563462495804, -0.03471950814127922, 0.9957551956176758, -0.04603983834385872, 0.08584022521972656, 1.5029296875, 1.342529296875, 0.0161895751953125, 1.496337890625
16788, 1.4775621891021729, -2.5069949626922607, 0.1473584920167923, 0.16318464279174805, -0.09774451702833176, 0.14848022162914276, 0.3732094168663025, -0.22152572870254517, 0.0012587201781570911, -0.4241815507411957, -1.1581387519836426, 0.06613452732563019, -2.394134889572076, 1.7509851431290997, 6.495832165153634, 9362.0, 30146.0, 35388.0, 9362.0, 8.17190170288086, 0.5591005086898804, -0.5819790363311768, 0.46584275364875793, 0.018348563462495804, -0.03471950814127922, 0.9957551956176758, -0.03865322843194008, 0.05896186828613281, 1.500732421875, 1.342529296875, 0.0161895751953125, 1.491943359375
16798, 1.4829332828521729, -2.4982540607452393, 0.15158234536647797, 0.16318464279174805, -0.09774451702833176, 0.14848022162914276, 0.3732094168663025, -0.22152572870254517, 0.0012587201781570911, -0.4241706430912018, -1.1581364870071411, 0.06614166498184204, -2.397635270625866, 1.762537987596005, 6.498475911349778, 9362.0, 30146.0, 35388.0, 9362.0, 8.17190170288086, 0.4388587474822998, -0.45445019006729126, 0.4098886251449585, 0.018348563462495804, -0.03471950814127922, 0.9957551956176758, -0.03865322843194008, 0.05896186828613281, 1.500732421875, 1.342529296875, 0.0161895751953125, 1.493408203125
16808, 1.486143946647644, -2.4942069053649902, 0.15723994374275208, 0.16318464279174805, -0.09774451702833176, 0.14848022162914276, 0.3732094168663025, -0.22152572870254517, 0.0012587201781570911, -0.4241578280925751, -1.1581283807754517, 0.06615318357944489, -2.402752333502388, 1.7502071186194712, 6.498871485288205, 9362.0, 30146.0, 35388.0, 9362.0, 8.17190170288086, 0.43224385380744934, -0.3678652346134186, 0.7066271901130676, 0.018348563462495804, -0.03471950814127922, 0.9957551956176758, -0.04148786514997482, -0.13815879821777344, 1.484619140625, 1.342529296875, 0.0161895751953125, 1.49267578125
16818, 1.4871330261230469, -2.4887912273406982, 0.16318827867507935, 0.17845819890499115, -0.10680652409791946, 0.1485309600830078, 0.3904312252998352, -0.23159188032150269, 0.0011477215448394418, -0.42415517568588257, -1.1581180095672607, 0.06613863259553909, -2.4079048664264024, 1.7525017446047002, 6.497519241707058, 9362.0, 30146.0, 35388.0, 9362.0, 8.17190170288086, 0.3242689371109009, -0.6325740218162537, 0.6329990029335022, 0.018348563462495804, -0.03471950814127922, 0.9957551956176758, -0.04148786514997482, -0.13815879821777344, 1.484619140625, 1.342529296875, 0.0161895751953125, 1.49267578125
16838, 1.4894129037857056, -2.4827003479003906, 0.17637348175048828, 0.1863521933555603, -0.1114889606833458, 0.14854945242404938, 0.3989652693271637, -0.23665308952331543, 0.0007371827960014343, -0.42413976788520813, -1.1580986976623535, 0.06613799929618835, -2.4195406916723443, 1.734800255964558, 6.5102175662278166, 9362.0, 30146.0, 35388.0, 9362.0, 8.17190170288086, -0.14415106177330017, -0.34117764234542847, 0.03745901584625244, 0.018348563462495804, -0.03471950814127922, 0.9957551956176758, -0.026593584567308426, 0.17543983459472656, 1.51025390625, 1.342529296875, 0.0161895751953125, 1.49267578125
16848, 1.488527774810791, -2.4811666011810303, 0.18004482984542847, 0.1903630942106247, -0.11386814713478088, 0.14855489134788513, 0.40321382880210876, -0.23918326199054718, 0.0003516105061862618, -0.4241379201412201, -1.1580907106399536, 0.06613615155220032, -2.4257378243303953, 1.7273474977036472, 6.501219446622157, 9362.0, 30146.0, 35388.0, 9362.0, 8.17190170288086, 0.026318643242120743, -0.0628395825624466, 0.485332727432251, 0.018348563462495804, -0.03471950814127922, 0.9957551956176758, -0.026593584567308426, 0.17543983459472656, 1.51025390625, 1.342529296875, 0.0161895751953125, 1.494873046875
16858, 1.4853458404541016, -2.483159303665161, 0.1683531552553177, 0.19441646337509155, -0.11627263575792313, 0.14855660498142242, 0.4074596166610718, -0.24171368777751923, -8.789685125520919e-06, -0.4241333305835724, -1.1580872535705566, 0.0661228597164154, -2.4306768288073304, 1.7233716587940364, 6.507196826802577, 9362.0, 30146.0, 35388.0, 9362.0, 8.17190170288086, -0.30582597851753235, 0.3427479565143585, -5.595790863037109, 0.018348563462495804, -0.03471950814127922, 0.9957551956176758, -0.026593584567308426, 0.17543983459472656, 1.51025390625, 1.342529296875, 0.0161895751953125, 1.49267578125
16868, 1.4800063371658325, -2.4901540279388428, 0.16095831990242004, 0.19441646337509155, -0.11627263575792313, 0.14855660498142242, 0.4074596166610718, -0.24171368777751923, -8.789685125520919e-06, -0.42414596676826477, -1.1580919027328491, 0.06612664461135864, -2.426836008113695, 1.7216782363487084, 6.506115112907297, 9362.0, 30146.0, 35388.0, 9362.0, 8.17190170288086, -0.4758587181568146, 1.091184377670288, 4.681074142456055, 0.018348563462495804, -0.03471950814127922, 0.9957551956176758, -0.04152790829539299, -0.030637741088867188, 1.493408203125, 1.342529296875, 0.0161895751953125, 1.494873046875
16888, 1.4747941493988037, -2.5071873664855957, 0.18868237733840942, 0.2026505470275879, -0.12115748226642609, 0.14854969084262848, 0.41594618558883667, -0.24676722288131714, -0.0007709458004683256, -0.4241316616535187, -1.1580862998962402, 0.06613048166036606, -2.43194084020415, 1.7272370884959116, 6.508158185076491, 9362.0, 30146.0, 35388.0, 9362.0, 8.17190170288086, -0.42118582129478455, 0.5824267864227295, 1.2448208332061768, 0.018348563462495804, -0.03471950814127922, 0.9957551956176758, -0.05146859213709831, -0.04855918884277344, 1.491943359375, 1.342529296875, 0.0161895751953125, 1.48974609375
16898, 1.4692299365997314, -2.5130796432495117, 0.18312101066112518, 0.2026505470275879, -0.12115748226642609, 0.14854969084262848, 0.41594618558883667, -0.24676722288131714, -0.0007709458004683256, -0.42413797974586487, -1.158077359199524, 0.06612624228000641, -2.431131108065359, 1.7251018828292501, 6.503286539235892, 9362.0, 30146.0, 35388.0, 9362.0, 8.17190170288086, -0.6808091402053833, 0.7590494155883789, 0.8136196136474609, 0.018348563462495804, -0.03471950814127922, 0.9957551956176758, -0.05146859213709831, -0.04855918884277344, 1.491943359375, 1.342529296875, 0.0161895751953125, 1.491943359375
16908, 1.4638434648513794, -2.517098903656006, 0.18732954561710358, 0.2026505470275879, -0.12115748226642609, 0.14854969084262848, 0.41594618558883667, -0.24676722288131714, -0.0007709458004683256, -0.4241381883621216, -1.1580910682678223, 0.06610791385173798, -2.4234518980087767, 1.7337904154597368, 6.50953655888321, 9362.0, 30146.0, 35388.0, 9362.0, 8.17190170288086, -0.5565016269683838, 0.3029997944831848, -0.9194475412368774, 0.018348563462495804, -0.03471950814127922, 0.9957551956176758, -0.05361194163560867, -0.08439826965332031, 1.489013671875, 1.342529296875, 0.0161895751953125, 1.491943359375
16938, 1.4549509286880493, -2.5273635387420654, 0.18929846584796906, 0.2239832729101181, -0.1338098794221878, 0.14848864078521729, 0.43740952014923096, -0.2593003213405609, -0.0016681179404258728, -0.42408210039138794, -1.1580601930618286, 0.06606537848711014, -2.404801476388946, 1.7737641741036896, 6.522137220551734, 9362.0, 30146.0, 35388.0, 9362.0, 8.17190170288086, -0.16311600804328918, 0.6346927285194397, 0.19157037138938904, 0.018348563462495804, -0.03471950814127922, 0.9957551956176758, -0.05723050236701965, -0.06647872924804688, 1.490478515625, 1.342529296875, 0.0161895751953125, 1.49560546875
16958, 1.45378577709198, -2.52597713470459, 0.18336255848407745, 0.2373000532388687, -0.14170058071613312, 0.14843183755874634, 0.45038455724716187, -0.2667404115200043, -0.002127233427017927, -0.4240894019603729, -1.15807044506073, 0.06606847047805786, -2.4036100133722473, 1.7747869352009218, 6.524679169655075, 9362.0, 30146.0, 35388.0, 9362.0, 8.17190170288086, 0.10729537159204483, -0.3864661753177643, -0.3347920775413513, 0.018348563462495804, -0.03471950814127922, 0.9957551956176758, -0.05723050236701965, -0.06647872924804688, 1.490478515625, 1.342529296875, 0.0161895751953125, 1.4912109375
16968, 1.4559955596923828, -2.5231707096099854, 0.18129807710647583, 0.2373000532388687, -0.14170058071613312, 0.14843183755874634, 0.45038455724716187, -0.2667404115200043, -0.002127233427017927, -0.42408955097198486, -1.158072829246521, 0.06605002284049988, -2.3969431421652962, 1.7792288859446614, 6.521054758279512, 9362.0, 30146.0, 35388.0, 9362.0, 8.17190170288086, 0.23520705103874207, -0.5178624391555786, -0.19512589275836945, 0.018348563462495804, -0.03471950814127922, 0.9957551956176758, -0.05723050236701965, -0.06647872924804688, 1.490478515625, 1.342529296875, 0.0161895751953125, 1.49267578125
16988, 1.4596161842346191, -2.5156657695770264, 0.17844463884830475, 0.24639439582824707, -0.14708489179611206, 0.14838629961013794, 0.45905035734176636, -0.27169209718704224, -0.002354959724470973, -0.4240969717502594, -1.1580873727798462, 0.06605882197618484, -2.40061868958854, 1.7805189949897624, 6.532034850237172, 9362.0, 30146.0, 35388.0, 9362.0, 8.17190170288086, 0.6808926463127136, -0.4577426314353943, -0.3031899929046631, 0.018348563462495804, -0.03471950814127922, 0.9957551956176758, -0.13156285881996155, -0.030637741088867188, 1.493408203125, 1.342529296875, 0.0161895751953125, 1.49267578125
17008, 1.4671251773834229, -2.510188341140747, 0.1743975281715393, 0.24639439582824707, -0.14708489179611206, 0.14838629961013794, 0.45905035734176636, -0.27169209718704224, -0.002354959724470973, -0.42409026622772217, -1.1580816507339478, 0.06605739891529083, -2.393756713308168, 1.7824291712112483, 6.5170806242736266, 9362.0, 30146.0, 35388.0, 9362.0, 8.17190170288086, 0.5602544546127319, -0.2801770269870758, -0.3726646900177002, 0.018348563462495804, -0.03471950814127922, 0.9957551956176758, -0.09305500239133835, -0.06647872924804688, 1.490478515625, 1.342529296875, 0.0161895751953125, 1.489013671875
17018, 1.4724128246307373, -2.5067434310913086, 0.16888220608234406, 0.2651020288467407, -0.15815114974975586, 0.14828461408615112, 0.47630608081817627, -0.28162717819213867, -0.002926488406956196, -0.42409849166870117, -1.1580852270126343, 0.06605443358421326, -2.394089150914509, 1.7764099130925786, 6.517448033735658, 9362.0, 30146.0, 35388.0, 9362.0, 8.17190170288086, 0.44335439801216125, -0.14122451841831207, -0.3011162281036377, 0.018348563462495804, -0.03471950814127922, 0.9957551956176758, -0.09305500239133835, -0.06647872924804688, 1.490478515625, 1.342529296875, 0.0161895751953125, 1.490478515625
17058, 1.4851739406585693, -2.5021743774414062, 0.16954542696475983, 0.2844976484775543, -0.1696164309978485, 0.148145854473114, 0.4934688210487366, -0.2916581928730011, -0.003915573004633188, -0.4240826666355133, -1.158072590827942, 0.0660603791475296, -2.4096688012084138, 1.7802692187017897, 6.528799557183035, 9362.0, 30146.0, 35388.0, 9362.0, 8.17190170288086, 0.05557363107800484, -0.2026628702878952, -0.3398456573486328, 0.018348563462495804, -0.03471950814127922, 0.9957551956176758, -0.07735089957714081, -0.05751800537109375, 1.4912109375, 1.342529296875, 0.0161895751953125, 1.493408203125
17068, 1.4843146800994873, -2.500314235687256, 0.1659376174211502, 0.28945377469062805, -0.1725456416606903, 0.14810602366924286, 0.4977569580078125, -0.29418423771858215, -0.004051427356898785, -0.4241196811199188, -1.1580954790115356, 0.06606107950210571, -2.40484945427162, 1.7819099213027982, 6.526896009152572, 9362.0, 30146.0, 35388.0, 9362.0, 8.17190170288086, 0.05557363107800484, -0.2026628702878952, -0.3398456573486328, 0.018348563462495804, -0.03471950814127922, 0.9957551956176758, -0.07735089957714081, -0.05751800537109375, 1.4912109375, 1.342529296875, 0.0161895751953125, 1.493408203125
17088, 1.482189655303955, -2.505164861679077, 0.16603010892868042, 0.2944527864456177, -0.17550013959407806, 0.1480650007724762, 0.5020467638969421, -0.29671505093574524, -0.004152069333940744, -0.42411211133003235, -1.1580908298492432, 0.06603685021400452, -2.410153737850908, 1.7737551573790142, 6.525487498153871, 9362.0, 30146.0, 35388.0, 9362.0, 8.17190170288086, -0.40448981523513794, 0.16164948046207428, 0.01592344231903553, 0.018348563462495804, -0.03471950814127922, 0.9957551956176758, -0.056554656475782394, -0.10231781005859375, 1.487548828125, 1.342529296875, 0.0161895751953125, 1.49267578125
17118, 1.4692256450653076, -2.510735034942627, 0.16848348081111908, 0.3097074031829834, -0.18451550602912903, 0.1479405015707016, 0.51492840051651, -0.3043050169944763, -0.004253733903169632, -0.42410093545913696, -1.1580976247787476, 0.06606406718492508, -2.4126372240412857, 1.7724582921973422, 6.5314430662599765, 9362.0, 30146.0, 35388.0, 9362.0, 8.17190170288086, -0.2069208025932312, 0.20834572613239288, 0.15696971118450165, 0.018348563462495804, -0.03471950814127922, 0.9957551956176758, -0.07321061939001083, 0.014162063598632812, 1.4970703125, 1.342529296875, 0.0161895751953125, 1.49267578125
17128, 1.4647955894470215, -2.5154309272766113, 0.17140841484069824, 0.3097074031829834, -0.18451550602912903, 0.1479405015707016, 0.51492840051651, -0.3043050169944763, -0.004253733903169632, -0.42409875988960266, -1.1580923795700073, 0.06608607620000839, -2.411573817404186, 1.7721971977962596, 6.530238989129912, 9362.0, 30146.0, 35388.0, 9362.0, 8.17190170288086, -0.4716540575027466, 0.2994297444820404, 0.20435991883277893, 0.018348563462495804, -0.03471950814127922, 0.9957551956176758, -0.07321061939001083, 0.014162063598632812, 1.4970703125, 1.342529296875, 0.0161895751953125, 1.49267578125
