timeTick, roll, pitch, yaw, stateX, stateY, stateZ, stateVX, stateVY, stateVZ, otX0, otY0, otZ0, otRoll0, otPitch0, otYaw0, left wing, pitch motor, yaw motor, right wing, voltage, roll rate, pitch rate, yaw rate, A_x, A_y, A_z, current, i_raw, v_raw, airflow_voltage, airflow_speed, pot_Pitch
12667, 0.24858765304088593, -1.728219747543335, -0.5696115493774414, 0, 0, 0, 0, 0, 0, -0.4891788363456726, -0.8560946583747864, 0.06912176311016083, -0.9325977693139105, 0.6918026183489872, 0.7614100585132265, 0, 0, 0, 0, 0, 0, 0, 0, 0, 0, 0, 0, 0, 0, 0, 0, 0
12677, 0.24778321385383606, -1.7267030477523804, -0.569942057132721, 0.00014950544573366642, -2.293765646754764e-05, 0.8297243714332581, 0.010430356487631798, -0.0016013833228498697, 0.15019509196281433, -0.48918306827545166, -0.8560754060745239, 0.06913182139396667, -0.9252573404046657, 0.6921504540037233, 0.763882163189245, 9362.0, 30146.0, 35388.0, 9362.0, 8.17190170288086, 0.07764912396669388, -0.12205919623374939, 0.28556838631629944, -0.0019187142606824636, -0.0011819159844890237, 0.9976392984390259, -0.07007459551095963, -0.1291980743408203, 1.4853515625, 0, 0, 0
12687, 0.24871331453323364, -1.7277421951293945, -0.5692521333694458, 0.00026854078168980777, -4.122054815525189e-05, 0.831224799156189, 0.013376717455685139, -0.002055215649306774, 0.14989112317562103, -0.4891931712627411, -0.856098473072052, 0.06916006654500961, -0.9226752620670251, 0.7115599697792163, 0.7592807234760837, 9362.0, 30146.0, 35388.0, 9362.0, 8.17190170288086, 0.011351780965924263, 0.04703005775809288, -0.17271921038627625, -0.0015205189120024443, -0.0008692127885296941, 1.002515435218811, -0.0677206739783287, -0.08439826965332031, 1.489013671875, 0.847412109375, 8.014358520507812, 1.496337890625
12697, 0.2499604970216751, -1.7272710800170898, -0.5709152817726135, 0.0004170524189248681, -6.403878069249913e-05, 0.8327230215072632, 0.016325609758496284, -0.002508394652977586, 0.14975693821907043, -0.48920416831970215, -0.8560950756072998, 0.06912768632173538, -0.9222164195977767, 0.7037690334548188, 0.7534663674027183, 9362.0, 30146.0, 35388.0, 9362.0, 8.17190170288086, 0.0018967811483889818, -0.2504447102546692, -0.1332494616508484, -0.0008337700855918229, -0.0007389840320684016, 1.0021430253982544, -0.06537231057882309, -0.0037593841552734375, 1.49560546875, 1.650146484375, 0.539215087890625, 1.497802734375
12707, 0.25016385316848755, -1.7260398864746094, -0.5703714489936829, 0.0005951226921752095, -9.140606562141329e-05, 0.8342219591140747, 0.019288433715701103, -0.002965155290439725, 0.15002736449241638, -0.4891858398914337, -0.8560763597488403, 0.06911507248878479, -0.9295786179183607, 0.6951095638229674, 0.7574674994141601, 9362.0, 30146.0, 35388.0, 9362.0, 8.17190170288086, 0.10248005390167236, -0.2648131251335144, 0.336343377828598, -0.00043307727901265025, -0.0011081091361120343, 1.000445008277893, -0.06425163894891739, 0.08584022521972656, 1.5029296875, 1.1455078125, 0.7802734375, 1.489013671875
12717, 0.2500745356082916, -1.7237277030944824, -0.5703272223472595, 0.0008027895237319171, -0.00012334779603406787, 0.8357226848602295, 0.022244932129979134, -0.003423162270337343, 0.15011510252952576, -0.4891962707042694, -0.8560908436775208, 0.06913459300994873, -0.9319813889333587, 0.6954125991661044, 0.7550305795408901, 9362.0, 30146.0, 35388.0, 9362.0, 8.17190170288086, 0.2835894227027893, 0.05405762419104576, -0.0359472930431366, -0.0019575871992856264, -0.001518159988336265, 0.9988424181938171, -0.04775582626461983, 0.03208160400390625, 1.49853515625, 1.304443359375, 0.043182373046875, 1.4970703125
12727, 0.2500338554382324, -1.723724365234375, -0.5693171620368958, 0.001039995695464313, -0.00015986875223461539, 0.8372237682342529, 0.02519630827009678, -0.0038810265250504017, 0.15010276436805725, -0.48923343420028687, -0.8561010360717773, 0.06911233067512512, -0.9343976381643068, 0.6879524066612532, 0.7493900435193787, 9362.0, 30146.0, 35388.0, 9362.0, 8.17190170288086, -0.33165040612220764, -0.23393754661083221, 0.1449466049671173, -0.0024540633894503117, 0.0006520799943245947, 0.9988250732421875, -0.05135854333639145, 0.0052013397216796875, 1.496337890625, 1.6728515625, 0.59674072265625, 1.4912109375
12737, 0.24890866875648499, -1.7232136726379395, -0.5689679384231567, 0.0013066658284515142, -0.00020096272055525333, 0.8387237191200256, 0.028137730434536934, -0.004337714519351721, 0.14989085495471954, -0.4892439544200897, -0.8560954928398132, 0.06914474815130234, -0.9336743504483879, 0.6958694621008306, 0.7637100418974183, 9362.0, 30146.0, 35388.0, 9362.0, 8.17190170288086, -0.05005402863025665, -0.07126568257808685, 0.012633144855499268, -7.420745532726869e-05, -0.0010383204789832234, 1.0003465414047241, -0.05516854673624039, -0.11127853393554688, 1.48681640625, 1.265625, 0.1174468994140625, 1.184326171875
12747, 0.2482193261384964, -1.721726894378662, -0.5701349377632141, 0.0016027678502723575, -0.00024662568466737866, 0.840222179889679, 0.031082678586244583, -0.004794863052666187, 0.14979614317417145, -0.4892393946647644, -0.8561019897460938, 0.0691520944237709, -0.933761165497806, 0.6942737209524239, 0.7594593272656504, 9362.0, 30146.0, 35388.0, 9362.0, 8.17190170288086, 0.0006117129814811051, -0.3349103331565857, -0.19409561157226562, 0.00033973067183978856, -0.0015054878313094378, 0.9991864562034607, -0.05048448219895363, 0.11272048950195312, 1.505126953125, 1.70068359375, 0.6697845458984375, 1.493408203125
12757, 0.2480393797159195, -1.7206634283065796, -0.5730268359184265, 0.0019283224828541279, -0.0002968515327665955, 0.841719925403595, 0.03402823954820633, -0.005250365007668734, 0.14975081384181976, -0.48929330706596375, -0.8561262488365173, 0.06917285919189453, -0.9288752336443458, 0.7149013661579886, 0.7473883069686468, 9362.0, 30146.0, 35388.0, 9362.0, 8.17190170288086, 0.12900570034980774, -0.033517446368932724, -0.2016657441854477, -0.0005567820626311004, -0.0018791335169225931, 0.9971231818199158, -0.05261584371328354, -0.04855918884277344, 1.491943359375, 1.388671875, 0.03033447265625, 1.497802734375
12767, 0.24916371703147888, -1.7176402807235718, -0.5749651789665222, 0.0022832988761365414, -0.0003516233991831541, 0.8432164788246155, 0.03696703165769577, -0.005704158917069435, 0.14956484735012054, -0.4892633557319641, -0.856101393699646, 0.06918536871671677, -0.9423563404395661, 0.7037384642713107, 0.746457106927779, 9362.0, 30146.0, 35388.0, 9362.0, 8.17190170288086, 0.15234901010990143, 0.03761279955506325, -0.009877054952085018, -0.0017717869486659765, -0.0008243490010499954, 0.9979465007781982, -0.05616337060928345, -0.2635974884033203, 1.474365234375, 1.717529296875, 0.7158966064453125, 1.497802734375
12777, 0.2503426671028137, -1.7192591428756714, -0.5767460465431213, 0.0026676307898014784, -0.0004109287401661277, 0.8447104096412659, 0.03989936411380768, -0.006157004274427891, 0.14922432601451874, -0.4892820715904236, -0.8561211228370667, 0.06918543577194214, -0.9380866125116727, 0.7168218839943563, 0.7529983364704336, 9362.0, 30146.0, 35388.0, 9362.0, 8.17190170288086, 0.01786503568291664, 0.13751596212387085, -0.011966080404818058, -0.0003392186190467328, -0.0016765230102464557, 0.9985105395317078, -0.05169561505317688, -0.0037593841552734375, 1.49560546875, 0.7119140625, 16.011642456054688, 1.494873046875
12787, 0.25110679864883423, -1.7200865745544434, -0.5779472589492798, 0.00308128516189754, -0.0004747762577608228, 0.8462017774581909, 0.04283147677779198, -0.006612587720155716, 0.14905042946338654, -0.48927760124206543, -0.8561186790466309, 0.06920668482780457, -0.9272750969843919, 0.7232175553556601, 0.7430147122071088, 9362.0, 30146.0, 35388.0, 9362.0, 8.17190170288086, 0.07944558560848236, -0.15147894620895386, -0.1951925903558731, -3.1980711355572566e-05, -0.0051050432957708836, 0.996678352355957, -0.05809886008501053, -0.030637741088867188, 1.493408203125, 0.889892578125, 6.2551727294921875, 1.48974609375
12797, 0.25157588720321655, -1.7177330255508423, -0.5780231356620789, 0.003524253610521555, -0.000543187081348151, 0.8476907014846802, 0.04576222598552704, -0.007069634273648262, 0.1487397402524948, -0.4893084764480591, -0.8561329245567322, 0.06919749826192856, -0.9333043638458579, 0.71855892249161, 0.742747016130671, 9362.0, 30146.0, 35388.0, 9362.0, 8.17190170288086, -0.01813386380672455, 0.12282869219779968, 0.44882404804229736, -0.0016043047653511167, -0.0037600237410515547, 0.999451220035553, -0.06997931003570557, -0.05751800537109375, 1.4912109375, 0.89208984375, 6.1724853515625, 1.49560546875
12807, 0.2525371015071869, -1.720395803451538, -0.5765065550804138, 0.0039965491741895676, -0.0006161772180348635, 0.8491769433021545, 0.048696842044591904, -0.007528391201049089, 0.1485111564397812, -0.48928937315940857, -0.8561322689056396, 0.06917973607778549, -0.9286751180536078, 0.7226427312789667, 0.7434922738036756, 9362.0, 30146.0, 35388.0, 9362.0, 8.17190170288086, -0.07697173207998276, -0.31249433755874634, -0.10917863994836807, -0.002036226214841008, -0.001816839212551713, 1.0009355545043945, -0.05739350989460945, -0.030637741088867188, 1.493408203125, 1.46044921875, 0.12200927734375, 1.493408203125
12817, 0.25249940156936646, -1.7192063331604004, -0.5770660042762756, 0.004498193506151438, -0.000693762325681746, 0.8506616950035095, 0.05163201317191124, -0.007988550700247288, 0.14843548834323883, -0.4892846345901489, -0.8561267852783203, 0.0692027136683464, -0.926600731040214, 0.7326458833161666, 0.7474326966068093, 9362.0, 30146.0, 35388.0, 9362.0, 8.17190170288086, 0.19900181889533997, -0.35403525829315186, 0.2507345676422119, -0.0022984016686677933, -0.0019150958396494389, 1.0013179779052734, -0.05947720259428024, 0.014162063598632812, 1.4970703125, 1.5205078125, 0.237762451171875, 1.494873046875
12827, 0.25376948714256287, -1.7170711755752563, -0.5764073729515076, 0.00502923596650362, -0.0007759607979096472, 0.8521464467048645, 0.054576486349105835, -0.008451176807284355, 0.14851853251457214, -0.48930585384368896, -0.8561352491378784, 0.06919649243354797, -0.9289981984675855, 0.7210078768463006, 0.7462172777642342, 9362.0, 30146.0, 35388.0, 9362.0, 8.17190170288086, 0.10621026903390884, -0.00026700866874307394, 0.0822490006685257, -0.0016016695881262422, -0.00269846199080348, 1.0003845691680908, -0.05161502584815025, -0.2904777526855469, 1.47216796875, 1.65380859375, 0.548309326171875, 1.494873046875
12837, 0.2534524202346802, -1.7179979085922241, -0.5753499865531921, 0.0055896989069879055, -0.0008627831120975316, 0.8536315560340881, 0.057516150176525116, -0.008913250640034676, 0.1485091596841812, -0.48926985263824463, -0.856102466583252, 0.0692029520869255, -0.9383525382550073, 0.7164411971752145, 0.7584539321794194, 9362.0, 30146.0, 35388.0, 9362.0, 8.17190170288086, 0.08811283111572266, -0.5696783065795898, -0.11695144325494766, -0.0011744062649086118, -0.003625542623922229, 1.0021299123764038, -0.04484180733561516, 0.03208160400390625, 1.49853515625, 1.3681640625, 0.0185394287109375, 1.49267578125
12847, 0.2540725767612457, -1.7155407667160034, -0.5773108005523682, 0.00617954833433032, -0.0009542379411868751, 0.8551168441772461, 0.06045376509428024, -0.009377663023769855, 0.14855366945266724, -0.4893087148666382, -0.8561347126960754, 0.06918754428625107, -0.9277319822224439, 0.7294018303781513, 0.7425328304614193, 9362.0, 30146.0, 35388.0, 9362.0, 8.17190170288086, -0.10502415150403976, -0.17908832430839539, 0.07637084275484085, -0.0015269926516339183, -0.0007133494946174324, 1.0010842084884644, -0.042056746780872345, -0.11127853393554688, 1.48681640625, 1.68603515625, 0.6308135986328125, 1.496337890625
12857, 0.25443950295448303, -1.713053584098816, -0.5773957967758179, 0.0067987991496920586, -0.0010503367520868778, 0.85660320520401, 0.0633964017033577, -0.00984219554811716, 0.14871381223201752, -0.4892916977405548, -0.8561393022537231, 0.06918475031852722, -0.9169817996076094, 0.7158178683055496, 0.7480652824079427, 9362.0, 30146.0, 35388.0, 9362.0, 8.17190170288086, 0.15369313955307007, -0.044274091720581055, -0.3738551735877991, -0.0036097352858632803, -0.0011823924724012613, 1.0002213716506958, -0.050961289554834366, -0.2187976837158203, 1.47802734375, 1.76953125, 0.8704833984375, 1.493408203125
12867, 0.2558412253856659, -1.7135627269744873, -0.5775951147079468, 0.007447430863976479, -0.0011510825715959072, 0.858090341091156, 0.0663299560546875, -0.010306981392204762, 0.14871102571487427, -0.4892793893814087, -0.856135904788971, 0.06915625929832458, -0.9157718926845902, 0.7154089893554669, 0.7622454881703239, 9362.0, 30146.0, 35388.0, 9362.0, 8.17190170288086, 0.05627153441309929, 0.36013472080230713, -0.010007558390498161, -0.002642019186168909, -0.0009398182737641037, 1.0009158849716187, -0.05802564695477486, -0.01271820068359375, 1.494873046875, 1.76513671875, 0.8564605712890625, 1.491943359375
12877, 0.25614961981773376, -1.7123527526855469, -0.5789369344711304, 0.008125382475554943, -0.001256480230949819, 0.8595776557922363, 0.06926043331623077, -0.010772556066513062, 0.14874888956546783, -0.48929452896118164, -0.8561117053031921, 0.06916796416044235, -0.9049112110934231, 0.7389935009456678, 0.7551332874019981, 9362.0, 30146.0, 35388.0, 9362.0, 8.17190170288086, 0.004922215361148119, -0.011339724063873291, 0.07486225664615631, -0.002205793047323823, -0.0005354209570214152, 1.000562310218811, -0.05088648572564125, -0.05751800537109375, 1.4912109375, 1.45458984375, 0.11224365234375, 1.4970703125
12887, 0.2569202780723572, -1.7151336669921875, -0.5768648982048035, 0.008832642808556557, -0.001366545562632382, 0.8610652685165405, 0.07219153642654419, -0.011240570805966854, 0.1487790048122406, -0.48925039172172546, -0.856080174446106, 0.06911716610193253, -0.9286893105418152, 0.7268560669755004, 0.751252285175149, 9362.0, 30146.0, 35388.0, 9362.0, 8.17190170288086, -0.04987702891230583, -0.21257375180721283, -0.15043337643146515, -0.001826463732868433, -0.0010339597938582301, 1.0007370710372925, -0.05211455374956131, -0.01271820068359375, 1.494873046875, 1.197509765625, 0.3980255126953125, 1.493408203125
12897, 0.2572456896305084, -1.7125273942947388, -0.5788169503211975, 0.009569208137691021, -0.0014812946319580078, 0.8625533580780029, 0.07512154430150986, -0.011709144338965416, 0.1488412469625473, -0.48961156606674194, -0.8561226725578308, 0.06882862746715546, -0.8318183778792833, 0.6231717949470692, 0.5529256674195713, 9362.0, 30146.0, 35388.0, 9362.0, 8.17190170288086, -0.002487397287040949, -0.15028774738311768, -0.13567693531513214, -0.0005840488011017442, -0.0005861819954589009, 0.9994560480117798, -0.037436045706272125, 0.05896186828613281, 1.500732421875, 1.469970703125, 0.1386566162109375, 1.494140625
12907, 0.25702452659606934, -1.7121553421020508, -0.5779592394828796, 0.010335086844861507, -0.001600734074600041, 0.8640417456626892, 0.07805410772562027, -0.012178835459053516, 0.1488310545682907, -0.48960185050964355, -0.8560910224914551, 0.06880204379558563, -0.8426552654741454, 0.6103431723486779, 0.5580176662822375, 9362.0, 30146.0, 35388.0, 9362.0, 8.17190170288086, -0.04739996790885925, 0.09055224806070328, 0.2290855497121811, -0.0005398864159360528, -0.0031640534289181232, 0.9992616176605225, -0.0513707734644413, -0.2546367645263672, 1.47509765625, 1.428955078125, 0.073577880859375, 1.490478515625
12917, 0.2566656768321991, -1.7114548683166504, -0.578009307384491, 0.011130251921713352, -0.001724870759062469, 0.8655294179916382, 0.08097890764474869, -0.012648465111851692, 0.14870969951152802, -0.48961371183395386, -0.8561258316040039, 0.0687989890575409, -0.8487159805499088, 0.6038941613636553, 0.5518443770076967, 9362.0, 30146.0, 35388.0, 9362.0, 8.17190170288086, 0.06205015257000923, 0.008233400993049145, -0.06545376777648926, -0.0018745167180895805, -0.002943579340353608, 1.0005624294281006, -0.04115137830376625, -0.04855918884277344, 1.491943359375, 0.6474609375, 21.360794067382812, 1.496337890625
12927, 0.2554584741592407, -1.7099472284317017, -0.5765730738639832, 0.011954668909311295, -0.001853702706284821, 0.8670161366462708, 0.0839044600725174, -0.013117934577167034, 0.1486354023218155, -0.48959752917289734, -0.8560832738876343, 0.06881735473871231, -0.8434233905774408, 0.6148544264187308, 0.5817443526627282, 9362.0, 30146.0, 35388.0, 9362.0, 8.17190170288086, 0.13173498213291168, 0.03917783126235008, -0.08343538641929626, -0.002828835742548108, -0.0009461837471462786, 1.001745581626892, -0.04608285799622536, -0.05751800537109375, 1.4912109375, 1.69482421875, 0.6540374755859375, 1.4912109375
12937, 0.25721222162246704, -1.7116600275039673, -0.5768052339553833, 0.012808357365429401, -0.001987229799851775, 0.8685028553009033, 0.08683329075574875, -0.013587418012320995, 0.14871081709861755, -0.4895990788936615, -0.8560084700584412, 0.0687393918633461, -0.8575278307269218, 0.5950692773415085, 0.5735340457810801, 9362.0, 30146.0, 35388.0, 9362.0, 8.17190170288086, 0.2281322032213211, 0.2815450429916382, 0.06585609167814255, -0.0034782050643116236, -0.0009063241886906326, 1.0011154413223267, -0.04617636650800705, -0.0037593841552734375, 1.49560546875, 1.6318359375, 0.4938812255859375, 1.494873046875
12947, 0.2586463987827301, -1.7122600078582764, -0.5752220153808594, 0.01369132474064827, -0.0021254413295537233, 0.8699904084205627, 0.08976008743047714, -0.014054907485842705, 0.14880363643169403, -0.48929649591445923, -0.8562024235725403, 0.06909407675266266, -0.9549901214247383, 0.6879289565778492, 0.7200496495774646, 9362.0, 30146.0, 35388.0, 9362.0, 8.17190170288086, 0.05878615751862526, 0.19037756323814392, 0.41822296380996704, -0.0006771935150027275, -0.0025752317160367966, 1.0022038221359253, -0.042997438460588455, -0.01271820068359375, 1.494873046875, 1.420166015625, 0.0621337890625, 1.496337890625
12957, 0.2591387629508972, -1.7110135555267334, -0.5727258324623108, 0.014603571966290474, -0.0022683427669107914, 0.8714788556098938, 0.0926893949508667, -0.014525286853313446, 0.14888256788253784, -0.4892151355743408, -0.856006920337677, 0.06913647055625916, -0.9047226559746991, 0.6863273717725065, 0.8125034728892321, 9362.0, 30146.0, 35388.0, 9362.0, 8.17190170288086, -0.23857775330543518, -0.42226970195770264, 0.35360148549079895, -0.0005068007158115506, -0.0014529394684359431, 0.9995647668838501, -0.04443486034870148, 0.11272048950195312, 1.505126953125, 0.91552734375, 5.3381195068359375, 1.487548828125
12967, 0.2589442729949951, -1.709396481513977, -0.5714555382728577, 0.015545114874839783, -0.0024159594904631376, 0.8729679584503174, 0.09561911970376968, -0.014997908845543861, 0.14894148707389832, -0.48922643065452576, -0.8559449911117554, 0.06896883249282837, -0.9158028422638824, 0.6226095252266646, 0.8485109628612799, 9362.0, 30146.0, 35388.0, 9362.0, 8.17190170288086, 0.028861945495009422, -0.1853250116109848, -0.10694417357444763, 0.0006532612605951726, -0.0018552453257143497, 1.0003007650375366, -0.04250640422105789, -0.15607833862304688, 1.483154296875, 0.77197265625, 11.974197387695312, 1.49267578125
12977, 0.25929388403892517, -1.7081570625305176, -0.5721118450164795, 0.016515927389264107, -0.0025683031417429447, 0.8744571208953857, 0.09854357689619064, -0.015470776706933975, 0.14889538288116455, -0.4895786941051483, -0.8559126257896423, 0.06865706294775009, -0.8965334422307695, 0.4916049845974726, 0.651047392011144, 9362.0, 30146.0, 35388.0, 9362.0, 8.17190170288086, 0.2163267433643341, 0.14391984045505524, 0.04392918571829796, -0.0005171044613234699, -0.000651990354526788, 0.9998992085456848, -0.04779782518744469, -0.08439826965332031, 1.489013671875, 1.73876953125, 0.776458740234375, 1.4970703125
12987, 0.25995713472366333, -1.7086656093597412, -0.5732860565185547, 0.01751597598195076, -0.0027253741864115, 0.8759459853172302, 0.10146620124578476, -0.01594347320497036, 0.14888085424900055, -0.4895719289779663, -0.8559200763702393, 0.06862501055002213, -0.8968275123511409, 0.48457082661823847, 0.6481558424517864, 9362.0, 30146.0, 35388.0, 9362.0, 8.17190170288086, 0.08483617007732391, 0.2035885602235794, -0.15684138238430023, -0.0005171044613234699, -0.000651990354526788, 0.9998992085456848, -0.04779782518744469, -0.08439826965332031, 1.489013671875, 1.686767578125, 0.6328125, 1.4912109375
12997, 0.25899550318717957, -1.710848093032837, -0.5737407803535461, 0.01751597598195076, -0.0027253741864115, 0.8759459853172302, 0.10146620124578476, -0.01594347320497036, 0.14888085424900055, -0.4891711473464966, -0.8559050559997559, 0.06895195692777634, -0.9433607511494058, 0.6045301136852856, 0.844344652682316, 9362.0, 30146.0, 35388.0, 9362.0, 8.17190170288086, -0.45955362915992737, 0.28147318959236145, 0.09229778498411179, -0.0023287844378501177, -0.0019373237155377865, 0.9986218810081482, -0.04779782518744469, -0.08439826965332031, 1.489013671875, 1.686767578125, 0.6328125, 1.4912109375
13007, 0.2579231262207031, -1.7131829261779785, -0.5732546448707581, 0.01751597598195076, -0.0027253741864115, 0.8759459853172302, 0.10146620124578476, -0.01594347320497036, 0.14888085424900055, -0.4891519844532013, -0.8559760451316833, 0.06908462941646576, -0.9395849088088011, 0.6457066096456288, 0.8094550279045395, 9362.0, 30146.0, 35388.0, 9362.0, 8.17190170288086, -0.45955362915992737, 0.28147318959236145, 0.09229778498411179, -0.0023287844378501177, -0.0019373237155377865, 0.9986218810081482, -0.04779782518744469, -0.08439826965332031, 1.489013671875, 1.686767578125, 0.6328125, 1.48974609375
13017, 0.25728851556777954, -1.7156349420547485, -0.5737402439117432, 0.02069133333861828, -0.003224979154765606, 0.8804088830947876, 0.11022540181875229, -0.017362920567393303, 0.14857709407806396, -0.48916611075401306, -0.855988085269928, 0.0691257193684578, -0.9636233310598574, 0.6713529726550576, 0.806981752712614, 9362.0, 30146.0, 35388.0, 9362.0, 8.17190170288086, -0.06557535380125046, 0.05393805727362633, 0.1038060262799263, -0.001892513013444841, -0.001417259220033884, 0.9985833168029785, -0.04779782518744469, -0.08439826965332031, 1.489013671875, 1.686767578125, 0.6328125, 1.48974609375
13027, 0.257012277841568, -1.7149791717529297, -0.5746380686759949, 0.02069133333861828, -0.003224979154765606, 0.8804088830947876, 0.11022540181875229, -0.017362920567393303, 0.14857709407806396, -0.48917537927627563, -0.8560082316398621, 0.06913413107395172, -0.9626867657615378, 0.6813144667261497, 0.7916483684291162, 9362.0, 30146.0, 35388.0, 9362.0, 8.17190170288086, -0.015222426503896713, -0.26363858580589294, -0.038323767483234406, -0.001892513013444841, -0.001417259220033884, 0.9985833168029785, -0.03953535854816437, -0.10231781005859375, 1.487548828125, 1.686767578125, 0.6328125, 1.48974609375
13037, 0.25717607140541077, -1.7111523151397705, -0.5745161175727844, 0.02069133333861828, -0.003224979154765606, 0.8804088830947876, 0.11022540181875229, -0.017362920567393303, 0.14857709407806396, -0.48920881748199463, -0.8559786081314087, 0.06907527893781662, -0.9534562447271171, 0.6489428766458332, 0.8207881299430708, 9362.0, 30146.0, 35388.0, 9362.0, 8.17190170288086, -0.1726960837841034, -0.19126087427139282, 0.09417283535003662, -0.0016111924778670073, 0.00018190950504504144, 0.9992840886116028, -0.029983380809426308, 0.13064002990722656, 1.506591796875, 1.686767578125, 0.6328125, 1.48974609375
13057, 0.25641486048698425, -1.7109051942825317, -0.5739464163780212, 0.02069133333861828, -0.003224979154765606, 0.8804088830947876, 0.11022540181875229, -0.017362920567393303, 0.14857709407806396, -0.4892301559448242, -0.8559662699699402, 0.06906689703464508, -0.9614091215762196, 0.6667954877929105, 0.8202906319261646, 9362.0, 30146.0, 35388.0, 9362.0, 8.17190170288086, 0.06819149851799011, 0.1844269186258316, -0.030366042628884315, -0.002078146208077669, -4.6406516048591584e-05, 0.999940812587738, -0.029377257451415062, 0.1396007537841797, 1.50732421875, 1.686767578125, 0.6328125, 1.48974609375
13087, 0.254504919052124, -1.7067227363586426, -0.5736351013183594, 0.029124002903699875, -0.004555385559797287, 0.8907788991928101, 0.13070182502269745, -0.020646680146455765, 0.14787375926971436, -0.48926788568496704, -0.855972409248352, 0.06900843977928162, -0.9710945686957178, 0.6772417109423827, 0.7841762478058928, 9362.0, 30146.0, 35388.0, 9362.0, 8.17190170288086, 0.03691788390278816, -0.008812932297587395, 0.1147422045469284, -0.001661693211644888, -0.0018509749788790941, 0.9965183138847351, -0.0373406782746315, -0.021678924560546875, 1.494140625, 1.686767578125, 0.6328125, 1.48974609375
13107, 0.25538983941078186, -1.7081553936004639, -0.5704802870750427, 0.031796250492334366, -0.004977613687515259, 0.8937294483184814, 0.13651949167251587, -0.02157500572502613, 0.1471177339553833, -0.4892882704734802, -0.8560543656349182, 0.06909454613924026, -0.9553828118610518, 0.7250299067436003, 0.7610921257682898, 9362.0, 30146.0, 35388.0, 9362.0, 8.17190170288086, 0.023685747757554054, -0.09089116007089615, 0.031026536598801613, -0.001661693211644888, -0.0018509749788790941, 0.9965183138847351, -0.048878345638513565, -0.030637741088867188, 1.493408203125, 1.686767578125, 0.6328125, 1.48974609375
13127, 0.2563425302505493, -1.7094006538391113, -0.5638958215713501, 0.03458497300744057, -0.005418416112661362, 0.8966698050498962, 0.1423577070236206, -0.022506430745124817, 0.14705415070056915, -0.4892599582672119, -0.8560513854026794, 0.06915973126888275, -0.9383255168208108, 0.7583294748444871, 0.7610872123332634, 9362.0, 30146.0, 35388.0, 9362.0, 8.17190170288086, -0.08222167938947678, 0.2462300956249237, 0.3428136110305786, 0.00018838922551367432, -0.0021144316997379065, 0.9996134042739868, -0.035364262759685516, -0.08439826965332031, 1.489013671875, 1.686767578125, 0.6328125, 1.48974609375
13137, 0.2557861804962158, -1.7102447748184204, -0.5607833862304688, 0.03458497300744057, -0.005418416112661362, 0.8966698050498962, 0.1423577070236206, -0.022506430745124817, 0.14705415070056915, -0.489279180765152, -0.8560466170310974, 0.06915164738893509, -0.9481235362408247, 0.771962044868701, 0.7647247221830914, 9362.0, 30146.0, 35388.0, 9362.0, 8.17190170288086, 0.025788862258195877, 0.09398263692855835, 0.4435917139053345, 0.00018838922551367432, -0.0021144316997379065, 0.9996134042739868, -0.035364262759685516, -0.08439826965332031, 1.489013671875, 1.686767578125, 0.6328125, 1.48974609375
13167, 0.25762203335762024, -1.7108757495880127, -0.5456678867340088, 0.03898710012435913, -0.006114669609814882, 0.9010800719261169, 0.1511150449514389, -0.023907935246825218, 0.146752268075943, -0.4891332983970642, -0.8560469746589661, 0.06920085847377777, -0.9177415385250147, 0.7614529834802397, 0.7187025676696108, 9362.0, 30146.0, 35388.0, 9362.0, 8.17190170288086, 0.06638529151678085, 0.20614680647850037, 0.3453637659549713, -0.0009768453892320395, -0.0018562361365184188, 1.0001623630523682, -0.05326405540108681, -0.05751800537109375, 1.4912109375, 1.686767578125, 0.6328125, 1.48974609375
13187, 0.2602228820323944, -1.7202163934707642, -0.5309344530105591, 0.043652087450027466, -0.006852975580841303, 0.9054799675941467, 0.15988849103450775, -0.02531307376921177, 0.14668962359428406, -0.4895017743110657, -0.8561041355133057, 0.06905487179756165, -0.8874367421096797, 0.5916348332177677, 0.5182387785262866, 9362.0, 30146.0, 35388.0, 9362.0, 8.17190170288086, -0.14957298338413239, 0.40547943115234375, 0.4884335994720459, -0.0009768453892320395, -0.0018562361365184188, 1.0001623630523682, -0.05874614417552948, -0.08439826965332031, 1.489013671875, 1.686767578125, 0.6328125, 1.48974609375
13197, 0.2609977722167969, -1.7225655317306519, -0.5259860754013062, 0.043652087450027466, -0.006852975580841303, 0.9054799675941467, 0.15988849103450775, -0.02531307376921177, 0.14668962359428406, -0.48948803544044495, -0.8561040163040161, 0.06904217600822449, -0.8921466027970865, 0.5702332311545888, 0.5086359123738168, 9362.0, 30146.0, 35388.0, 9362.0, 8.17190170288086, -0.14957298338413239, 0.40547943115234375, 0.4884335994720459, -0.0008086981833912432, -0.0029469227883964777, 1.0011346340179443, -0.05874614417552948, -0.08439826965332031, 1.489013671875, 1.686767578125, 0.6328125, 1.48974609375
13207, 0.2607770264148712, -1.7268564701080322, -0.5199241042137146, 0.046908602118492126, -0.007368645630776882, 0.9084153771400452, 0.16576524078845978, -0.02625512331724167, 0.14676202833652496, -0.48905274271965027, -0.856070876121521, 0.06924054026603699, -0.9160895453239633, 0.7352510863081818, 0.7186553148661982, 9362.0, 30146.0, 35388.0, 9362.0, 8.17190170288086, -0.08465766161680222, 0.45474183559417725, 0.6593465805053711, -0.0008086981833912432, -0.0029469227883964777, 1.0011346340179443, -0.05874614417552948, -0.08439826965332031, 1.489013671875, 1.686767578125, 0.6328125, 1.48974609375
13217, 0.25992199778556824, -1.7310431003570557, -0.5168395042419434, 0.046908602118492126, -0.007368645630776882, 0.9084153771400452, 0.16576524078845978, -0.02625512331724167, 0.14676202833652496, -0.4890443682670593, -0.8560683131217957, 0.06927487254142761, -0.926728554945703, 0.7250925502904977, 0.7223807705868297, 9362.0, 30146.0, 35388.0, 9362.0, 8.17190170288086, -0.08465766161680222, 0.45474183559417725, 0.6593465805053711, -0.0016782369930297136, 0.00023360628983937204, 0.9998160004615784, -0.05874614417552948, -0.08439826965332031, 1.489013671875, 1.686767578125, 0.6328125, 1.48974609375
13227, 0.25790393352508545, -1.737843632698059, -0.5168378949165344, 0.05028292536735535, -0.007903234101831913, 0.9113526940345764, 0.17167046666145325, -0.027203239500522614, 0.14695367217063904, -0.48904603719711304, -0.8560997247695923, 0.06933118402957916, -0.9221767524834458, 0.693764348364482, 0.739670746775064, 9362.0, 30146.0, 35388.0, 9362.0, 8.17190170288086, -0.24756214022636414, 0.7365436553955078, 0.18515020608901978, -0.0016782369930297136, 0.00023360628983937204, 0.9998160004615784, -0.051774416118860245, -0.27255821228027344, 1.4736328125, 1.686767578125, 0.6328125, 1.48974609375
13237, 0.25665414333343506, -1.7442033290863037, -0.511772871017456, 0.05028292536735535, -0.007903234101831913, 0.9113526940345764, 0.17167046666145325, -0.027203239500522614, 0.14695367217063904, -0.4890325665473938, -0.856094479560852, 0.06931205093860626, -0.9204508243908208, 0.7021116697183629, 0.75704324990106, 9362.0, 30146.0, 35388.0, 9362.0, 8.17190170288086, -0.020509356632828712, 1.025420069694519, 0.2360803633928299, -0.0016782369930297136, 0.00023360628983937204, 0.9998160004615784, -0.051774416118860245, -0.27255821228027344, 1.4736328125, 1.686767578125, 0.6328125, 1.48974609375
13257, 0.25488966703414917, -1.7686842679977417, -0.5128896832466125, 0.05556630715727806, -0.008740449324250221, 0.915753185749054, 0.18056754767894745, -0.02860681526362896, 0.14632603526115417, -0.48942995071411133, -0.8560997843742371, 0.06907648593187332, -0.8934084265745372, 0.5260291724324873, 0.5454049763040815, 9362.0, 30146.0, 35388.0, 9362.0, 8.17190170288086, -0.06258824467658997, 1.3430440425872803, 0.20906217396259308, -0.0016782369930297136, 0.00023360628983937204, 0.9998160004615784, -0.04956367239356041, -0.14711761474609375, 1.48388671875, 1.686767578125, 0.6328125, 1.48974609375
13267, 0.2531529664993286, -1.780669093132019, -0.5177809000015259, 0.05556630715727806, -0.008740449324250221, 0.915753185749054, 0.18056754767894745, -0.02860681526362896, 0.14632603526115417, -0.4894312024116516, -0.8560949563980103, 0.06905531138181686, -0.8965418485839148, 0.5229891964257547, 0.5501057583888012, 9362.0, 30146.0, 35388.0, 9362.0, 8.17190170288086, -0.35885706543922424, 1.0469105243682861, -0.6487263441085815, -0.0072841159999370575, -0.001979899825528264, 1.001607894897461, -0.04956367239356041, -0.14711761474609375, 1.48388671875, 1.686767578125, 0.6328125, 1.48974609375
13277, 0.2513485252857208, -1.792908787727356, -0.5277641415596008, 0.05556630715727806, -0.008740449324250221, 0.915753185749054, 0.18056754767894745, -0.02860681526362896, 0.14632603526115417, -0.4894365966320038, -0.8561006784439087, 0.06908204406499863, -0.8892566876230854, 0.5253639672057488, 0.546017995469078, 9362.0, 30146.0, 35388.0, 9362.0, 8.17190170288086, -0.35885706543922424, 1.0469105243682861, -0.6487263441085815, -0.008887221105396748, -0.0020077291410416365, 1.0000410079956055, -0.04956367239356041, -0.14711761474609375, 1.48388671875, 1.686767578125, 0.6328125, 1.48974609375
13287, 0.2491724044084549, -1.8001009225845337, -0.5440326929092407, 0.05556630715727806, -0.008740449324250221, 0.915753185749054, 0.18056754767894745, -0.02860681526362896, 0.14632603526115417, -0.48944535851478577, -0.8560999035835266, 0.0690888911485672, -0.896223364873816, 0.5199845655598097, 0.536707461998876, 9362.0, 30146.0, 35388.0, 9362.0, 8.17190170288086, -0.35885706543922424, 1.0469105243682861, -0.6487263441085815, -0.00862978957593441, -0.001724019180983305, 0.9988104104995728, -0.037348903715610504, -0.06647872924804688, 1.490478515625, 1.686767578125, 0.6328125, 1.48974609375
13297, 0.24720005691051483, -1.8061405420303345, -0.5613877773284912, 0.05556630715727806, -0.008740449324250221, 0.915753185749054, 0.18056754767894745, -0.02860681526362896, 0.14632603526115417, -0.4894388020038605, -0.8560948967933655, 0.06908328831195831, -0.8890669237339747, 0.532374999461581, 0.5378246594264388, 9362.0, 30146.0, 35388.0, 9362.0, 8.17190170288086, -0.14181293547153473, 0.3071315288543701, -1.7684085369110107, -0.009140891022980213, -0.0019673770293593407, 0.9995221495628357, -0.037348903715610504, -0.06647872924804688, 1.490478515625, 1.686767578125, 0.6328125, 1.48974609375
13327, 0.24332544207572937, -1.807043433189392, -0.6042538285255432, 0.0689505934715271, -0.010856161825358868, 0.9259880781173706, 0.20196320116519928, -0.03182357922196388, 0.1460670828819275, -0.4894959330558777, -0.8561191558837891, 0.06908143311738968, -0.887026632937174, 0.5586760704222797, 0.5453233994475944, 9362.0, 30146.0, 35388.0, 9362.0, 8.17190170288086, -0.10341086983680725, -0.2550659477710724, -0.5325643420219421, -0.004702532198280096, -0.00213663000613451, 0.9995632171630859, -0.02568722702562809, 0.1396007537841797, 1.50732421875, 1.686767578125, 0.6328125, 1.48974609375
13337, 0.24292902648448944, -1.8024786710739136, -0.607677161693573, 0.0689505934715271, -0.010856161825358868, 0.9259880781173706, 0.20196320116519928, -0.03182357922196388, 0.1460670828819275, -0.48951882123947144, -0.8561127185821533, 0.06909145414829254, -0.8871831124152901, 0.5657020739523375, 0.5387723274370316, 9362.0, 30146.0, 35388.0, 9362.0, 8.17190170288086, 0.11420124769210815, -0.6534173488616943, -0.481683611869812, -0.004702532198280096, -0.00213663000613451, 0.9995632171630859, -0.028127696365118027, -0.05751800537109375, 1.4912109375, 0.996826171875, 3.0555877685546875, 1.48974609375
13347, 0.24378147721290588, -1.7951472997665405, -0.6111983060836792, 0.0689505934715271, -0.010856161825358868, 0.9259880781173706, 0.20196320116519928, -0.03182357922196388, 0.1460670828819275, -0.4895317852497101, -0.8561176061630249, 0.0690993219614029, -0.8908401489272901, 0.583749306174127, 0.5373649142544428, 9362.0, 30146.0, 35388.0, 9362.0, 8.17190170288086, 0.11420124769210815, -0.6534173488616943, -0.481683611869812, -0.006875610910356045, -0.0033255480229854584, 1.0000371932983398, -0.028127696365118027, -0.05751800537109375, 1.4912109375, 0.996826171875, 3.0555877685546875, 1.48974609375
13357, 0.24428820610046387, -1.7877494096755981, -0.611784815788269, 0.07514852285385132, -0.011831102892756462, 0.9303662776947021, 0.21122196316719055, -0.03317151218652725, 0.14576347172260284, -0.4895420968532562, -0.8561235666275024, 0.06910786032676697, -0.8889711747557089, 0.5946912669614335, 0.541757545210391, 9362.0, 30146.0, 35388.0, 9362.0, 8.17190170288086, 0.3655789792537689, -1.3454416990280151, -0.05197608470916748, -0.00572882778942585, -0.0009610719280317426, 0.9990726709365845, -0.028127696365118027, -0.05751800537109375, 1.4912109375, 0.996826171875, 3.0555877685546875, 1.48974609375
13367, 0.2463923841714859, -1.7746391296386719, -0.6131402254104614, 0.07514852285385132, -0.011831102892756462, 0.9303662776947021, 0.21122196316719055, -0.03317151218652725, 0.14576347172260284, -0.4895673394203186, -0.8561636805534363, 0.06912501156330109, -0.8745198437291515, 0.6169663429641901, 0.5277364666041497, 9362.0, 30146.0, 35388.0, 9362.0, 8.17190170288086, 0.35402795672416687, -1.6464462280273438, -0.30220717191696167, -0.002085453597828746, -0.0022064894437789917, 0.9990349411964417, -0.028127696365118027, -0.05751800537109375, 1.4912109375, 1.44873046875, 0.102813720703125, 1.48974609375
13387, 0.2511289715766907, -1.7458361387252808, -0.6153602004051208, 0.08162279427051544, -0.012846523895859718, 0.9347336888313293, 0.2203727811574936, -0.0345260351896286, 0.14540475606918335, -0.4895663261413574, -0.8561446070671082, 0.0691097155213356, -0.8827984271252594, 0.6117231205620612, 0.5342119679364371, 9362.0, 30146.0, 35388.0, 9362.0, 8.17190170288086, 0.38997015357017517, -1.4706388711929321, 0.20381905138492584, -0.001341396477073431, -0.001462560729123652, 0.9999595284461975, -0.035621415823698044, 0.014162063598632812, 1.4970703125, 1.44873046875, 0.102813720703125, 1.48974609375
13397, 0.25508588552474976, -1.7342567443847656, -0.6141232252120972, 0.08162279427051544, -0.012846523895859718, 0.9347336888313293, 0.2203727811574936, -0.0345260351896286, 0.14540475606918335, -0.48950210213661194, -0.856161892414093, 0.06919462978839874, -0.8598349804023326, 0.6548230067656675, 0.4767947212443829, 9362.0, 30146.0, 35388.0, 9362.0, 8.17190170288086, 0.32498398423194885, -1.1249116659164429, -0.11433316022157669, -0.001341396477073431, -0.001462560729123652, 0.9999595284461975, -0.04751904681324959, -0.0037593841552734375, 1.49560546875, 1.44873046875, 0.102813720703125, 1.48974609375
13407, 0.2594911456108093, -1.7233811616897583, -0.6112998723983765, 0.08609027415513992, -0.0135462312027812, 0.9376397728919983, 0.22636158764362335, -0.03544619679450989, 0.1451730728149414, -0.48960575461387634, -0.8561242818832397, 0.06900706887245178, -0.8989505538808596, 0.5537431236844839, 0.5664033336546864, 9362.0, 30146.0, 35388.0, 9362.0, 8.17190170288086, 0.506008505821228, -0.7823520302772522, 0.19331996142864227, 0.0028502773493528366, -0.0008245311328209937, 1.0005942583084106, -0.04751904681324959, -0.0037593841552734375, 1.49560546875, 1.44873046875, 0.102813720703125, 1.48974609375
13417, 0.26274171471595764, -1.719107747077942, -0.6086041927337646, 0.088368721306324, -0.013903037644922733, 0.9390917420387268, 0.22932827472686768, -0.03591502830386162, 0.14521640539169312, -0.48958584666252136, -0.8561107516288757, 0.0689576268196106, -0.8929887251376571, 0.5357748313228683, 0.574550442955124, 9362.0, 30146.0, 35388.0, 9362.0, 8.17190170288086, 0.3165261149406433, -0.15057747066020966, 0.09926313161849976, 0.004551086109131575, -0.0016772758681327105, 1.0002763271331787, -0.04751904681324959, -0.0037593841552734375, 1.49560546875, 1.44873046875, 0.102813720703125, 1.48974609375
13427, 0.2635236084461212, -1.7173057794570923, -0.6076294183731079, 0.09067673236131668, -0.014264567755162716, 0.9405438303947449, 0.23227465152740479, -0.036390796303749084, 0.14520451426506042, -0.48959627747535706, -0.8561059236526489, 0.06896328926086426, -0.8948932641296033, 0.5198609472944042, 0.5725987713079329, 9362.0, 30146.0, 35388.0, 9362.0, 8.17190170288086, 0.3165261149406433, -0.15057747066020966, 0.09926313161849976, 0.004551086109131575, -0.0016772758681327105, 1.0002763271331787, -0.043880194425582886, -0.030637741088867188, 1.493408203125, 1.44873046875, 0.102813720703125, 1.48974609375
13437, 0.2630313038825989, -1.720124363899231, -0.6057441234588623, 0.09067673236131668, -0.014264567755162716, 0.9405438303947449, 0.23227465152740479, -0.036390796303749084, 0.14520451426506042, -0.4895905554294586, -0.8561004400253296, 0.06897013634443283, -0.8930301115742244, 0.5049602261775306, 0.5635979920215048, 9362.0, 30146.0, 35388.0, 9362.0, 8.17190170288086, -0.30983594059944153, 0.34431934356689453, 0.16118375957012177, 0.004551086109131575, -0.0016772758681327105, 1.0002763271331787, -0.043880194425582886, -0.030637741088867188, 1.493408203125, 1.44873046875, 0.102813720703125, 1.48974609375
13457, 0.25906646251678467, -1.7349750995635986, -0.6050984263420105, 0.09067673236131668, -0.014264567755162716, 0.9405438303947449, 0.23227465152740479, -0.036390796303749084, 0.14520451426506042, -0.48958367109298706, -0.8560820817947388, 0.06893344968557358, -0.8986558553508635, 0.5093696026734165, 0.572648489263284, 9362.0, 30146.0, 35388.0, 9362.0, 8.17190170288086, -0.12552568316459656, 0.9468672871589661, 0.01938665844500065, 0.004714127164334059, -0.0016586523270234466, 1.0017355680465698, -0.05157049745321274, -0.10231781005859375, 1.487548828125, 1.44873046875, 0.102813720703125, 1.48974609375
13467, 0.25551435351371765, -1.745519995689392, -0.6064997315406799, 0.10020264983177185, -0.015758689492940903, 0.9463446736335754, 0.24403123557567596, -0.038313210010528564, 0.14483149349689484, -0.489149272441864, -0.8560686707496643, 0.0691666305065155, -0.9312970577868123, 0.6598690154994244, 0.7784982038351821, 9362.0, 30146.0, 35388.0, 9362.0, 8.17190170288086, -0.397969126701355, 1.140355110168457, -0.3729124367237091, 0.004714127164334059, -0.0016586523270234466, 1.0017355680465698, -0.05157049745321274, -0.10231781005859375, 1.487548828125, 1.44873046875, 0.102813720703125, 1.48974609375
13487, 0.24934378266334534, -1.7730920314788818, -0.6121857762336731, 0.10514267534017563, -0.01653442345559597, 0.949240505695343, 0.24997514486312866, -0.039256732910871506, 0.14458870887756348, -0.4891234040260315, -0.8560675978660583, 0.06915099173784256, -0.9316197216676002, 0.6557400089203895, 0.7602768998197532, 9362.0, 30146.0, 35388.0, 9362.0, 8.17190170288086, -0.16597580909729004, 1.2818936109542847, -0.1058102622628212, -0.0030257056932896376, -0.0025870446115732193, 1.0006338357925415, -0.048231858760118484, 0.08584022521972656, 1.5029296875, 1.44873046875, 0.102813720703125, 1.48974609375
13497, 0.24404571950435638, -1.7869479656219482, -0.6165087819099426, 0.10514267534017563, -0.01653442345559597, 0.949240505695343, 0.24997514486312866, -0.039256732910871506, 0.14458870887756348, -0.4891318678855896, -0.8560773134231567, 0.06915687024593353, -0.9162957458181277, 0.6634525864301963, 0.7539987366121954, 9362.0, 30146.0, 35388.0, 9362.0, 8.17190170288086, -0.16597580909729004, 1.2818936109542847, -0.1058102622628212, -0.0030257056932896376, -0.0025870446115732193, 1.0006338357925415, -0.050498172640800476, -0.021678924560546875, 1.494140625, 1.44873046875, 0.102813720703125, 1.48974609375
13507, 0.23998436331748962, -1.8013461828231812, -0.6193205118179321, 0.10514267534017563, -0.01653442345559597, 0.949240505695343, 0.24997514486312866, -0.039256732910871506, 0.14458870887756348, -0.48910096287727356, -0.8560681343078613, 0.06914237141609192, -0.9286861982880181, 0.6599707905357661, 0.7730333328912907, 9362.0, 30146.0, 35388.0, 9362.0, 8.17190170288086, -0.16597580909729004, 1.2818936109542847, -0.1058102622628212, -0.004002516623586416, -0.0013845619978383183, 0.9996439814567566, -0.050498172640800476, -0.021678924560546875, 1.494140625, 1.44873046875, 0.102813720703125, 1.48974609375
13517, 0.23747320473194122, -1.8136698007583618, -0.6193504929542542, 0.10514267534017563, -0.01653442345559597, 0.949240505695343, 0.24997514486312866, -0.039256732910871506, 0.14458870887756348, -0.4891156554222107, -0.856067955493927, 0.06914077699184418, -0.9324834507468363, 0.6559296172362394, 0.7674150914955733, 9362.0, 30146.0, 35388.0, 9362.0, 8.17190170288086, -0.16597580909729004, 1.2818936109542847, -0.1058102622628212, -0.0033683518413454294, -0.0010225712321698666, 1.001280426979065, -0.050498172640800476, -0.021678924560546875, 1.494140625, 1.44873046875, 0.102813720703125, 1.48974609375
13527, 0.2349395453929901, -1.8253430128097534, -0.6212701797485352, 0.10514267534017563, -0.01653442345559597, 0.949240505695343, 0.24997514486312866, -0.039256732910871506, 0.14458870887756348, -0.48909953236579895, -0.8560574054718018, 0.06913569569587708, -0.9277688819561906, 0.6589746494360043, 0.7668947176278587, 9362.0, 30146.0, 35388.0, 9362.0, 8.17190170288086, -0.22630496323108673, 0.9583971500396729, -0.05273296311497688, -0.0033683518413454294, -0.0010225712321698666, 1.001280426979065, -0.050498172640800476, -0.021678924560546875, 1.494140625, 1.44873046875, 0.102813720703125, 1.48974609375
13537, 0.23429258167743683, -1.8315234184265137, -0.6238793134689331, 0.11802081763744354, -0.01855430193245411, 0.9564641714096069, 0.2652471363544464, -0.041514672338962555, 0.14441116154193878, -0.48911336064338684, -0.8560349345207214, 0.06912320107221603, -0.9242187507653764, 0.6615047333106929, 0.769745912199331, 9362.0, 30146.0, 35388.0, 9362.0, 8.17190170288086, 0.1693403571844101, 0.7519171833992004, -0.17395611107349396, -0.0033683518413454294, -0.0010225712321698666, 1.001280426979065, -0.05815952643752098, -0.021678924560546875, 1.494140625, 1.44873046875, 0.102813720703125, 1.48974609375
13557, 0.23452939093112946, -1.835888147354126, -0.6219924092292786, 0.1233881488442421, -0.019393304362893105, 0.9593492746353149, 0.27149227261543274, -0.04238535836338997, 0.14412784576416016, -0.4891197681427002, -0.8560483455657959, 0.0691317468881607, -0.920255589486307, 0.6707643959699396, 0.7716867238257932, 9362.0, 30146.0, 35388.0, 9362.0, 8.17190170288086, -0.06746438890695572, 0.30709394812583923, 0.07388529926538467, -0.009991859085857868, -0.002691692439839244, 0.9992750287055969, -0.05815952643752098, -0.021678924560546875, 1.494140625, 1.44873046875, 0.102813720703125, 1.48974609375
13567, 0.23521684110164642, -1.8325867652893066, -0.6204338073730469, 0.1261187642812729, -0.019819332286715508, 0.9607901573181152, 0.2746298909187317, -0.042820043861866, 0.14404472708702087, -0.489138662815094, -0.8560469746589661, 0.06915178894996643, -0.9371791498070613, 0.6707381306043203, 0.7667080525635219, 9362.0, 30146.0, 35388.0, 9362.0, 8.17190170288086, 0.048166532069444656, -0.7612782120704651, 0.22427144646644592, -0.008313934318721294, -0.0035140106920152903, 1.0007895231246948, -0.05815952643752098, -0.021678924560546875, 1.494140625, 1.44873046875, 0.102813720703125, 1.48974609375
13587, 0.2383573353290558, -1.8160507678985596, -0.6180305480957031, 0.13167409598827362, -0.02068445086479187, 0.9636698961257935, 0.280901163816452, -0.04369226470589638, 0.14395734667778015, -0.48916274309158325, -0.85605788230896, 0.06912346929311752, -0.9274032764943353, 0.6845239075304335, 0.774537227719935, 9362.0, 30146.0, 35388.0, 9362.0, 8.17190170288086, 0.11422041058540344, -0.9315944910049438, 0.05211586877703667, -0.008590685203671455, -0.0028730668127536774, 0.9991340637207031, -0.048650216311216354, 0.06792068481445312, 1.50146484375, 1.44873046875, 0.102813720703125, 1.48974609375
13597, 0.24155530333518982, -1.8074871301651, -0.6161854863166809, 0.13167409598827362, -0.02068445086479187, 0.9636698961257935, 0.280901163816452, -0.04369226470589638, 0.14395734667778015, -0.4891816973686218, -0.8560799956321716, 0.06917130202054977, -0.9213079053911338, 0.7077625391162314, 0.76928503099608, 9362.0, 30146.0, 35388.0, 9362.0, 8.17190170288086, 0.2458212524652481, -1.1427809000015259, 0.1498638093471527, -0.008590685203671455, -0.0028730668127536774, 0.9991340637207031, -0.048650216311216354, 0.06792068481445312, 1.50146484375, 1.44873046875, 0.102813720703125, 1.48974609375
13607, 0.24279771745204926, -1.793834924697876, -0.6142843961715698, 0.13735437393188477, -0.021567104384303093, 0.9665461182594299, 0.2871209383010864, -0.044573813676834106, 0.14373251795768738, -0.48918330669403076, -0.8560605645179749, 0.06917442381381989, -0.9328609894550884, 0.6954610899542502, 0.7601981254097288, 9362.0, 30146.0, 35388.0, 9362.0, 8.17190170288086, 0.1344711184501648, -1.3921092748641968, 0.3974320888519287, -0.008590685203671455, -0.0028730668127536774, 0.9991340637207031, -0.05189349129796028, 0.023120880126953125, 1.497802734375, 1.44873046875, 0.102813720703125, 1.48974609375
13627, 0.24944794178009033, -1.7663052082061768, -0.6072762608528137, 0.14315852522850037, -0.022467533126473427, 0.9694215655326843, 0.29327893257141113, -0.0454692542552948, 0.14370514452457428, -0.4891361594200134, -0.8559943437576294, 0.06902442127466202, -0.900119069885815, 0.7570045635778797, 0.770098949444215, 9362.0, 30146.0, 35388.0, 9362.0, 8.17190170288086, 0.16319973766803741, -1.3945516347885132, 0.01967574469745159, -0.0037348608020693064, -0.0009848354384303093, 0.9993188381195068, -0.04721362888813019, -0.07543754577636719, 1.48974609375, 1.44873046875, 0.102813720703125, 1.48974609375
13637, 0.2516772449016571, -1.7531445026397705, -0.6056841611862183, 0.14315852522850037, -0.022467533126473427, 0.9694215655326843, 0.29327893257141113, -0.0454692542552948, 0.14370514452457428, -0.4891507625579834, -0.856013834476471, 0.06902720779180527, -0.8909428293444612, 0.7618782345193722, 0.7636834883052218, 9362.0, 30146.0, 35388.0, 9362.0, 8.17190170288086, 0.14447569847106934, -1.2256147861480713, 0.42278915643692017, -0.0037348608020693064, -0.0009848354384303093, 0.9993188381195068, -0.04721362888813019, -0.07543754577636719, 1.48974609375, 1.44873046875, 0.102813720703125, 1.48974609375
13657, 0.2543502449989319, -1.7363677024841309, -0.6060230731964111, 0.14315852522850037, -0.022467533126473427, 0.9694215655326843, 0.29327893257141113, -0.0454692542552948, 0.14370514452457428, -0.4891355037689209, -0.85599285364151, 0.06903032958507538, -0.9042950508449525, 0.7509387035507018, 0.7566151663908917, 9362.0, 30146.0, 35388.0, 9362.0, 8.17190170288086, 0.14447569847106934, -1.2256147861480713, 0.42278915643692017, 0.002440876793116331, -0.0016169700538739562, 0.9980058670043945, -0.0798422172665596, -0.04855918884277344, 1.491943359375, 1.44873046875, 0.102813720703125, 1.48974609375
13667, 0.2546960115432739, -1.7330479621887207, -0.608502984046936, 0.14315852522850037, -0.022467533126473427, 0.9694215655326843, 0.29327893257141113, -0.0454692542552948, 0.14370514452457428, -0.4891224801540375, -0.8559970855712891, 0.06901976466178894, -0.9013679939020818, 0.7514281705520602, 0.7626949598404509, 9362.0, 30146.0, 35388.0, 9362.0, 8.17190170288086, -0.23818431794643402, -0.2511751353740692, -0.4710274338722229, 0.002440876793116331, -0.0016169700538739562, 0.9980058670043945, -0.0798422172665596, -0.04855918884277344, 1.491943359375, 1.44873046875, 0.102813720703125, 1.48974609375
13677, 0.2544775605201721, -1.7313263416290283, -0.6152806878089905, 0.15819896757602692, -0.024798333644866943, 0.9765822887420654, 0.3082682490348816, -0.04777681827545166, 0.14287006855010986, -0.48912477493286133, -0.8559934496879578, 0.06902197003364563, -0.8969816918565631, 0.7507458143369092, 0.7651417189309674, 9362.0, 30146.0, 35388.0, 9362.0, 8.17190170288086, 0.10765135288238525, -0.2114579826593399, -0.5091127157211304, 0.004115390125662088, -0.0021901261061429977, 1.0005834102630615, -0.0798422172665596, -0.04855918884277344, 1.491943359375, 1.44873046875, 0.102813720703125, 1.48974609375
13687, 0.25422900915145874, -1.7297589778900146, -0.622502863407135, 0.15819896757602692, -0.024798333644866943, 0.9765822887420654, 0.3082682490348816, -0.04777681827545166, 0.14287006855010986, -0.4891343414783478, -0.8559998869895935, 0.06902353465557098, -0.9021933738545551, 0.7433365713357887, 0.7625297214779445, 9362.0, 30146.0, 35388.0, 9362.0, 8.17190170288086, -0.307691365480423, 0.37870338559150696, -0.589739203453064, 0.004115390125662088, -0.0021901261061429977, 1.0005834102630615, -0.08288580924272537, 0.014162063598632812, 1.4970703125, 1.44873046875, 0.102813720703125, 1.48974609375
13697, 0.2519654929637909, -1.7340641021728516, -0.6285639405250549, 0.15819896757602692, -0.024798333644866943, 0.9765822887420654, 0.3082682490348816, -0.04777681827545166, 0.14287006855010986, -0.4891027510166168, -0.8559967875480652, 0.06901732087135315, -0.8972945446903244, 0.7388947559433632, 0.7596849842790905, 9362.0, 30146.0, 35388.0, 9362.0, 8.17190170288086, -0.28488218784332275, 0.3994380533695221, -0.8428499698638916, 0.002595262136310339, -0.00024919636780396104, 1.0006963014602661, -0.08288580924272537, 0.014162063598632812, 1.4970703125, 1.44873046875, 0.102813720703125, 1.48974609375
13717, 0.2494625598192215, -1.7504605054855347, -0.6384700536727905, 0.1707666665315628, -0.026746835559606552, 0.9822986721992493, 0.3201168477535248, -0.04964584857225418, 0.1429508626461029, -0.4891696572303772, -0.856080949306488, 0.06910643726587296, -0.9273868253768058, 0.7141943166477631, 0.7302031474759737, 9362.0, 30146.0, 35388.0, 9362.0, 8.17190170288086, 0.049018800258636475, 0.9422690272331238, -0.45574048161506653, 0.002595262136310339, -0.00024919636780396104, 1.0006963014602661, -0.0695086345076561, -0.2904777526855469, 1.47216796875, 1.44873046875, 0.102813720703125, 1.48974609375
13727, 0.24704769253730774, -1.7588483095169067, -0.6442443132400513, 0.1707666665315628, -0.026746835559606552, 0.9822986721992493, 0.3201168477535248, -0.04964584857225418, 0.1429508626461029, -0.4891718626022339, -0.8560721278190613, 0.06911249458789825, -0.9322481255369576, 0.7035727038882555, 0.7309958546009278, 9362.0, 30146.0, 35388.0, 9362.0, 8.17190170288086, -0.1261681616306305, 0.9477147459983826, -0.4223954975605011, 0.002595262136310339, -0.00024919636780396104, 1.0006963014602661, -0.0695086345076561, -0.2904777526855469, 1.47216796875, 1.44873046875, 0.102813720703125, 1.48974609375
13737, 0.2456948608160019, -1.7686952352523804, -0.6477105021476746, 0.17722858488559723, -0.027748970314860344, 0.9851565361022949, 0.32608363032341003, -0.050567902624607086, 0.14286774396896362, -0.4891456365585327, -0.8560563325881958, 0.0690927505493164, -0.9354914482425992, 0.6941504640460607, 0.7462762395605805, 9362.0, 30146.0, 35388.0, 9362.0, 8.17190170288086, 0.0505179725587368, 0.8770975470542908, -0.39183861017227173, 0.002595262136310339, -0.00024919636780396104, 1.0006963014602661, -0.0695086345076561, -0.2904777526855469, 1.47216796875, 1.44873046875, 0.102813720703125, 1.48974609375
13757, 0.24310800433158875, -1.785598635673523, -0.651668131351471, 0.18381041288375854, -0.02876945026218891, 0.9880115985870361, 0.33210813999176025, -0.0514792799949646, 0.14263494312763214, -0.48914265632629395, -0.856059193611145, 0.06909127533435822, -0.916603178105355, 0.698381027877673, 0.7425399550567908, 9362.0, 30146.0, 35388.0, 9362.0, 8.17190170288086, -0.18094851076602936, 0.6815161108970642, 0.13235895335674286, -0.0065472545102238655, -0.0037342782597988844, 0.9985644817352295, -0.0695086345076561, -0.2904777526855469, 1.47216796875, 1.44873046875, 0.102813720703125, 1.48974609375
13767, 0.24240228533744812, -1.7945464849472046, -0.6522707343101501, 0.18714669346809387, -0.029286513105034828, 0.9894375801086426, 0.33514708280563354, -0.0519334077835083, 0.14256520569324493, -0.4891442656517029, -0.8560388088226318, 0.06908772140741348, -0.9279589126629971, 0.6965118748838961, 0.749829025912529, 9362.0, 30146.0, 35388.0, 9362.0, 8.17190170288086, -0.07693004608154297, 1.0301716327667236, 0.1543784737586975, -0.0065472545102238655, -0.0037342782597988844, 0.9985644817352295, -0.0695086345076561, -0.2904777526855469, 1.47216796875, 1.44873046875, 0.102813720703125, 1.48974609375
13777, 0.24132129549980164, -1.803458571434021, -0.6513981819152832, 0.19051340222358704, -0.029808100312948227, 0.9908624291419983, 0.3381953835487366, -0.0523839071393013, 0.14240573346614838, -0.4891659915447235, -0.856036901473999, 0.06906624138355255, -0.9361962803593455, 0.7077212108929984, 0.7338905989426983, 9362.0, 30146.0, 35388.0, 9362.0, 8.17190170288086, -0.07693004608154297, 1.0301716327667236, 0.1543784737586975, -0.004105358850210905, -0.0021368619054555893, 0.9999085664749146, -0.0695086345076561, -0.2904777526855469, 1.47216796875, 1.44873046875, 0.102813720703125, 1.48974609375
13787, 0.24074795842170715, -1.8088455200195312, -0.6456122994422913, 0.19391068816184998, -0.030334189534187317, 0.9922862648963928, 0.3412626385688782, -0.052833858877420425, 0.14235982298851013, -0.48913705348968506, -0.8560349941253662, 0.0690886527299881, -0.926685531751491, 0.7051169091326983, 0.7589790164801575, 9362.0, 30146.0, 35388.0, 9362.0, 8.17190170288086, -0.04795695096254349, 0.26276102662086487, 0.436090350151062, -0.004170584958046675, -0.0024003218859434128, 1.0007493495941162, -0.0674692839384079, -0.05751800537109375, 1.4912109375, 1.44873046875, 0.102813720703125, 1.48974609375
13797, 0.2417355328798294, -1.8087564706802368, -0.6402333974838257, 0.19391068816184998, -0.030334189534187317, 0.9922862648963928, 0.3412626385688782, -0.052833858877420425, 0.14235982298851013, -0.48915988206863403, -0.856042206287384, 0.06905196607112885, -0.923392464452656, 0.7115084251415169, 0.7533334308002916, 9362.0, 30146.0, 35388.0, 9362.0, 8.17190170288086, -0.1059039756655693, -0.3374205529689789, 0.25498485565185547, -0.005726214963942766, -0.0002716776798479259, 0.9996262192726135, -0.0674692839384079, -0.05751800537109375, 1.4912109375, 1.44873046875, 0.102813720703125, 1.48974609375
13817, 0.24366328120231628, -1.8053849935531616, -0.6270236968994141, 0.20428748428821564, -0.03193935379385948, 0.9965552687644958, 0.35052838921546936, -0.0541766993701458, 0.1422112137079239, -0.48914822936058044, -0.8560053110122681, 0.06899228692054749, -0.8801054719304964, 0.7589028362848467, 0.7616004279793094, 9362.0, 30146.0, 35388.0, 9362.0, 8.17190170288086, 0.1324692666530609, -0.21794147789478302, 0.6717817187309265, -0.007302622776478529, -0.0019119386561214924, 0.9997308850288391, -0.06091354787349701, -0.11127853393554688, 1.48681640625, 1.44873046875, 0.102813720703125, 1.48974609375
13827, 0.2450859546661377, -1.8011822700500488, -0.618908166885376, 0.2078082263469696, -0.03248336911201477, 0.9979772567749023, 0.3536185622215271, -0.05462625250220299, 0.1421821266412735, -0.4891299903392792, -0.8559908866882324, 0.06900761276483536, -0.8951197155173455, 0.749670110068223, 0.766308027663388, 9362.0, 30146.0, 35388.0, 9362.0, 8.17190170288086, 0.1575288623571396, -0.48518994450569153, 0.3863030970096588, -0.005400449503213167, -0.003303499659523368, 0.999170184135437, -0.06091354787349701, -0.11127853393554688, 1.48681640625, 1.44873046875, 0.102813720703125, 1.48974609375
13837, 0.24691836535930634, -1.7953659296035767, -0.6114200949668884, 0.21135982871055603, -0.0330318845808506, 0.9993985295295715, 0.3567025363445282, -0.055076513439416885, 0.14207054674625397, -0.4891503155231476, -0.855989396572113, 0.0690239742398262, -0.8940471954315058, 0.7645906200890806, 0.7647822994705284, 9362.0, 30146.0, 35388.0, 9362.0, 8.17190170288086, 0.04584525153040886, -0.4530580937862396, 1.082749605178833, -0.005400449503213167, -0.003303499659523368, 0.999170184135437, -0.06091354787349701, -0.11127853393554688, 1.48681640625, 1.44873046875, 0.102813720703125, 1.48974609375
13847, 0.2484336793422699, -1.7897119522094727, -0.602544903755188, 0.21494224667549133, -0.03358491510152817, 1.0008190870285034, 0.35978183150291443, -0.05552910640835762, 0.14204061031341553, -0.4891584515571594, -0.8559855222702026, 0.06900368630886078, -0.8976324269154123, 0.7595689325807484, 0.7680553710455007, 9362.0, 30146.0, 35388.0, 9362.0, 8.17190170288086, 0.15809665620326996, -0.7882426381111145, 0.8298280835151672, -0.005400449503213167, -0.003303499659523368, 0.999170184135437, -0.06091354787349701, -0.11127853393554688, 1.48681640625, 1.44873046875, 0.102813720703125, 1.48974609375
