timeTick, roll, pitch, yaw, stateX, stateY, stateZ, stateVX, stateVY, stateVZ, otX0, otY0, otZ0, otRoll0, otPitch0, otYaw0, left wing, pitch motor, yaw motor, right wing, voltage, roll rate, pitch rate, yaw rate, A_x, A_y, A_z, current, i_raw, v_raw, airflow_voltage, airflow_speed, pot_Pitch
20832, -0.5321880578994751, 0.7549277544021606, 0.1668979525566101, 0, 0, 0, 0, 0, 0, -0.41968244314193726, -0.9234088659286499, 0.0676455870270729, -1.1585049281329953, 1.0361052568673585, 0.5312115264927053, 0, 0, 0, 0, 0, 0, 0, 0, 0, 0, 0, 0, 0, 0, 0, 0, 0
20842, -0.531491756439209, 0.7592310905456543, 0.16662326455116272, 3.048241705982946e-05, -2.138597847078927e-05, -2.0491890907287598, 0.0002272851561428979, -0.00016223936108872294, -0.21353304386138916, -0.4196760654449463, -0.9234183430671692, 0.06767676770687103, -1.1376049977093956, 1.0313706388409685, 0.5314279989693507, 9362.0, 30146.0, 35388.0, 9362.0, 8.152067184448242, 0.11622914671897888, -0.3347322344779968, -0.04237096384167671, 0.008018357679247856, -0.00977675523608923, 1.0016802549362183, -0.06504958868026733, -0.14711761474609375, 1.48388671875, 0, 0, 0
20852, -0.5317948460578918, 0.7604471445083618, 0.16575318574905396, 2.6272324248566292e-05, -1.846616214606911e-05, -2.051323890686035, -0.0010693073272705078, 0.0007462073117494583, -0.2134343534708023, -0.4196871221065521, -0.9234494566917419, 0.06764653325080872, -1.1362148016159255, 1.0391317686171249, 0.5366876898967917, 9362.0, 30146.0, 35388.0, 9362.0, 8.132232666015625, -0.08071265369653702, 0.1053512692451477, -0.0388144850730896, 0.00590287521481514, -0.008218547329306602, 0.9991211891174316, -0.053771551698446274, -0.11127853393554688, 1.48681640625, 1.59814453125, 0.4127655029296875, 1.494140625
20862, -0.5318663120269775, 0.7600952982902527, 0.1657424420118332, 9.061541277333163e-06, -6.469362233474385e-06, -2.0534579753875732, -0.002372837858274579, 0.0016531723085790873, -0.21336685121059418, -0.41968756914138794, -0.9234285950660706, 0.06765308231115341, -1.136822284834675, 1.037307862059066, 0.518204271542716, 9362.0, 30146.0, 35388.0, 9362.0, 8.132232666015625, 0.06182675063610077, -0.11211331188678741, -0.036603592336177826, 0.007129036355763674, -0.010851360857486725, 0.9974982142448425, -0.06837654113769531, -0.2187976837158203, 1.47802734375, 0.8115234375, 9.755844116210938, 1.4970703125
20872, -0.5315758585929871, 0.7605409622192383, 0.16575796902179718, -2.117089206876699e-05, 1.4583059055439662e-05, -2.0555930137634277, -0.0036736493930220604, 0.00255731213837862, -0.21366046369075775, -0.4197126626968384, -0.9234522581100464, 0.06764322519302368, -1.1297264820202293, 1.040823334523509, 0.5236876449483491, 9362.0, 30146.0, 35388.0, 9362.0, 8.132232666015625, 0.3540530800819397, -0.11549423635005951, -0.09313071519136429, 0.007615664042532444, -0.009175761602818966, 0.9993522763252258, -0.06437482684850693, 0.05000114440917969, 1.5, 1.58056640625, 0.3715972900390625, 1.49267578125
20882, -0.5303410887718201, 0.7626461982727051, 0.16491207480430603, -6.441758159780875e-05, 4.4683860323857516e-05, -2.0577304363250732, -0.004975689109414816, 0.0034628482535481453, -0.21381647884845734, -0.4197271466255188, -0.9234551787376404, 0.06771079450845718, -1.1266026641664293, 1.0382838614748948, 0.5364986836180458, 9362.0, 30146.0, 35388.0, 9362.0, 8.132232666015625, -0.08103849738836288, -0.2028837949037552, 0.1135190948843956, 0.009116279892623425, -0.0072324639186263084, 1.0022262334823608, -0.06753033399581909, -0.06647872924804688, 1.490478515625, 1.6435546875, 0.5228118896484375, 1.494873046875
20892, -0.5298578143119812, 0.7625203132629395, 0.16528545320034027, -0.00012070660886820406, 8.385012915823609e-05, -2.059868097305298, -0.006282109301537275, 0.004370422568172216, -0.21369975805282593, -0.41974732279777527, -0.9234716296195984, 0.06773056834936142, -1.1256107415549843, 1.0538145272361987, 0.5340225329506212, 9362.0, 30146.0, 35388.0, 9362.0, 8.132232666015625, 0.24390989542007446, -0.18047352135181427, -0.20098702609539032, 0.008382738567888737, -0.008930934593081474, 1.0011019706726074, -0.0855126902461052, -0.1291980743408203, 1.4853515625, 1.765869140625, 0.8588104248046875, 1.4970703125
20902, -0.5300785303115845, 0.7628106474876404, 0.16383381187915802, -0.0001900785428006202, 0.00013208211748860776, -2.062004566192627, -0.007592285051941872, 0.005275966599583626, -0.21357175707817078, -0.41974499821662903, -0.9234635233879089, 0.06771914660930634, -1.1375407240522728, 1.0683516056288624, 0.5447538343217168, 9362.0, 30146.0, 35388.0, 9362.0, 8.152067184448242, 0.04285591468214989, 0.046135835349559784, -0.09227226674556732, 0.009034628048539162, -0.01004928071051836, 1.0000883340835571, -0.09177417308092117, -0.19191741943359375, 1.480224609375, 0.394775390625, 55.537261962890625, 1.49560546875
20912, -0.5295358896255493, 0.7641066312789917, 0.1644546389579773, -0.0002725459635257721, 0.00018936177366413176, -2.0641400814056396, -0.008901175111532211, 0.006179996766149998, -0.21352189779281616, -0.419761598110199, -0.9234475493431091, 0.06773336231708527, -1.1306461387199378, 1.065169101468257, 0.5319638080671587, 9362.0, 30146.0, 35388.0, 9362.0, 8.152067184448242, 0.010009647347033024, -0.4467586576938629, 0.0811273381114006, 0.007306351326406002, -0.010044841095805168, 0.9993264675140381, -0.09469610452651978, -0.12023735046386719, 1.486083984375, 1.245849609375, 0.1771087646484375, 1.49560546875
20922, -0.5307835340499878, 0.7657899260520935, 0.1652379035949707, -0.0003681009402498603, 0.00025568119599483907, -2.0662753582000732, -0.010209828615188599, 0.007083873264491558, -0.21352814137935638, -0.41974344849586487, -0.9234537482261658, 0.06770871579647064, -1.1417625862067644, 1.0680440103548108, 0.5417708400390964, 9362.0, 30146.0, 35388.0, 9362.0, 8.152067184448242, 0.04767825827002525, -0.23899632692337036, 0.06401482224464417, 0.008058221079409122, -0.010264720767736435, 0.999376118183136, -0.08756833523511887, 0.023120880126953125, 1.497802734375, 1.469970703125, 0.1386566162109375, 1.491943359375
20932, -0.5302778482437134, 0.7685396671295166, 0.16322928667068481, -0.0004767471400555223, 0.0003310302272439003, -2.068411111831665, -0.011519422754645348, 0.007985912263393402, -0.21363034844398499, -0.4197683036327362, -0.9234587550163269, 0.0676882416009903, -1.1358980666392837, 1.0700545376247703, 0.5328239801481088, 9362.0, 30146.0, 35388.0, 9362.0, 8.132232666015625, -0.002602196764200926, -0.05552573502063751, 0.0036048174370080233, 0.007348727434873581, -0.009301556274294853, 0.9992390871047974, -0.08577878773212433, -0.2546367645263672, 1.47509765625, 0.737548828125, 14.183929443359375, 1.494873046875
20942, -0.5301781296730042, 0.7689036726951599, 0.16352497041225433, -0.0005985035677440464, 0.0004154100315645337, -2.0705480575561523, -0.012831825762987137, 0.008890093304216862, -0.2137359380722046, -0.41976049542427063, -0.923464834690094, 0.06770681589841843, -1.1416215807536727, 1.0686316400988005, 0.5354631714516402, 9362.0, 30146.0, 35388.0, 9362.0, 8.152067184448242, 0.050928469747304916, -0.24739056825637817, 0.12774908542633057, 0.007348536979407072, -0.009678514674305916, 0.9995473027229309, -0.08846165984869003, 0.05000114440917969, 1.5, 1.229736328125, 0.23822021484375, 1.49853515625
20952, -0.5300390720367432, 0.7688504457473755, 0.16386449337005615, -0.0007334075053222477, 0.0005088275647722185, -2.072685956954956, -0.01414896547794342, 0.009793408215045929, -0.2138395458459854, -0.4197782874107361, -0.9234579801559448, 0.06771407276391983, -1.1428799076153024, 1.0801669443115713, 0.5456672424250096, 9362.0, 30146.0, 35388.0, 9362.0, 8.132232666015625, -0.03631884604692459, 0.1997138112783432, 0.07300406694412231, 0.008363579399883747, -0.008870876394212246, 0.9989967346191406, -0.07341036200523376, 0.05896186828613281, 1.500732421875, 1.730712890625, 0.7531585693359375, 1.4912109375
20962, -0.5305910706520081, 0.7699089050292969, 0.16393287479877472, -0.0008814834291115403, 0.0006112756091170013, -2.0748250484466553, -0.01546622347086668, 0.01069619506597519, -0.21398088335990906, -0.41976824402809143, -0.9234520196914673, 0.06771019101142883, -1.14284781876853, 1.0747647300543122, 0.5474970846372789, 9362.0, 30146.0, 35388.0, 9362.0, 8.132232666015625, 0.025913067162036896, -0.5351846218109131, -0.11782045662403107, 0.009114377200603485, -0.006156971678137779, 1.000927448272705, -0.07334761321544647, -0.1291980743408203, 1.4853515625, 0.9755859375, 3.5675811767578125, 1.497802734375
20972, -0.5308064222335815, 0.7703881859779358, 0.16196519136428833, -0.0010427434463053942, 0.0007227584719657898, -2.0769646167755127, -0.016785776242613792, 0.011600375175476074, -0.21394497156143188, -0.41976916790008545, -0.9234402775764465, 0.06773971021175385, -1.1386105857734432, 1.0731901188884478, 0.5370489299562939, 9362.0, 30146.0, 35388.0, 9362.0, 8.152067184448242, -0.03631705045700073, 0.11568994075059891, -0.07648959755897522, 0.007212584372609854, -0.00912027433514595, 0.999640941619873, -0.08027181029319763, -0.030637741088867188, 1.493408203125, 1.53369140625, 0.265960693359375, 1.49560546875
20982, -0.5317202210426331, 0.7698979377746582, 0.16192734241485596, -0.0012172069400548935, 0.0008432870381511748, -2.079103946685791, -0.018106887117028236, 0.012505385093390942, -0.21392616629600525, -0.41977357864379883, -0.923464298248291, 0.06767210364341736, -1.1301182554847355, 1.0743444687080625, 0.5411659959767133, 9362.0, 30146.0, 35388.0, 9362.0, 8.152067184448242, -0.22197480499744415, -0.045627038925886154, -0.3003804087638855, 0.006518720183521509, -0.010696264915168285, 1.0008991956710815, -0.06462014466524124, 0.08584022521972656, 1.5029296875, 1.69921875, 0.665863037109375, 1.49267578125
20992, -0.5313469171524048, 0.769060492515564, 0.163798987865448, -0.0014048826415091753, 0.0009728658478707075, -2.0812432765960693, -0.01942826248705387, 0.013410383835434914, -0.21394819021224976, -0.41975513100624084, -0.9234811067581177, 0.06768068671226501, -1.1639686917884977, 1.065325331378034, 0.5213421965484291, 9362.0, 30146.0, 35388.0, 9362.0, 8.152067184448242, 0.10919858515262604, -0.19347265362739563, 0.11273660510778427, 0.006604835391044617, -0.011436374858021736, 1.0028623342514038, -0.06814083456993103, -0.31735801696777344, 1.469970703125, 1.814208984375, 1.0255279541015625, 1.48974609375
21002, -0.5320100784301758, 0.7713484764099121, 0.16505512595176697, -0.0016057814937084913, 0.0011115118395537138, -2.0833818912506104, -0.020751532167196274, 0.014318757690489292, -0.21376961469650269, -0.41975629329681396, -0.9234789609909058, 0.06760318577289581, -1.1248326393547787, 1.0447026391202598, 0.516205524192328, 9362.0, 30146.0, 35388.0, 9362.0, 8.152067184448242, -0.01681583561003208, -0.1759432554244995, 0.14423733949661255, 0.00912601687014103, -0.009637665003538132, 1.0005128383636475, -0.07044091820716858, -0.1291980743408203, 1.4853515625, 1.58056640625, 0.3715972900390625, 1.496337890625
21012, -0.5329310894012451, 0.7737683653831482, 0.16690970957279205, -0.001819905824959278, 0.0012592379935085773, -2.0855185985565186, -0.02207336388528347, 0.015226451680064201, -0.2135935127735138, -0.41974830627441406, -0.9234796166419983, 0.06764650344848633, -1.1279761888347986, 1.0457310815076823, 0.5129066067946555, 9362.0, 30146.0, 35388.0, 9362.0, 8.132232666015625, -0.04674242064356804, -0.23323801159858704, 0.22034701704978943, 0.006854462902992964, -0.00940910167992115, 1.0002237558364868, -0.06837909668684006, -0.03959846496582031, 1.49267578125, 0.554443359375, 31.244583129882812, 1.493408203125
21022, -0.5328890085220337, 0.7759392857551575, 0.16678890585899353, -0.0020472565665841103, 0.0014160387217998505, -2.0876545906066895, -0.023396838456392288, 0.016133643686771393, -0.21358850598335266, -0.41975048184394836, -0.9234736561775208, 0.06760925054550171, -1.1201988679860633, 1.0522600641685358, 0.5236258038530277, 9362.0, 30146.0, 35388.0, 9362.0, 8.152067184448242, -0.07394163310527802, -0.29669663310050964, -0.09838633984327316, 0.007205623667687178, -0.009371189400553703, 0.9995331764221191, -0.07107580453157425, -0.04855918884277344, 1.491943359375, 1.69189453125, 0.6463165283203125, 1.493408203125
21032, -0.5338614583015442, 0.7753394246101379, 0.16753257811069489, -0.0022878614254295826, 0.0015819178661331534, -2.0897905826568604, -0.024724137037992477, 0.017042186111211777, -0.21360667049884796, -0.4197269678115845, -0.9234991073608398, 0.06765040010213852, -1.1189301243451217, 1.0368534394831102, 0.5029712974211911, 9362.0, 30146.0, 35388.0, 9362.0, 8.152067184448242, -0.08467749506235123, -0.014143330045044422, -0.07782875746488571, 0.009462971240282059, -0.010360844433307648, 0.998603880405426, -0.06556354463100433, -0.19191741943359375, 1.480224609375, 0.794677734375, 10.660675048828125, 1.496337890625
21042, -0.5339667201042175, 0.7747092247009277, 0.16772906482219696, -0.0025417485740035772, 0.00175687565933913, -2.0919275283813477, -0.02605329640209675, 0.01794934831559658, -0.21376317739486694, -0.4196896553039551, -0.9235308766365051, 0.0675865113735199, -1.1232125164320372, 1.0527052369034493, 0.5647561368305095, 9362.0, 30146.0, 35388.0, 9362.0, 8.152067184448242, 0.19269979000091553, 0.002609743271023035, -0.057132720947265625, 0.007808805909007788, -0.010867428965866566, 1.0012487173080444, -0.07066264003515244, -0.20087814331054688, 1.4794921875, 0.891357421875, 6.1999664306640625, 1.4970703125
21052, -0.5334730744361877, 0.7750145196914673, 0.16939710080623627, -0.002808930352330208, 0.0019409188535064459, -2.0940654277801514, -0.027383066713809967, 0.01885928586125374, -0.21379968523979187, -0.4196668565273285, -0.9235352277755737, 0.0676119327545166, -1.11480442218041, 1.057289214069698, 0.582243625161071, 9362.0, 30146.0, 35388.0, 9362.0, 8.152067184448242, 0.030726078897714615, 0.16984789073467255, 0.10276255011558533, 0.006466223858296871, -0.010607151314616203, 1.0027387142181396, -0.05455535277724266, -0.09335899353027344, 1.48828125, 1.581298828125, 0.3732147216796875, 1.497802734375
21062, -0.533096194267273, 0.7754254341125488, 0.17009654641151428, -0.0030894246883690357, 0.0021340763196349144, -2.0962021350860596, -0.028715848922729492, 0.019772151485085487, -0.21353572607040405, -0.4196723401546478, -0.9235196709632874, 0.0675787702202797, -1.1089794920782046, 1.0419409591104056, 0.5702697174054495, 9362.0, 30146.0, 35388.0, 9362.0, 8.132232666015625, -0.08915340155363083, -0.1055683121085167, 0.3413655161857605, 0.0068448795937001705, -0.010533427819609642, 0.9988254904747009, -0.4007290005683899, -14.088817596435547, 0.34423828125, 1.845703125, 1.152557373046875, 1.494873046875
21072, -0.5337421894073486, 0.7776126265525818, 0.16912806034088135, -0.0033832350745797157, 0.0023363479413092136, -2.098337173461914, -0.030046259984374046, 0.02068217284977436, -0.21348623931407928, -0.41965171694755554, -0.9234980344772339, 0.06754263490438461, -1.1445311245400562, 1.0488341796605596, 0.5727382595805136, 9362.0, 30146.0, 35388.0, 9362.0, 8.152067184448242, 0.027932798489928246, -0.40674856305122375, -0.11894268542528152, 0.008084448985755444, -0.00891391932964325, 0.9991760849952698, -0.3243473172187805, -0.07543754577636719, 1.48974609375, 1.198974609375, 0.38958740234375, 1.49560546875
21092, -0.5345255732536316, 0.782037615776062, 0.17286618053913116, -0.0036903389263898134, 0.0025477067101746798, -2.100472927093506, -0.031374476850032806, 0.021589599549770355, -0.21364864706993103, -0.4196479022502899, -0.9234749674797058, 0.06755217909812927, -1.139946803934529, 1.0464303423714227, 0.5726710737943641, 9362.0, 30146.0, 35388.0, 9362.0, 8.132232666015625, -0.2185453176498413, -0.1195453405380249, 0.3035474717617035, 0.008674503304064274, -0.01036161184310913, 1.000666856765747, -0.26045680046081543, 0.05896186828613281, 1.500732421875, 1.224609375, 0.260162353515625, 1.4970703125
21112, -0.5352551341056824, 0.7805625796318054, 0.17655478417873383, -0.0036903389263898134, 0.0025477067101746798, -2.100472927093506, -0.031374476850032806, 0.021589599549770355, -0.21364864706993103, -0.41972389817237854, -0.9233484864234924, 0.0674789547920227, -1.1633946847555825, 1.0379025552575456, 0.6482694353884232, 9362.0, 30146.0, 35388.0, 9362.0, 8.152067184448242, -0.06407923996448517, 0.2606116533279419, 0.04050222039222717, 0.009166823700070381, -0.011191858910024166, 0.9977076649665833, -0.18377795815467834, 0.014162063598632812, 1.4970703125, 0.859130859375, 7.4976959228515625, 1.4970703125
21122, -0.534511387348175, 0.7783432006835938, 0.177859365940094, -0.005052355118095875, 0.003484174143522978, -2.1090140342712402, -0.03673125058412552, 0.025234587490558624, -0.21364830434322357, -0.41968077421188354, -0.9233341217041016, 0.06741742044687271, -1.2028861217224212, 1.0205386932462943, 0.6133053763207928, 9362.0, 30146.0, 35388.0, 9362.0, 8.132232666015625, -0.06407923996448517, 0.2606116533279419, 0.04050222039222717, 0.009557773359119892, -0.009275855496525764, 0.9990546703338623, -0.18377795815467834, 0.014162063598632812, 1.4970703125, 0.859130859375, 7.4976959228515625, 1.4970703125
21132, -0.5335541367530823, 0.7818849086761475, 0.17734657227993011, -0.005426357500255108, 0.0037410776130855083, -2.1111509799957275, -0.03806929290294647, 0.02614608407020569, -0.21374565362930298, -0.41968390345573425, -0.9233545064926147, 0.06741852313280106, -1.200508354660389, 1.0184141880874336, 0.6087147148344022, 9362.0, 30146.0, 35388.0, 9362.0, 8.132232666015625, -0.06407923996448517, 0.2606116533279419, 0.04050222039222717, 0.009609022177755833, -0.008084411732852459, 0.9960383176803589, -0.18377795815467834, 0.014162063598632812, 1.4970703125, 0.859130859375, 7.4976959228515625, 1.4970703125
21162, -0.534578263759613, 0.7807683348655701, 0.1782332956790924, -0.006214400753378868, 0.004282156936824322, -2.115432024002075, -0.04073828458786011, 0.02796124666929245, -0.21434220671653748, -0.41968226432800293, -0.9233219027519226, 0.0674109011888504, -1.217442297811282, 1.012366899033708, 0.6140039198122529, 9362.0, 30146.0, 35388.0, 9362.0, 8.152067184448242, 0.088908851146698, 0.25585395097732544, 0.04327766224741936, 0.009609022177755833, -0.008084411732852459, 0.9960383176803589, -0.22186580300331116, -0.1739978790283203, 1.481689453125, 0.83349609375, 8.6605224609375, 1.4970703125
21182, -0.5354503989219666, 0.7806922197341919, 0.18126899003982544, -0.007496795151382685, 0.005161887500435114, -2.1218719482421875, -0.04475320875644684, 0.030688121914863586, -0.21498191356658936, -0.4196491241455078, -0.9233500957489014, 0.06739973276853561, -1.218870717402141, 1.0550380405138355, 0.6781567688184555, 9362.0, 30146.0, 35388.0, 9362.0, 8.152067184448242, -0.14450523257255554, -0.12228405475616455, 0.02384653501212597, 0.00694042956456542, -0.011080221273005009, 1.0000174045562744, -0.1600336879491806, -0.23671722412109375, 1.4765625, 0.83349609375, 8.6605224609375, 1.4970703125
21192, -0.5360023379325867, 0.7824890613555908, 0.18389549851417542, -0.007496795151382685, 0.005161887500435114, -2.1218719482421875, -0.04475320875644684, 0.030688121914863586, -0.21498191356658936, -0.4196457862854004, -0.9233396053314209, 0.0674651488661766, -1.212767024834771, 1.064142096045316, 0.6530067012744044, 9362.0, 30146.0, 35388.0, 9362.0, 8.132232666015625, -0.14450523257255554, -0.12228405475616455, 0.02384653501212597, 0.00816474948078394, -0.010169816203415394, 1.0006006956100464, -0.1600336879491806, -0.23671722412109375, 1.4765625, 0.83349609375, 8.6605224609375, 1.4970703125
21222, -0.5354679822921753, 0.7766980528831482, 0.19803451001644135, -0.008418713696300983, 0.005793881136924028, -2.1261720657348633, -0.047437138855457306, 0.03251218795776367, -0.21498282253742218, -0.41973575949668884, -0.9233463406562805, 0.06752291321754456, -1.1762055022113775, 1.0036673671544065, 0.5619477739768992, 9362.0, 30146.0, 35388.0, 9362.0, 8.132232666015625, 0.2766401171684265, 0.16809484362602234, 0.2816716432571411, 0.00816474948078394, -0.010169816203415394, 1.0006006956100464, -0.10548410564661026, 0.0052013397216796875, 1.496337890625, 1.12353515625, 0.9957122802734375, 1.4970703125
21242, -0.5338642597198486, 0.7763258218765259, 0.20382119715213776, -0.010423234663903713, 0.007167357485741377, -2.134779453277588, -0.05277838185429573, 0.03615865483880043, -0.21559467911720276, -0.4197227358818054, -0.9233183860778809, 0.06755594164133072, -1.1887536846894051, 1.0184656223096908, 0.5700584780171347, 9362.0, 30146.0, 35388.0, 9362.0, 8.152067184448242, 0.2766401171684265, 0.16809484362602234, 0.2816716432571411, 0.008176923729479313, -0.009685403667390347, 1.00164794921875, -0.10548410564661026, 0.0052013397216796875, 1.496337890625, 1.12353515625, 0.9957122802734375, 1.494873046875
21282, -0.5343497395515442, 0.7720548510551453, 0.22226092219352722, -0.012641217559576035, 0.008686480112373829, -2.143399238586426, -0.05811542272567749, 0.03979511559009552, -0.21579746901988983, -0.41966894268989563, -0.9233893752098083, 0.06766140460968018, -1.1718429869299067, 1.0209944646308315, 0.5325963210790213, 9362.0, 30146.0, 35388.0, 9362.0, 8.132232666015625, 0.2766401171684265, 0.16809484362602234, 0.2816716432571411, 0.008675933815538883, -0.007658557966351509, 0.9999515414237976, -0.09189366549253464, -0.2546367645263672, 1.47509765625, 1.002685546875, 2.923919677734375, 1.494873046875
21292, -0.5341421365737915, 0.7696521282196045, 0.22745859622955322, -0.012641217559576035, 0.008686480112373829, -2.143399238586426, -0.05811542272567749, 0.03979511559009552, -0.21579746901988983, -0.4196763038635254, -0.9233865737915039, 0.06767462193965912, -1.157505712503648, 1.02506703508422, 0.537177268037396, 9362.0, 30146.0, 35388.0, 9362.0, 8.152067184448242, -0.15218816697597504, 0.027911141514778137, 0.3997479975223541, 0.008675933815538883, -0.007658557966351509, 0.9999515414237976, -0.09189366549253464, -0.2546367645263672, 1.47509765625, 1.002685546875, 2.923919677734375, 1.494873046875
21312, -0.5359730124473572, 0.7635005712509155, 0.23524650931358337, -0.014444427564740181, 0.009921254590153694, -2.1498756408691406, -0.062093738466501236, 0.04252389445900917, -0.21582433581352234, -0.4196871221065521, -0.9233691096305847, 0.06762255728244781, -1.137672290095694, 0.9946263734177023, 0.5055615872321965, 9362.0, 30146.0, 35388.0, 9362.0, 8.132232666015625, 0.017065104097127914, 0.13675221800804138, 0.2613424062728882, 0.006863669957965612, -0.011494969949126244, 0.9967127442359924, -0.09189366549253464, -0.2546367645263672, 1.47509765625, 1.190185546875, 0.441986083984375, 1.494873046875
21352, -0.5370273590087891, 0.756461501121521, 0.2569078803062439, -0.0170329250395298, 0.011695049703121185, -2.1585214138031006, -0.06732465326786041, 0.046173010021448135, -0.21605618298053741, -0.4195890724658966, -0.9234542846679688, 0.0677870437502861, -1.143941060838735, 0.9805271393540238, 0.4731391575204339, 9362.0, 30146.0, 35388.0, 9362.0, 8.152067184448242, 0.08306653052568436, 0.06526423990726471, 0.3513374924659729, 0.00802195817232132, -0.010463114827871323, 1.0022944211959839, -0.06471912562847137, -0.08439826965332031, 1.489013671875, 1.4619140625, 0.1246185302734375, 1.494873046875
21382, -0.5373067855834961, 0.7548730969429016, 0.2542516887187958, -0.019111255183815956, 0.013121437281370163, -2.164994239807129, -0.07122645527124405, 0.048915352672338486, -0.21572893857955933, -0.4195419251918793, -0.9234637022018433, 0.06777463108301163, -1.11408984035439, 1.0148845063548606, 0.48795265902960955, 9362.0, 30146.0, 35388.0, 9362.0, 8.152067184448242, 0.08306653052568436, 0.06526423990726471, 0.3513374924659729, 0.00860638078302145, -0.010561580769717693, 1.0011066198349, -0.06471912562847137, -0.08439826965332031, 1.489013671875, 0.933837890625, 4.7445220947265625, 1.494873046875
21442, -0.5394831299781799, 0.737832248210907, 0.19074854254722595, -0.019111255183815956, 0.013121437281370163, -2.164994239807129, -0.07122645527124405, 0.048915352672338486, -0.21572893857955933, -0.4196213185787201, -0.9235134720802307, 0.06782836467027664, -1.1053754770781783, 0.9979349266717463, 0.47826420384450075, 9362.0, 30146.0, 35388.0, 9362.0, 8.152067184448242, -0.01406027376651764, 0.6936652064323425, -1.0592721700668335, 0.006168758496642113, -0.008559896610677242, 0.9999602437019348, -0.06464650481939316, -0.11127853393554688, 1.48681640625, 1.212158203125, 0.3188018798828125, 1.494873046875
21462, -0.5385451316833496, 0.7345709204673767, 0.16849365830421448, -0.024414200335741043, 0.016769934445619583, -2.180068254470825, -0.08024431020021439, 0.055334385484457016, -0.21514928340911865, -0.419644296169281, -0.9235271215438843, 0.06782674789428711, -1.104938896318069, 1.0213271599514258, 0.4716590759111564, 9362.0, 30146.0, 35388.0, 9362.0, 8.152067184448242, -0.06454485654830933, -0.2769780457019806, -1.1489802598953247, 0.006168758496642113, -0.008559896610677242, 0.9999602437019348, -0.07487859576940536, -0.03959846496582031, 1.49267578125, 1.4384765625, 0.0871429443359375, 1.494873046875
21482, -0.5374021530151367, 0.7349765300750732, 0.15214544534683228, -0.02687835320830345, 0.018471281975507736, -2.1865267753601074, -0.08402731269598007, 0.05808762088418007, -0.21549181640148163, -0.4196612536907196, -0.923554539680481, 0.0678684189915657, -1.1037969785262676, 1.0257283016621557, 0.4696689521946164, 9362.0, 30146.0, 35388.0, 9362.0, 8.152067184448242, -0.06454485654830933, -0.2769780457019806, -1.1489802598953247, 0.003907343372702599, -0.007965566590428352, 0.9988309741020203, -0.07342416048049927, -0.10231781005859375, 1.487548828125, 1.4384765625, 0.0871429443359375, 1.494873046875
21512, -0.5298133492469788, 0.7496418356895447, 0.15104517340660095, -0.029455922544002533, 0.020255185663700104, -2.192993640899658, -0.08781598508358002, 0.06083688884973526, -0.2154935896396637, -0.41964080929756165, -0.9235477447509766, 0.06785011291503906, -1.1053804039647634, 1.023144098559527, 0.48236762411083933, 9362.0, 30146.0, 35388.0, 9362.0, 8.152067184448242, -0.06454485654830933, -0.2769780457019806, -1.1489802598953247, 0.007126482203602791, -0.009104601107537746, 0.9994486570358276, -0.0770871713757515, -0.05751800537109375, 1.4912109375, 0.941162109375, 4.5207672119140625, 1.494873046875
21522, -0.5290644764900208, 0.7556341290473938, 0.153971865773201, -0.029455922544002533, 0.020255185663700104, -2.192993640899658, -0.08781598508358002, 0.06083688884973526, -0.2154935896396637, -0.41969141364097595, -0.9235016107559204, 0.0677589625120163, -1.1315753588040383, 0.9995316434494441, 0.5064276610337154, 9362.0, 30146.0, 35388.0, 9362.0, 8.152067184448242, 0.18268582224845886, -0.506378710269928, 0.37331709265708923, 0.007126482203602791, -0.009104601107537746, 0.9994486570358276, -0.0770871713757515, -0.05751800537109375, 1.4912109375, 0.941162109375, 4.5207672119140625, 1.494873046875
21532, -0.5268879532814026, 0.7579972147941589, 0.16114221513271332, -0.031237810850143433, 0.021490074694156647, -2.1973042488098145, -0.0903761088848114, 0.062648244202137, -0.21566595137119293, -0.4196705222129822, -0.923498809337616, 0.06775300204753876, -1.1384115456457193, 0.9982504875966356, 0.49944618321913237, 9362.0, 30146.0, 35388.0, 9362.0, 8.152067184448242, 0.298893004655838, -0.4135904014110565, 0.962767481803894, 0.007126482203602791, -0.009104601107537746, 0.9994486570358276, -0.0770871713757515, -0.05751800537109375, 1.4912109375, 0.941162109375, 4.5207672119140625, 1.494873046875
21542, -0.5268763303756714, 0.759537398815155, 0.16608074307441711, -0.03214804083108902, 0.022121062502264977, -2.1994616985321045, -0.09167032688856125, 0.06354904174804688, -0.21583004295825958, -0.41966331005096436, -0.9234925508499146, 0.06768903881311417, -1.1343235275452288, 0.9638360051334587, 0.5310638745140752, 9362.0, 30146.0, 35388.0, 9362.0, 8.152067184448242, -0.0493362732231617, 0.10796527564525604, 0.43654122948646545, 0.007126482203602791, -0.009104601107537746, 0.9994486570358276, -0.07436605542898178, 0.10376167297363281, 1.50439453125, 0.941162109375, 4.5207672119140625, 1.494873046875
21552, -0.5283600091934204, 0.7609856724739075, 0.17112532258033752, -0.03214804083108902, 0.022121062502264977, -2.1994616985321045, -0.09167032688856125, 0.06354904174804688, -0.21583004295825958, -0.41966232657432556, -0.9234574437141418, 0.06768779456615448, -1.1461086691079605, 0.9603642446507479, 0.5179715589089838, 9362.0, 30146.0, 35388.0, 9362.0, 8.132232666015625, -0.0493362732231617, 0.10796527564525604, 0.43654122948646545, 0.010833021253347397, -0.006042028311640024, 1.0013484954833984, -0.07436605542898178, 0.10376167297363281, 1.50439453125, 0.941162109375, 4.5207672119140625, 1.494873046875
21652, -0.548647940158844, 0.7043010592460632, 0.15109777450561523, -0.04301435872912407, 0.029659785330295563, -2.223224401473999, -0.10572690516710281, 0.07359718531370163, -0.2165241688489914, -0.41962146759033203, -0.9233812093734741, 0.06762849539518356, -1.135089292094586, 0.9926807330107295, 0.5379765662395208, 9362.0, 30146.0, 35388.0, 9362.0, 8.152067184448242, 0.014461570419371128, 1.1509381532669067, -0.7064465284347534, 0.002823845250532031, -0.008734187111258507, 0.999582052230835, -0.07754547148942947, -0.07543754577636719, 1.48974609375, 0.84814453125, 7.9813385009765625, 1.494873046875
21662, -0.5475264191627502, 0.7039785981178284, 0.1401757299900055, -0.04407769441604614, 0.030400441959500313, -2.2253894805908203, -0.10693974047899246, 0.07453425228595734, -0.21650300920009613, -0.41964003443717957, -0.9233862161636353, 0.06763367354869843, -1.1378678180981479, 0.9967751280004506, 0.5308106765779382, 9362.0, 30146.0, 35388.0, 9362.0, 8.132232666015625, 0.014461570419371128, 1.1509381532669067, -0.7064465284347534, 0.002823845250532031, -0.008734187111258507, 0.999582052230835, -0.07754547148942947, -0.07543754577636719, 1.48974609375, 0.84814453125, 7.9813385009765625, 1.494873046875
21712, -0.53742516040802, 0.7261646389961243, 0.10820750892162323, -0.048451852053403854, 0.033456429839134216, -2.2340638637542725, -0.1117776483297348, 0.07825939357280731, -0.21707795560359955, -0.41963669657707214, -0.9233735203742981, 0.06755392998456955, -1.1371093600902455, 1.0644294515652462, 0.534699076819583, 9362.0, 30146.0, 35388.0, 9362.0, 8.152067184448242, 0.2430499792098999, -1.0006935596466064, -0.38684985041618347, 0.00493658659979701, -0.011361177079379559, 0.9988347291946411, -0.0924229696393013, 0.023120880126953125, 1.497802734375, 0.68701171875, 17.945816040039062, 1.494873046875
21762, -0.5287176370620728, 0.7667684555053711, 0.1249244436621666, -0.05538179352879524, 0.03831739351153374, -2.2470881938934326, -0.11929634213447571, 0.08374669402837753, -0.21723584830760956, -0.419691801071167, -0.9234150648117065, 0.0676150918006897, -1.1349367968135737, 1.038936744529451, 0.5181255546966159, 9362.0, 30146.0, 35388.0, 9362.0, 8.132232666015625, 0.15353910624980927, -0.6484560370445251, 0.8269246220588684, 0.00493658659979701, -0.011361177079379559, 0.9988347291946411, -0.06920522451400757, 0.023120880126953125, 1.497802734375, 1.63330078125, 0.49737548828125, 1.494873046875
21772, -0.5276376605033875, 0.7696245908737183, 0.1305423527956009, -0.05658126622438431, 0.0391593798995018, -2.249260425567627, -0.12059812247753143, 0.08465015888214111, -0.2172120362520218, -0.4196580648422241, -0.9233726859092712, 0.06761588156223297, -1.142304040831977, 1.0340312184972618, 0.5276792179354111, 9362.0, 30146.0, 35388.0, 9362.0, 8.152067184448242, 0.15353910624980927, -0.6484560370445251, 0.8269246220588684, 0.011478708125650883, -0.009299922734498978, 1.0006060600280762, -0.06920522451400757, 0.023120880126953125, 1.497802734375, 1.63330078125, 0.49737548828125, 1.494873046875
21792, -0.529299259185791, 0.7663052678108215, 0.14592725038528442, -0.05779382586479187, 0.040010396391153336, -2.251432180404663, -0.12191399186849594, 0.0855531319975853, -0.21714453399181366, -0.4196540117263794, -0.9233549237251282, 0.06756533682346344, -1.141844244136648, 1.0507085374377425, 0.5443741961052957, 9362.0, 30146.0, 35388.0, 9362.0, 8.152067184448242, -0.07554948329925537, 0.39824625849723816, 0.5232644081115723, 0.011478708125650883, -0.009299922734498978, 1.0006060600280762, -0.25004997849464417, -0.030637741088867188, 1.493408203125, 1.528564453125, 0.2548828125, 1.494873046875
21842, -0.5400300621986389, 0.7443189024925232, 0.16870060563087463, -0.06151051074266434, 0.04261750355362892, -2.2579505443573, -0.12586107850074768, 0.08825503289699554, -0.21745885908603668, -0.4195908308029175, -0.9233279228210449, 0.0675300881266594, -1.164356564299286, 1.026755671804409, 0.5360902334630022, 9362.0, 30146.0, 35388.0, 9362.0, 8.132232666015625, -0.3606460988521576, 0.6415950655937195, 0.43984454870224, 0.007911860942840576, -0.010994916781783104, 0.9996413588523865, -0.13278034329414368, 0.13064002990722656, 1.506591796875, 0.7880859375, 11.030685424804688, 1.494873046875
21852, -0.5427298545837402, 0.7395374774932861, 0.1692102700471878, -0.06151051074266434, 0.04261750355362892, -2.2579505443573, -0.12586107850074768, 0.08825503289699554, -0.21745885908603668, -0.41958698630332947, -0.9233539700508118, 0.06753851473331451, -1.1547216859613352, 1.0232181997584462, 0.5437882554568922, 9362.0, 30146.0, 35388.0, 9362.0, 8.132232666015625, -0.3606460988521576, 0.6415950655937195, 0.43984454870224, 0.006520071532577276, -0.011994194239377975, 0.9988499283790588, -0.13278034329414368, 0.13064002990722656, 1.506591796875, 0.7880859375, 11.030685424804688, 1.494873046875
21902, -0.5450729727745056, 0.7207913994789124, 0.1527324914932251, -0.0706382542848587, 0.04901868477463722, -2.2731876373291016, -0.1348571926355362, 0.09467001259326935, -0.21792222559452057, -0.4196224808692932, -0.923346757888794, 0.06751259416341782, -1.1648582846400666, 1.0465063568719586, 0.5375246264610478, 9362.0, 30146.0, 35388.0, 9362.0, 8.132232666015625, -0.08028262853622437, 0.7287996411323547, -0.17841149866580963, 0.0037908561062067747, -0.010973536409437656, 0.9999501705169678, -0.09243536740541458, -0.11127853393554688, 1.48681640625, 0.747802734375, 13.497177124023438, 1.494873046875
21942, -0.5381386876106262, 0.7403557896614075, 0.138105571269989, -0.0706382542848587, 0.04901868477463722, -2.2731876373291016, -0.1348571926355362, 0.09467001259326935, -0.21792222559452057, -0.41963446140289307, -0.9233466386795044, 0.06749510020017624, -1.1581104645241604, 1.0551937335677621, 0.5345582395311412, 9362.0, 30146.0, 35388.0, 9362.0, 8.152067184448242, -0.08028262853622437, 0.7287996411323547, -0.17841149866580963, 0.005697074346244335, -0.011271296069025993, 0.9978616833686829, -0.07028649002313614, 0.014162063598632812, 1.4970703125, 0.76025390625, 12.696121215820312, 1.494873046875
21952, -0.5374796390533447, 0.7475637197494507, 0.13580669462680817, -0.08038239181041718, 0.05587341636419296, -2.2884628772735596, -0.14356091618537903, 0.10116671770811081, -0.21874305605888367, -0.41962695121765137, -0.9233791828155518, 0.06749933212995529, -1.1461906489465266, 1.0510113132623644, 0.5429832705560814, 9362.0, 30146.0, 35388.0, 9362.0, 8.132232666015625, -0.08028262853622437, 0.7287996411323547, -0.17841149866580963, 0.006135039497166872, -0.009494773112237453, 0.9986279010772705, -0.07028649002313614, 0.014162063598632812, 1.4970703125, 0.76025390625, 12.696121215820312, 1.494873046875
21972, -0.5346872210502625, 0.7585713863372803, 0.134979248046875, -0.08327903598546982, 0.0579150915145874, -2.2928402423858643, -0.14611047506332397, 0.1030007153749466, -0.21893592178821564, -0.4196346700191498, -0.9233481884002686, 0.06751229614019394, -1.1564804473326795, 1.060232482413511, 0.5348967944129699, 9362.0, 30146.0, 35388.0, 9362.0, 8.132232666015625, -0.08028262853622437, 0.7287996411323547, -0.17841149866580963, 0.009305674582719803, -0.010932900942862034, 0.9983922243118286, -0.07735412567853928, -0.05751800537109375, 1.4912109375, 1.089111328125, 1.407745361328125, 1.494873046875
21982, -0.5338631868362427, 0.7659704685211182, 0.1352705955505371, -0.0847465917468071, 0.05894966796040535, -2.295029878616333, -0.1474008709192276, 0.10391473770141602, -0.21898551285266876, -0.41962701082229614, -0.9233631491661072, 0.0675048977136612, -1.141627402931011, 1.0503609231432165, 0.5391943479984087, 9362.0, 30146.0, 35388.0, 9362.0, 8.132232666015625, -0.08028262853622437, 0.7287996411323547, -0.17841149866580963, 0.009778143838047981, -0.011451352387666702, 0.999907374382019, -0.07735412567853928, -0.05751800537109375, 1.4912109375, 1.089111328125, 1.407745361328125, 1.494873046875
21992, -0.5327900648117065, 0.7711581587791443, 0.137709379196167, -0.0847465917468071, 0.05894966796040535, -2.295029878616333, -0.1474008709192276, 0.10391473770141602, -0.21898551285266876, -0.4196239113807678, -0.9233524799346924, 0.06753455847501755, -1.1509247767187605, 1.0471902184970077, 0.5433080895760516, 9362.0, 30146.0, 35388.0, 9362.0, 8.132232666015625, 0.17502492666244507, -0.5439622402191162, 0.29116904735565186, 0.009778143838047981, -0.011451352387666702, 0.999907374382019, -0.07735412567853928, -0.05751800537109375, 1.4912109375, 0.89208984375, 6.1724853515625, 1.494873046875
22042, -0.5365394353866577, 0.7708802819252014, 0.15460343658924103, -0.08922741562128067, 0.06210809946060181, -2.301602840423584, -0.15133534371852875, 0.10664533078670502, -0.21920447051525116, -0.41962242126464844, -0.9233547449111938, 0.06757929176092148, -1.1559180009362184, 1.0512463878146434, 0.5385178487613362, 9362.0, 30146.0, 35388.0, 9362.0, 8.152067184448242, -0.043519046157598495, 0.5045694708824158, 0.44395866990089417, 0.008123860694468021, -0.0075749545358121395, 0.9993574619293213, -0.06217152625322342, 0.0052013397216796875, 1.496337890625, 0.5947265625, 26.62506103515625, 1.494873046875
22062, -0.5396731495857239, 0.7614760994911194, 0.16359102725982666, -0.08922741562128067, 0.06210809946060181, -2.301602840423584, -0.15133534371852875, 0.10664533078670502, -0.21920447051525116, -0.41961729526519775, -0.9233619570732117, 0.0675402507185936, -1.1563797516406993, 1.0431097267448024, 0.5355353266771957, 9362.0, 30146.0, 35388.0, 9362.0, 8.132232666015625, -0.38234010338783264, 0.5234045386314392, 0.37303513288497925, 0.008123860694468021, -0.0075749545358121395, 0.9993574619293213, -0.06965959072113037, -0.03959846496582031, 1.49267578125, 0.802734375, 10.220703125, 1.494873046875
22082, -0.5427553057670593, 0.7510006427764893, 0.16849285364151, -0.100145623087883, 0.06979648023843765, -2.3169593811035156, -0.16058608889579773, 0.11303684115409851, -0.21954047679901123, -0.4196084141731262, -0.9233628511428833, 0.06758103519678116, -1.1546518452634422, 1.034228204359863, 0.5366763812143281, 9362.0, 30146.0, 35388.0, 9362.0, 8.132232666015625, -0.38234010338783264, 0.5234045386314392, 0.37303513288497925, 0.0068954043090343475, -0.00950519647449255, 0.9990304708480835, -0.06965959072113037, -0.03959846496582031, 1.49267578125, 0.802734375, 10.220703125, 1.494873046875
22092, -0.5448270440101624, 0.7450981736183167, 0.1714484840631485, -0.100145623087883, 0.06979648023843765, -2.3169593811035156, -0.16058608889579773, 0.11303684115409851, -0.21954047679901123, -0.4196068048477173, -0.923367440700531, 0.06759485602378845, -1.1549783045575313, 1.0331143205714568, 0.5396699608314922, 9362.0, 30146.0, 35388.0, 9362.0, 8.132232666015625, -0.38234010338783264, 0.5234045386314392, 0.37303513288497925, 0.0068954043090343475, -0.00950519647449255, 0.9990304708480835, -0.06965959072113037, -0.03959846496582031, 1.49267578125, 0.802734375, 10.220703125, 1.494873046875
22112, -0.5481831431388855, 0.7344561815261841, 0.1694810837507248, -0.10338320583105087, 0.07207567989826202, -2.321352243423462, -0.16316814720630646, 0.11488335579633713, -0.21977029740810394, -0.4196260869503021, -0.9233762621879578, 0.06755965948104858, -1.1502643597549622, 1.036287294228174, 0.5435011261968139, 9362.0, 30146.0, 35388.0, 9362.0, 8.152067184448242, -0.38234010338783264, 0.5234045386314392, 0.37303513288497925, 0.0045802295207977295, -0.011770110577344894, 1.0008127689361572, -0.06965959072113037, -0.03959846496582031, 1.49267578125, 0.52587890625, 34.85963439941406, 1.494873046875
22162, -0.5464434027671814, 0.7316088676452637, 0.1552359014749527, -0.10338320583105087, 0.07207567989826202, -2.321352243423462, -0.16316814720630646, 0.11488335579633713, -0.21977029740810394, -0.41963958740234375, -0.9234229326248169, 0.0675620287656784, -1.1274350052077196, 1.0436917814388664, 0.5427775847957452, 9362.0, 30146.0, 35388.0, 9362.0, 8.152067184448242, 0.23989886045455933, -0.20730488002300262, -0.15373381972312927, 0.0032441862858831882, -0.009920941665768623, 1.0003840923309326, -0.05070137232542038, -0.06647872924804688, 1.490478515625, 1.1513671875, 0.72857666015625, 1.494873046875
22172, -0.5441417694091797, 0.7356333136558533, 0.15232381224632263, -0.11511468142271042, 0.08034619688987732, -2.3367302417755127, -0.17197394371032715, 0.12142346054315567, -0.2200346738100052, -0.41964098811149597, -0.9233798384666443, 0.06758314371109009, -1.1477705106917326, 1.0516340589218487, 0.5321558788698294, 9362.0, 30146.0, 35388.0, 9362.0, 8.132232666015625, 0.23989886045455933, -0.20730488002300262, -0.15373381972312927, 0.006220759823918343, -0.011154294945299625, 1.0005239248275757, -0.05070137232542038, -0.06647872924804688, 1.490478515625, 1.1513671875, 0.72857666015625, 1.494873046875
22182, -0.5435796976089478, 0.7401135563850403, 0.14918731153011322, -0.11511468142271042, 0.08034619688987732, -2.3367302417755127, -0.17197394371032715, 0.12142346054315567, -0.2200346738100052, -0.4196380078792572, -0.9234251976013184, 0.06759508699178696, -1.1234454593982643, 1.0438419344573333, 0.5421467611540849, 9362.0, 30146.0, 35388.0, 9362.0, 8.132232666015625, 0.23989886045455933, -0.20730488002300262, -0.15373381972312927, 0.006220759823918343, -0.011154294945299625, 1.0005239248275757, -0.05683157965540886, 0.014162063598632812, 1.4970703125, 1.1513671875, 0.72857666015625, 1.494873046875
22192, -0.5416293740272522, 0.7447434067726135, 0.14710022509098053, -0.11511468142271042, 0.08034619688987732, -2.3367302417755127, -0.17197394371032715, 0.12142346054315567, -0.2200346738100052, -0.41962507367134094, -0.9234034419059753, 0.06759395450353622, -1.1347615634333517, 1.045016711538409, 0.5438641800774335, 9362.0, 30146.0, 35388.0, 9362.0, 8.132232666015625, 0.3353896141052246, -0.6349237561225891, -0.2479911744594574, 0.006220759823918343, -0.011154294945299625, 1.0005239248275757, -0.05683157965540886, 0.014162063598632812, 1.4970703125, 1.1513671875, 0.72857666015625, 1.494873046875
22202, -0.5388053059577942, 0.7467014193534851, 0.14475509524345398, -0.1203305721282959, 0.08403079211711884, -2.343329906463623, -0.17576172947883606, 0.12421255558729172, -0.2199627012014389, -0.4196239411830902, -0.9234016537666321, 0.06758866459131241, -1.132975030521515, 1.0408615482184302, 0.5391243748945602, 9362.0, 30146.0, 35388.0, 9362.0, 8.132232666015625, 0.3353896141052246, -0.6349237561225891, -0.2479911744594574, 0.006809430196881294, -0.008524082601070404, 1.0002496242523193, -0.05683157965540886, 0.014162063598632812, 1.4970703125, 1.1513671875, 0.72857666015625, 1.494873046875
22212, -0.5363098978996277, 0.7522577047348022, 0.14312127232551575, -0.12209457904100418, 0.08527754247188568, -2.345529079437256, -0.17704035341739655, 0.1251375526189804, -0.2198788970708847, -0.41964325308799744, -0.923380434513092, 0.06759751588106155, -1.139696561155778, 1.0525296309865269, 0.5369214328334336, 9362.0, 30146.0, 35388.0, 9362.0, 8.132232666015625, 0.3353896141052246, -0.6349237561225891, -0.2479911744594574, 0.008290749974548817, -0.011600624769926071, 0.9966820478439331, -0.05683157965540886, 0.014162063598632812, 1.4970703125, 1.1513671875, 0.72857666015625, 1.494873046875
22222, -0.5338389873504639, 0.755486249923706, 0.1406465470790863, -0.12387137860059738, 0.08653350919485092, -2.347728729248047, -0.17831911146640778, 0.1260555237531662, -0.22003798186779022, -0.4196332097053528, -0.9233866930007935, 0.06761772930622101, -1.1486026749361353, 1.0530300746876264, 0.537230922146103, 9362.0, 30146.0, 35388.0, 9362.0, 8.132232666015625, 0.3871689736843109, -0.3182010352611542, -0.05468561500310898, 0.008290749974548817, -0.011600624769926071, 0.9966820478439331, -0.05683157965540886, 0.014162063598632812, 1.4970703125, 1.1513671875, 0.72857666015625, 1.494873046875
22242, -0.5302414894104004, 0.758411705493927, 0.1435072422027588, -0.1256610006093979, 0.08779862523078918, -2.34993052482605, -0.17960575222969055, 0.126968115568161, -0.22031602263450623, -0.4196561276912689, -0.9234159588813782, 0.06761954724788666, -1.1505492597391749, 1.0085116676549148, 0.5231723366992332, 9362.0, 30146.0, 35388.0, 9362.0, 8.152067184448242, 0.15922954678535461, -0.05700799077749252, -0.03840721771121025, 0.010165663436055183, -0.0092820068821311, 1.0019335746765137, -0.06618525832891464, -0.1739978790283203, 1.481689453125, 0.615234375, 24.476531982421875, 1.494873046875
22252, -0.5293890833854675, 0.7583548426628113, 0.1444002240896225, -0.1256610006093979, 0.08779862523078918, -2.34993052482605, -0.17960575222969055, 0.126968115568161, -0.22031602263450623, -0.41964828968048096, -0.9234161376953125, 0.06761565059423447, -1.1513018140694653, 1.0107902601720298, 0.5301464644505619, 9362.0, 30146.0, 35388.0, 9362.0, 8.132232666015625, 0.23299765586853027, -0.28496381640434265, -0.2174147218465805, 0.010165663436055183, -0.0092820068821311, 1.0019335746765137, -0.06027426943182945, -0.13815879821777344, 1.484619140625, 0.615234375, 24.476531982421875, 1.494873046875
22312, -0.5347234010696411, 0.7417071461677551, 0.16184431314468384, -0.13110759854316711, 0.09164860844612122, -2.3565351963043213, -0.18350465595722198, 0.12969346344470978, -0.22001557052135468, -0.4196208119392395, -0.9234284162521362, 0.06762228906154633, -1.1485477791654612, 1.0021275979622715, 0.5381907777783519, 9362.0, 30146.0, 35388.0, 9362.0, 8.132232666015625, 0.21752460300922394, -0.14374323189258575, -0.003338922280818224, 0.008310794830322266, -0.010807481594383717, 1.000096082687378, -0.061417341232299805, 0.06792068481445312, 1.50146484375, 0.75439453125, 13.06866455078125, 1.494873046875
22322, -0.5357057452201843, 0.7372522354125977, 0.16358491778373718, -0.13110759854316711, 0.09164860844612122, -2.3565351963043213, -0.18350465595722198, 0.12969346344470978, -0.22001557052135468, -0.4196229577064514, -0.9234200119972229, 0.06762786209583282, -1.1520656669815723, 1.0057669069802841, 0.5394562467156553, 9362.0, 30146.0, 35388.0, 9362.0, 8.132232666015625, 0.21752460300922394, -0.14374323189258575, -0.003338922280818224, 0.008310794830322266, -0.010807481594383717, 1.000096082687378, -0.061417341232299805, 0.06792068481445312, 1.50146484375, 1.529296875, 0.2564849853515625, 1.494873046875
22352, -0.5407599806785583, 0.7304059863090515, 0.17013438045978546, -0.14814618229866028, 0.1036873385310173, -2.3763859272003174, -0.19505779445171356, 0.1378587782382965, -0.22092650830745697, -0.4196421504020691, -0.9234126806259155, 0.06763656437397003, -1.154912484008668, 1.0073709716141366, 0.5361278285160627, 9362.0, 30146.0, 35388.0, 9362.0, 8.132232666015625, -0.287982702255249, 0.1279861479997635, 0.24600934982299805, 0.00558254262432456, -0.009335995651781559, 0.999697744846344, -0.05927738919854164, -0.07543754577636719, 1.48974609375, 1.39599609375, 0.0362701416015625, 1.494873046875
22362, -0.5423159003257751, 0.7278087139129639, 0.1744278073310852, -0.15010306239128113, 0.10507052391767502, -2.3785946369171143, -0.19631744921207428, 0.138777956366539, -0.2208375781774521, -0.4196661114692688, -0.9234229326248169, 0.06760886311531067, -1.1457403260352599, 1.0253701599827991, 0.5364491684856378, 9362.0, 30146.0, 35388.0, 9362.0, 8.132232666015625, -0.04339790716767311, 0.305905282497406, 0.3619022071361542, 0.00558254262432456, -0.009335995651781559, 0.999697744846344, -0.05927738919854164, -0.07543754577636719, 1.48974609375, 1.39599609375, 0.0362701416015625, 1.494873046875
22422, -0.539064884185791, 0.7404612302780151, 0.17391498386859894, -0.16210690140724182, 0.11356353759765625, -2.3918561935424805, -0.2038116604089737, 0.14432458579540253, -0.2211751788854599, -0.41967639327049255, -0.9234161376953125, 0.06762677431106567, -1.1553001161354035, 1.0230017021769413, 0.5302465253297716, 9362.0, 30146.0, 35388.0, 9362.0, 8.132232666015625, 0.21186615526676178, -0.12624306976795197, 0.17035163938999176, 0.006210588850080967, -0.010790475644171238, 0.9976621866226196, -0.07433111220598221, -0.24567794799804688, 1.475830078125, 0.89501953125, 6.063446044921875, 1.494873046875
22432, -0.5362954139709473, 0.7441052198410034, 0.17179052531719208, -0.16415131092071533, 0.11501137912273407, -2.394069194793701, -0.20507167279720306, 0.14524424076080322, -0.2214348167181015, -0.41967082023620605, -0.9234086275100708, 0.0676162913441658, -1.1521211964874543, 1.0208293293451618, 0.5279768639193736, 9362.0, 30146.0, 35388.0, 9362.0, 8.132232666015625, 0.21186615526676178, -0.12624306976795197, 0.17035163938999176, 0.008033222518861294, -0.01073133759200573, 0.9992213249206543, -0.07433111220598221, -0.24567794799804688, 1.475830078125, 0.89501953125, 6.063446044921875, 1.494873046875
22452, -0.5313029289245605, 0.7447903752326965, 0.16861668229103088, -0.16415131092071533, 0.11501137912273407, -2.394069194793701, -0.20507167279720306, 0.14524424076080322, -0.2214348167181015, -0.419669508934021, -0.9234153628349304, 0.06763267517089844, -1.1473113453971575, 1.018377839669057, 0.5310897436381355, 9362.0, 30146.0, 35388.0, 9362.0, 8.132232666015625, 0.21186615526676178, -0.12624306976795197, 0.17035163938999176, 0.008837318047881126, -0.009469615295529366, 0.9994723796844482, -0.0681586042046547, -0.030637741088867188, 1.493408203125, 0.503173828125, 37.94578552246094, 1.494873046875
22472, -0.5257536768913269, 0.7502707242965698, 0.16246624290943146, -0.16415131092071533, 0.11501137912273407, -2.394069194793701, -0.20507167279720306, 0.14524424076080322, -0.2214348167181015, -0.41966837644577026, -0.9234156012535095, 0.06762947887182236, -1.151408290980389, 1.0149256274621052, 0.5295151718054488, 9362.0, 30146.0, 35388.0, 9362.0, 8.132232666015625, 0.282048761844635, -0.4449292719364166, -0.35618406534194946, 0.008554664440453053, -0.006065888796001673, 0.9992486238479614, -0.08802470564842224, -0.2187976837158203, 1.47802734375, 0.703857421875, 16.619888305664062, 1.494873046875
22482, -0.5247694849967957, 0.7506358027458191, 0.16144996881484985, -0.16415131092071533, 0.11501137912273407, -2.394069194793701, -0.20507167279720306, 0.14524424076080322, -0.2214348167181015, -0.4196629524230957, -0.9234365224838257, 0.06762281060218811, -1.1288308965731788, 1.016931319445547, 0.5338095262311288, 9362.0, 30146.0, 35388.0, 9362.0, 8.132232666015625, -0.0036583896726369858, 0.24319934844970703, 0.07904759794473648, 0.008554664440453053, -0.006065888796001673, 0.9992486238479614, -0.08802470564842224, -0.2187976837158203, 1.47802734375, 0.703857421875, 16.619888305664062, 1.494873046875
22492, -0.5231364965438843, 0.7482384443283081, 0.1603069007396698, -0.1766851842403412, 0.12389010936021805, -2.407372236251831, -0.21274083852767944, 0.15068861842155457, -0.22193582355976105, -0.41967177391052246, -0.923403799533844, 0.0676252469420433, -1.156144587933202, 1.0173704604270881, 0.5327856068288627, 9362.0, 30146.0, 35388.0, 9362.0, 8.132232666015625, 0.12160995602607727, 0.1410255879163742, -0.13633117079734802, 0.008554664440453053, -0.006065888796001673, 0.9992486238479614, -0.08802470564842224, -0.2187976837158203, 1.47802734375, 0.703857421875, 16.619888305664062, 1.494873046875
22502, -0.5229290723800659, 0.7498034238815308, 0.15814709663391113, -0.17881903052330017, 0.12540146708488464, -2.4095916748046875, -0.21402817964553833, 0.15158332884311676, -0.22196881473064423, -0.41964811086654663, -0.9234323501586914, 0.06763755530118942, -1.1414399170433243, 1.0058302875067113, 0.5353284666149819, 9362.0, 30146.0, 35388.0, 9362.0, 8.132232666015625, 0.12160995602607727, 0.1410255879163742, -0.13633117079734802, 0.008973449468612671, -0.011359025724232197, 0.9981318712234497, -0.08802470564842224, -0.2187976837158203, 1.47802734375, 0.703857421875, 16.619888305664062, 1.494873046875
22512, -0.5233088731765747, 0.7489171028137207, 0.15542493760585785, -0.18096572160720825, 0.12692175805568695, -2.4118118286132812, -0.2153104990720749, 0.15247464179992676, -0.22206968069076538, -0.4196529686450958, -0.9234081506729126, 0.06762072443962097, -1.1532198542830467, 1.0139982704249348, 0.5312223949694728, 9362.0, 30146.0, 35388.0, 9362.0, 8.132232666015625, 0.12160995602607727, 0.1410255879163742, -0.13633117079734802, 0.008945046924054623, -0.009402204304933548, 1.0004793405532837, -0.08802470564842224, -0.2187976837158203, 1.47802734375, 0.703857421875, 16.619888305664062, 1.494873046875
22542, -0.5263974666595459, 0.7419841289520264, 0.15653656423091888, -0.18312525749206543, 0.12845095992088318, -2.4140331745147705, -0.2165953814983368, 0.1533656269311905, -0.2221767008304596, -0.4196624755859375, -0.9233982563018799, 0.06762828677892685, -1.149064040212415, 1.0175289699523091, 0.528271482514997, 9362.0, 30146.0, 35388.0, 9362.0, 8.132232666015625, -0.09200530499219894, 0.0967516377568245, 0.06922847777605057, 0.007660521660000086, -0.008881354704499245, 0.9990192651748657, -0.08802470564842224, -0.2187976837158203, 1.47802734375, 0.791748046875, 10.824005126953125, 1.494873046875
22572, -0.5295765399932861, 0.7407523989677429, 0.15898685157299042, -0.19411508738994598, 0.13623099029064178, -2.4251487255096436, -0.22298306226730347, 0.15784193575382233, -0.22241370379924774, -0.41965818405151367, -0.9233998656272888, 0.06763400882482529, -1.1606366432869935, 1.0242994451579648, 0.5269677207474279, 9362.0, 30146.0, 35388.0, 9362.0, 8.132232666015625, -0.1024797335267067, 0.21536506712436676, 0.19096164405345917, 0.007660521660000086, -0.008881354704499245, 0.9990192651748657, -0.059243615716695786, -0.10231781005859375, 1.487548828125, 1.30810546875, 0.0388031005859375, 1.494873046875
22612, -0.5346270203590393, 0.7382009625434875, 0.1705089807510376, -0.2031359225511551, 0.14261680841445923, -2.434054374694824, -0.22805380821228027, 0.16145317256450653, -0.22304217517375946, -0.41965198516845703, -0.92341148853302, 0.0676117092370987, -1.1608825922697945, 1.0279943702068408, 0.53387209822524, 9362.0, 30146.0, 35388.0, 9362.0, 8.152067184448242, -0.015299673192203045, 0.4077704846858978, 0.5080612897872925, 0.006701603531837463, -0.012284853495657444, 0.999576210975647, -0.07350078970193863, -0.2187976837158203, 1.47802734375, 1.34033203125, 0.0166168212890625, 1.494873046875
22622, -0.5360946655273438, 0.7376970648765564, 0.173261821269989, -0.2031359225511551, 0.14261680841445923, -2.434054374694824, -0.22805380821228027, 0.16145317256450653, -0.22304217517375946, -0.41963624954223633, -0.9234313368797302, 0.06761046499013901, -1.1446978263400864, 1.0148140300294983, 0.5321230843365059, 9362.0, 30146.0, 35388.0, 9362.0, 8.132232666015625, -0.015299673192203045, 0.4077704846858978, 0.5080612897872925, 0.006701603531837463, -0.012284853495657444, 0.999576210975647, -0.07350078970193863, -0.2187976837158203, 1.47802734375, 1.34033203125, 0.0166168212890625, 1.494873046875
22642, -0.5353125333786011, 0.7451834082603455, 0.1734297126531601, -0.21003441512584686, 0.14750131964683533, -2.4407496452331543, -0.23184776306152344, 0.1641857773065567, -0.2232150435447693, -0.4196587800979614, -0.923422634601593, 0.06762145459651947, -1.1569437473472854, 1.0270467238253502, 0.531960883354864, 9362.0, 30146.0, 35388.0, 9362.0, 8.152067184448242, -0.015299673192203045, 0.4077704846858978, 0.5080612897872925, 0.006013654638081789, -0.010993272997438908, 0.9980571269989014, -0.07350078970193863, -0.2187976837158203, 1.47802734375, 1.34033203125, 0.0166168212890625, 1.494873046875
22672, -0.5325871109962463, 0.7532089352607727, 0.17471440136432648, -0.21469680964946747, 0.15080326795578003, -2.4452168941497803, -0.2343938946723938, 0.16600793600082397, -0.22355465590953827, -0.41968071460723877, -0.9234465956687927, 0.06761964410543442, -1.1444842076064252, 1.0302948785286503, 0.535967458237742, 9362.0, 30146.0, 35388.0, 9362.0, 8.152067184448242, -0.015299673192203045, 0.4077704846858978, 0.5080612897872925, 0.008421152830123901, -0.010572543367743492, 1.0007438659667969, -0.04799175634980202, -0.07543754577636719, 1.48974609375, 0.73095703125, 14.63861083984375, 1.494873046875
22692, -0.5282329320907593, 0.7561419010162354, 0.17449676990509033, -0.2217865139245987, 0.15582449734210968, -2.451922655105591, -0.23825883865356445, 0.16873840987682343, -0.2235071063041687, -0.4196716845035553, -0.9234185814857483, 0.06762441247701645, -1.1548849094103368, 1.0341881133476534, 0.5343646210355718, 9362.0, 30146.0, 35388.0, 9362.0, 8.132232666015625, 0.14416173100471497, -0.003057569032534957, -0.22643370926380157, 0.008421152830123901, -0.010572543367743492, 1.0007438659667969, -0.04799175634980202, -0.07543754577636719, 1.48974609375, 0.73095703125, 14.63861083984375, 1.494873046875
22702, -0.5275448560714722, 0.7591075897216797, 0.17467422783374786, -0.2241755723953247, 0.15751639008522034, -2.454158067703247, -0.23955196142196655, 0.16964122653007507, -0.2235947996377945, -0.41965451836586, -0.9234302639961243, 0.06763317435979843, -1.1409736493856444, 1.0126879456100824, 0.5331350762981695, 9362.0, 30146.0, 35388.0, 9362.0, 8.132232666015625, 0.14416173100471497, -0.003057569032534957, -0.22643370926380157, 0.00790491234511137, -0.009303907863795757, 0.9994823932647705, -0.04799175634980202, -0.07543754577636719, 1.48974609375, 0.73095703125, 14.63861083984375, 1.494873046875
22722, -0.5245036482810974, 0.7645168900489807, 0.1694907248020172, -0.2241755723953247, 0.15751639008522034, -2.454158067703247, -0.23955196142196655, 0.16964122653007507, -0.2235947996377945, -0.4196667969226837, -0.9234232902526855, 0.06762144714593887, -1.152165941944634, 1.0208628384587826, 0.5325448941744428, 9362.0, 30146.0, 35388.0, 9362.0, 8.132232666015625, 0.03710388019680977, -0.20381154119968414, -0.47912779450416565, 0.00790491234511137, -0.009303907863795757, 0.9994823932647705, -0.07812415063381195, -0.03959846496582031, 1.49267578125, 1.311767578125, 0.0348052978515625, 1.494873046875
22742, -0.5239412188529968, 0.7670396566390991, 0.16531206667423248, -0.23386168479919434, 0.16437393426895142, -2.463106870651245, -0.24476441740989685, 0.17322935163974762, -0.22392389178276062, -0.41964948177337646, -0.9234291315078735, 0.06761631369590759, -1.1573487838618142, 1.0180835140007503, 0.5394254572648862, 9362.0, 30146.0, 35388.0, 9362.0, 8.132232666015625, -0.04743395373225212, -0.2331494390964508, -0.41750195622444153, 0.01022036001086235, -0.00882994569838047, 0.9991084337234497, -0.07812415063381195, -0.03959846496582031, 1.49267578125, 1.311767578125, 0.0348052978515625, 1.494873046875
22772, -0.5236438512802124, 0.7641188502311707, 0.15931983292102814, -0.23878324031829834, 0.1678563803434372, -2.46758770942688, -0.24739207327365875, 0.1750151365995407, -0.22413422167301178, -0.4196701943874359, -0.9234130382537842, 0.06760261952877045, -1.1594626187669264, 1.0318359732283398, 0.535981947451308, 9362.0, 30146.0, 35388.0, 9362.0, 8.152067184448242, 0.16316565871238708, 0.3485604524612427, -0.2806936800479889, 0.007163753267377615, -0.009168227203190327, 0.9994757175445557, -0.07827450335025787, -0.10231781005859375, 1.487548828125, 0.990234375, 3.2086029052734375, 1.494873046875
