timeTick, roll, pitch, yaw, stateX, stateY, stateZ, stateVX, stateVY, stateVZ, otX0, otY0, otZ0, otRoll0, otPitch0, otYaw0, left wing, pitch motor, yaw motor, right wing, voltage, roll rate, pitch rate, yaw rate, A_x, A_y, A_z, current, i_raw, v_raw, airflow_voltage, airflow_speed, pot_Pitch
22716, -3.390397787094116, 3.1578128337860107, 6.525515079498291, 0, 0, 0, 0, 0, 0, -0.8523985147476196, -0.9927709102630615, 0.0720081552863121, 0.48107820464589207, -1.4576492959480163, -3.4271033817111256, 0, 0, 0, 0, 0, 0, 0, 0, 0, 0, 0, 0, 0, 0, 0, 0, 0
22726, -3.390404224395752, 3.1582674980163574, 6.525166988372803, 0.000146593083627522, -0.00012556725414469838, -2.2943835258483887, 0.0013235253281891346, -0.0011372303124517202, -0.21774780750274658, -0.8523886799812317, -0.9927767515182495, 0.072013258934021, 0.4996396487161905, -1.4590493565418399, -3.429399708044604, 9362.0, 30146.0, 35388.0, 9362.0, 8.17190170288086, 0.23147165775299072, -0.047410983592271805, -0.08477230370044708, -0.04009679704904556, 0.02421915903687477, 0.9988819360733032, -0.05952809378504753, -0.08439826965332031, 1.489013671875, 0, 0, 0
22736, -3.388892650604248, 3.1589667797088623, 6.5241594314575195, 0.00012976913421880454, -0.00011121862917207181, -2.296563148498535, -0.0046882289461791515, 0.004007065203040838, -0.2181943655014038, -0.8523897528648376, -0.9927542209625244, 0.07199757546186447, 0.4825558593470332, -1.4488606179382941, -3.4305348942564207, 9362.0, 30146.0, 35388.0, 9362.0, 8.17190170288086, -0.14993056654930115, -0.1516035795211792, -0.1278504580259323, -0.04146129637956619, 0.023365292698144913, 0.9990297555923462, -0.06262516975402832, -0.08439826965332031, 1.489013671875, 1.339599609375, 0.0168914794921875, 1.494873046875
22746, -3.3890185356140137, 3.1595427989959717, 6.523139476776123, 5.280273762764409e-05, -4.542219539871439e-05, -2.2987470626831055, -0.010705017484724522, 0.009152241051197052, -0.21857336163520813, -0.8523808717727661, -0.9927907586097717, 0.07201112061738968, 0.49828478514079677, -1.4639560834627332, -3.426971850385773, 9362.0, 30146.0, 35388.0, 9362.0, 8.17190170288086, 0.08979429304599762, 0.14630736410617828, -0.0677565336227417, -0.03999513015151024, 0.023999450728297234, 0.998045027256012, -0.059271857142448425, -0.03959846496582031, 1.49267578125, 1.49853515625, 0.1927032470703125, 1.48828125
22756, -3.3890185356140137, 3.1595427989959717, 6.523139476776123, -8.429364970652387e-05, 7.179384556366131e-05, -2.3009355068206787, -0.016714196652173996, 0.014291059225797653, -0.2191077619791031, -0.8523749709129333, -0.9927882552146912, 0.07202988862991333, 0.5070491393088961, -1.4733622066135297, -3.422819009761784, 9362.0, 30146.0, 35388.0, 9362.0, 8.17190170288086, 0.1672852784395218, -0.3870601952075958, -0.027913514524698257, -0.037305328994989395, 0.024510148912668228, 0.998090386390686, -0.060873422771692276, 0.05896186828613281, 1.500732421875, 0.779296875, 11.538360595703125, 1.494873046875
22766, -3.3879752159118652, 3.1611814498901367, 6.523918151855469, -0.0002814772888086736, 0.00024039106210693717, -2.303129196166992, -0.022722581401467323, 0.019428305327892303, -0.2196393460035324, -0.8523775339126587, -0.9927725195884705, 0.07201918959617615, 0.5027007781537299, -1.468423719527209, -3.433956326543852, 9362.0, 30146.0, 35388.0, 9362.0, 8.17190170288086, 0.030691470950841904, 0.015117641538381577, -0.3638373017311096, -0.04025483503937721, 0.023158909752964973, 0.9987770318984985, -0.0647389218211174, -0.07543754577636719, 1.48974609375, 1.04296875, 2.123138427734375, 1.493408203125
22776, -3.387678623199463, 3.1601669788360596, 6.522412300109863, -0.0005387820419855416, 0.0004603704437613487, -2.305327892303467, -0.028738245368003845, 0.024567736312747, -0.22009269893169403, -0.8524009585380554, -0.9927555322647095, 0.07200588285923004, 0.4839366570203674, -1.4531756809398075, -3.4277733643296666, 9362.0, 30146.0, 35388.0, 9362.0, 8.17190170288086, 0.2665688693523407, 0.25735005736351013, -0.023716049268841743, -0.0407266691327095, 0.02316543273627758, 0.9982574582099915, -0.062449488788843155, -0.22775840759277344, 1.477294921875, 0.7734375, 11.886093139648438, 1.494873046875
22786, -3.3862085342407227, 3.1579511165618896, 6.521461009979248, -0.0008562174625694752, 0.0007317293784581125, -2.3075313568115234, -0.03474877402186394, 0.029704149812459946, -0.22059909999370575, -0.8524001240730286, -0.992754340171814, 0.07200191169977188, 0.48475189190885565, -1.457740492240788, -3.425298325063641, 9362.0, 30146.0, 35388.0, 9362.0, 8.17190170288086, 0.0033265287056565285, 0.2833845019340515, -0.10169386118650436, -0.039231132715940475, 0.02280890755355358, 0.9996713399887085, -0.06095166131854057, -0.021678924560546875, 1.494140625, 1.360107421875, 0.0162506103515625, 1.494140625
22796, -3.386737823486328, 3.154945135116577, 6.52130651473999, -0.0012337776133790612, 0.001054476830177009, -2.309739112854004, -0.040763258934020996, 0.034845348447561264, -0.22097527980804443, -0.8523275256156921, -0.9925245046615601, 0.07164309173822403, 0.6464004649472148, -1.509150569706776, -3.290611790273406, 9362.0, 30146.0, 35388.0, 9362.0, 8.17190170288086, 0.18827131390571594, -0.24119219183921814, 0.14797773957252502, -0.03854513168334961, 0.021771864965558052, 0.998160183429718, -0.06124188378453255, -0.08439826965332031, 1.489013671875, 0.815185546875, 9.566726684570312, 1.493408203125
22806, -3.38674259185791, 3.1555354595184326, 6.523742198944092, -0.001671436126343906, 0.0014286254299804568, -2.311951160430908, -0.046768661588430405, 0.039984121918678284, -0.22142113745212555, -0.8523240685462952, -0.992519736289978, 0.07165799289941788, 0.644047526473654, -1.5151843774673068, -3.2942099049601477, 9362.0, 30146.0, 35388.0, 9362.0, 8.17190170288086, 0.02451477199792862, 0.03177962452173233, -0.21140319108963013, -0.03925811126828194, 0.024715611711144447, 0.9992142915725708, -0.05695692449808121, -0.04855918884277344, 1.491943359375, 0.81591796875, 9.52923583984375, 1.493408203125
22816, -3.3876290321350098, 3.1548430919647217, 6.524367332458496, -0.002169143408536911, 0.0018541503231972456, -2.3141677379608154, -0.052772875875234604, 0.04512077942490578, -0.22190366685390472, -0.8524323105812073, -0.9927580952644348, 0.07204294204711914, 0.4694901085785472, -1.4247019529978218, -3.4359183190633273, 9362.0, 30146.0, 35388.0, 9362.0, 8.17190170288086, 0.12667928636074066, -0.027001624926924706, -0.13966801762580872, -0.03905528411269188, 0.02317723259329796, 0.9991633296012878, -0.05469841882586479, 0.08584022521972656, 1.5029296875, 1.435546875, 0.0829315185546875, 1.491943359375
22826, -3.386324644088745, 3.155611991882324, 6.5232625007629395, -0.002726911334320903, 0.0023310696706175804, -2.3163888454437256, -0.05878061801195145, 0.0502631776034832, -0.2223106175661087, -0.852453351020813, -0.9927771091461182, 0.0720473900437355, 0.45864819441584426, -1.4345111414548342, -3.435914643610528, 9362.0, 30146.0, 35388.0, 9362.0, 8.17190170288086, -0.1530063897371292, 0.1690460443496704, -0.14590902626514435, -0.03846316784620285, 0.023699751123785973, 0.9983214139938354, -0.04364157095551491, 0.023120880126953125, 1.497802734375, 1.748291015625, 0.8047332763671875, 1.494873046875
22836, -3.386575222015381, 3.1538820266723633, 6.522266387939453, -0.0033447532914578915, 0.002859394531697035, -2.3186140060424805, -0.06478767096996307, 0.05540187656879425, -0.22274461388587952, -0.8524598479270935, -0.9927771091461182, 0.07203978300094604, 0.45991404327654417, -1.4331368046941577, -3.440630809328815, 9362.0, 30146.0, 35388.0, 9362.0, 8.17190170288086, -0.33616992831230164, -0.4141366183757782, 0.23288509249687195, -0.0404144786298275, 0.02472379058599472, 1.0011024475097656, -0.04809354245662689, -0.10231781005859375, 1.487548828125, 1.443603515625, 0.0948486328125, 1.49267578125
22846, -3.3888373374938965, 3.156217336654663, 6.52448034286499, -0.004022702109068632, 0.003439154475927353, -2.320842742919922, -0.07080226391553879, 0.06054989621043205, -0.22301216423511505, -0.8524552583694458, -0.9927787780761719, 0.07204874604940414, 0.4613085834567686, -1.4338102330699485, -3.432458848727599, 9362.0, 30146.0, 35388.0, 9362.0, 8.17190170288086, 0.22357745468616486, 0.20795601606369019, -0.0960661992430687, -0.04258947819471359, 0.022801700979471207, 0.999157726764679, -0.047943711280822754, -0.030637741088867188, 1.493408203125, 1.512451171875, 0.2209625244140625, 1.494140625
22856, -3.38761305809021, 3.154301881790161, 6.524657249450684, -0.00476079573854804, 0.00407039001584053, -2.3230745792388916, -0.07681646943092346, 0.06569714099168777, -0.2233581393957138, -0.852370023727417, -0.9925596714019775, 0.07163522392511368, 0.619882770589225, -1.5051056714778497, -3.29743016091649, 9362.0, 30146.0, 35388.0, 9362.0, 8.17190170288086, 0.09209822118282318, 0.056543756276369095, 0.017157461494207382, -0.04099859669804573, 0.022101709619164467, 0.9995364546775818, -0.041267674416303635, -0.04855918884277344, 1.491943359375, 1.484619140625, 0.1656646728515625, 1.497802734375
22866, -3.3877124786376953, 3.1547632217407227, 6.525868892669678, -0.005559007171541452, 0.00475308345630765, -2.325309991836548, -0.08282595872879028, 0.07084142416715622, -0.22372548282146454, -0.852367103099823, -0.9925562739372253, 0.07164037227630615, 0.629989453966032, -1.5178589841374333, -3.2922201099509785, 9362.0, 30146.0, 35388.0, 9362.0, 8.17190170288086, -0.16054299473762512, 0.2429952174425125, 0.009821517392992973, -0.039405085146427155, 0.02248610183596611, 0.997769296169281, -0.04215453565120697, -0.23671722412109375, 1.4765625, 1.692626953125, 0.648193359375, 1.489013671875
22876, -3.3879234790802, 3.1535887718200684, 6.524466037750244, -0.006417278200387955, 0.005487184971570969, -2.327549695968628, -0.08882810920476913, 0.07597904652357101, -0.22422349452972412, -0.8523831963539124, -0.9925526976585388, 0.07163117080926895, 0.6279827331540732, -1.5202675933154808, -3.298174214455342, 9362.0, 30146.0, 35388.0, 9362.0, 8.17190170288086, -0.14999064803123474, 0.12283381819725037, -0.02803921140730381, -0.04065616428852081, 0.02264614962041378, 0.9974564909934998, -0.04062952473759651, -0.20087814331054688, 1.4794921875, 1.399658203125, 0.0396575927734375, 1.490478515625
22886, -3.3887205123901367, 3.152141571044922, 6.524204254150391, -0.007335539907217026, 0.006272649392485619, -2.3297946453094482, -0.09482423961162567, 0.08111383765935898, -0.2247871607542038, -0.8523620367050171, -0.9925711154937744, 0.0716000497341156, 0.6100179693231127, -1.5005518808308693, -3.298752221314729, 9362.0, 30146.0, 35388.0, 9362.0, 8.17190170288086, 0.19320055842399597, 0.06293745338916779, -0.14352299273014069, -0.04061977192759514, 0.021833306178450584, 0.9977779388427734, -0.03931810334324837, 0.16648101806640625, 1.509521484375, 0.882568359375, 6.5365447998046875, 1.493408203125
22896, -3.386824607849121, 3.151500701904297, 6.5227885246276855, -0.008313754573464394, 0.007109472993761301, -2.332045316696167, -0.1008186787366867, 0.08625102043151855, -0.22533854842185974, -0.8523752093315125, -0.9925620555877686, 0.07162272930145264, 0.6209328179233822, -1.5068609104575046, -3.29970307184709, 9362.0, 30146.0, 35388.0, 9362.0, 8.17190170288086, 0.017976511269807816, 0.037547767162323, -0.03513253852725029, -0.039460767060518265, 0.022624759003520012, 0.9999666810035706, -0.041728630661964417, -0.13815879821777344, 1.484619140625, 1.61572265625, 0.45465087890625, 1.49267578125
22906, -3.3867597579956055, 3.1515939235687256, 6.522883892059326, -0.009351953864097595, 0.007997694425284863, -2.3343007564544678, -0.10682112723588943, 0.09139320999383926, -0.22573651373386383, -0.8523718118667603, -0.9925651550292969, 0.07163568586111069, 0.6214743499443303, -1.5072487200503417, -3.2907393659658997, 9362.0, 30146.0, 35388.0, 9362.0, 8.17190170288086, -0.11724822968244553, 0.2825643718242645, 0.06712594628334045, -0.04061197489500046, 0.025194033980369568, 1.0010948181152344, -0.04838467016816139, -0.030637741088867188, 1.493408203125, 1.56298828125, 0.3311767578125, 1.49560546875
22916, -3.386719226837158, 3.150111436843872, 6.5226969718933105, -0.010450239293277264, 0.008937389589846134, -2.3365590572357178, -0.11283601075410843, 0.09654582291841507, -0.22593383491039276, -0.8523932099342346, -0.992563009262085, 0.0716513842344284, 0.6354763890155167, -1.5177191627067543, -3.288276284279339, 9362.0, 30146.0, 35388.0, 9362.0, 8.17190170288086, -0.1852242350578308, -0.25438928604125977, -0.16174300014972687, -0.03906938433647156, 0.02504638396203518, 0.9994727373123169, -0.05637971684336662, -0.06647872924804688, 1.490478515625, 1.005615234375, 2.859588623046875, 1.4912109375
22926, -3.387441635131836, 3.153254747390747, 6.520504474639893, -0.011608625762164593, 0.009928581304848194, -2.338819980621338, -0.11884104460477829, 0.1016928032040596, -0.2262471467256546, -0.8523794412612915, -0.9925551414489746, 0.0716470405459404, 0.6334526543025906, -1.5202748303683222, -3.3021305765735005, 9362.0, 30146.0, 35388.0, 9362.0, 8.17190170288086, 0.06980998814105988, -0.12407529354095459, 0.11325743049383163, -0.03991934657096863, 0.02304553985595703, 0.998654842376709, -0.05457107722759247, 0.08584022521972656, 1.5029296875, 1.56298828125, 0.3311767578125, 1.494873046875
22936, -3.387136459350586, 3.1538069248199463, 6.521282196044922, -0.012827053666114807, 0.01097121648490429, -2.3410844802856445, -0.1248444989323616, 0.10683421045541763, -0.22667630016803741, -0.85235595703125, -0.9925568699836731, 0.0716441422700882, 0.6424186117854038, -1.524722446260455, -3.3249720884406018, 9362.0, 30146.0, 35388.0, 9362.0, 8.17190170288086, 0.17281870543956757, 0.11346646398305893, -0.1745588630437851, -0.040538303554058075, 0.024949464946985245, 0.9972184896469116, -0.05073196068406105, -0.07543754577636719, 1.48974609375, 1.5322265625, 0.2628021240234375, 1.490478515625
22946, -3.385580539703369, 3.1516776084899902, 6.520650386810303, -0.014105478301644325, 0.012065226212143898, -2.3433539867401123, -0.13084043562412262, 0.11196789890527725, -0.22724153101444244, -0.852374792098999, -0.9925558567047119, 0.07165161520242691, 0.628832618722902, -1.5188369704889055, -3.2947461665783577, 9362.0, 30146.0, 35388.0, 9362.0, 8.17190170288086, -0.05263391137123108, 0.23392868041992188, -0.022733082994818687, -0.04050040617585182, 0.022766683250665665, 0.9984080791473389, -0.05331523343920708, 0.023120880126953125, 1.497802734375, 1.24658203125, 0.1746063232421875, 1.490478515625
22956, -3.3860671520233154, 3.148479700088501, 6.521580696105957, -0.015443852171301842, 0.013210570439696312, -2.3456289768218994, -0.13683439791202545, 0.11710081994533539, -0.22777673602104187, -0.8524290323257446, -0.9928136467933655, 0.07201230525970459, 0.4887342351171407, -1.4781667524102602, -3.450593742343007, 9362.0, 30146.0, 35388.0, 9362.0, 8.17190170288086, -0.06688670814037323, -0.07421550154685974, -0.040602199733257294, -0.04002044349908829, 0.021671077236533165, 0.998115062713623, -0.050491463392972946, -0.2187976837158203, 1.47802734375, 1.57177734375, 0.3512115478515625, 1.494140625
22966, -3.3876960277557373, 3.1488921642303467, 6.522439002990723, -0.016842152923345566, 0.014407262206077576, -2.3479092121124268, -0.14282582700252533, 0.12223745137453079, -0.22826747596263885, -0.8524375557899475, -0.9928074479103088, 0.0720004290342331, 0.4939019988400852, -1.4804576092730315, -3.450484819827066, 9362.0, 30146.0, 35388.0, 9362.0, 8.17190170288086, 0.10462406277656555, -0.37089991569519043, -0.24529962241649628, -0.0396965816617012, 0.024857021868228912, 0.9982422590255737, -0.04457934945821762, 0.15752029418945312, 1.5087890625, 1.723388671875, 0.7321929931640625, 1.4912109375
22976, -3.387354850769043, 3.1503658294677734, 6.520548343658447, -0.018300384283065796, 0.015655342489480972, -2.350194215774536, -0.14882029592990875, 0.12737885117530823, -0.22872234880924225, -0.8524777889251709, -0.9928547739982605, 0.07199063152074814, 0.4518654853181054, -1.4799413647706103, -3.473564033606879, 9362.0, 30146.0, 35388.0, 9362.0, 8.17190170288086, -0.08414068073034286, 0.0863632783293724, 0.18555602431297302, -0.03817673772573471, 0.023175280541181564, 1.0001095533370972, -0.05227497220039368, -0.23671722412109375, 1.4765625, 0.649658203125, 21.1595458984375, 1.49267578125
22986, -3.3886194229125977, 3.1488895416259766, 6.520720481872559, -0.01981860212981701, 0.016954859718680382, -2.3524832725524902, -0.15482337772846222, 0.13252466917037964, -0.22907672822475433, -0.8524889945983887, -0.9928540587425232, 0.07195299863815308, 0.46257945479861884, -1.4884535582345393, -3.460560847194082, 9362.0, 30146.0, 35388.0, 9362.0, 8.17190170288086, 0.09748850762844086, 0.10884083062410355, -0.05474860966205597, -0.03921796754002571, 0.02160419523715973, 0.997424840927124, -0.04363170638680458, 0.023120880126953125, 1.497802734375, 0.7822265625, 11.3673095703125, 1.494140625
22996, -3.387895107269287, 3.1477959156036377, 6.519760608673096, -0.021396789699792862, 0.018305804580450058, -2.354776620864868, -0.16081397235393524, 0.1376643031835556, -0.2295965850353241, -0.8524752259254456, -0.9928620457649231, 0.07196934521198273, 0.466067531582191, -1.49069619728823, -3.468995978240294, 9362.0, 30146.0, 35388.0, 9362.0, 8.17190170288086, 0.07696457952260971, -0.018996775150299072, 0.22920376062393188, -0.041308045387268066, 0.022674815729260445, 0.9966716766357422, -0.05343637242913246, -0.20087814331054688, 1.4794921875, 1.640625, 0.5154571533203125, 1.4912109375
23006, -3.388369083404541, 3.147761583328247, 6.519395351409912, -0.02303484082221985, 0.019708113744854927, -2.3570756912231445, -0.16679617762565613, 0.1427973359823227, -0.23022091388702393, -0.8524277806282043, -0.9928116202354431, 0.07198374718427658, 0.49064600681184506, -1.4774894376227792, -3.4517450352995445, 9362.0, 30146.0, 35388.0, 9362.0, 8.17190170288086, -0.16066193580627441, 0.10058113187551498, 0.005956701934337616, -0.041308045387268066, 0.022674815729260445, 0.9966716766357422, -0.05343637242913246, -0.20087814331054688, 1.4794921875, 1.529296875, 0.2564849853515625, 1.49267578125
23026, -3.3894193172454834, 3.1479599475860596, 6.520123481750488, -0.024732720106840134, 0.021161753684282303, -2.3593809604644775, -0.17277953028678894, 0.1479308158159256, -0.23083864152431488, -0.8524261713027954, -0.9928184747695923, 0.07196982204914093, 0.492023980411921, -1.4769464586427148, -3.4525887289410067, 9362.0, 30146.0, 35388.0, 9362.0, 8.17190170288086, 0.1436886042356491, -0.18123167753219604, -0.2806573808193207, -0.040976639837026596, 0.021831145510077477, 0.9989206790924072, -0.06198384240269661, 0.06792068481445312, 1.50146484375, 1.529296875, 0.2564849853515625, 1.4970703125
23056, -3.38765025138855, 3.1484949588775635, 6.524382591247559, -0.03212393820285797, 0.027490943670272827, -2.3686416149139404, -0.19678477942943573, 0.1685284674167633, -0.23216526210308075, -0.8524238467216492, -0.9928139448165894, 0.07198294997215271, 0.49073200461064503, -1.4744513985882008, -3.4441800635376363, 9362.0, 30146.0, 35388.0, 9362.0, 8.17190170288086, 0.012001320719718933, 0.03404305502772331, 0.2920518219470978, -0.04080629348754883, 0.023295249789953232, 0.9979459643363953, -0.06309822201728821, -0.030637741088867188, 1.493408203125, 1.402587890625, 0.0425262451171875, 1.494873046875
23076, -3.387030839920044, 3.1467230319976807, 6.526649475097656, -0.03617946058511734, 0.030964292585849762, -2.3732948303222656, -0.20877103507518768, 0.17881104350090027, -0.23305535316467285, -0.8524326682090759, -0.9928138852119446, 0.07196888327598572, 0.4868427561190433, -1.471673829142702, -3.4455827645605126, 9362.0, 30146.0, 35388.0, 9362.0, 8.17190170288086, 0.12330049276351929, -0.4405331015586853, -0.03572355955839157, -0.04080629348754883, 0.023295249789953232, 0.9979459643363953, -0.07053200900554657, -0.1291980743408203, 1.4853515625, 1.402587890625, 0.0425262451171875, 1.489013671875
23096, -3.3865108489990234, 3.150642156600952, 6.5283355712890625, -0.0382971353828907, 0.03277811035513878, -2.3756275177001953, -0.214763805270195, 0.18395227193832397, -0.23348599672317505, -0.8524460196495056, -0.9928104877471924, 0.07197798788547516, 0.48680999274597897, -1.482218060658596, -3.454075576497354, 9362.0, 30146.0, 35388.0, 9362.0, 8.17190170288086, -0.021069100126624107, -0.06689507514238358, 0.18364326655864716, -0.04049912095069885, 0.025003019720315933, 0.9983685612678528, -0.058187562972307205, -0.09335899353027344, 1.48828125, 1.402587890625, 0.0425262451171875, 1.494873046875
23136, -3.389331817626953, 3.147491216659546, 6.533510684967041, -0.047367654740810394, 0.04054738208651543, -2.3850011825561523, -0.23876571655273438, 0.20451408624649048, -0.23516036570072174, -0.8524129390716553, -0.992838978767395, 0.0719652771949768, 0.508956036614896, -1.4882636641130205, -3.456831028126723, 9362.0, 30146.0, 35388.0, 9362.0, 8.17190170288086, 0.12492329627275467, 0.2914026379585266, 0.35940781235694885, -0.03828584402799606, 0.023624420166015625, 0.9978868365287781, -0.06042696163058281, -0.030637741088867188, 1.493408203125, 1.402587890625, 0.0425262451171875, 1.493408203125
23156, -3.3886666297912598, 3.1425533294677734, 6.534914016723633, -0.054800115525722504, 0.04691401496529579, -2.392080307006836, -0.2567174732685089, 0.21992066502571106, -0.2369355857372284, -0.852423369884491, -0.9927741289138794, 0.07200337946414948, 0.48956543478097586, -1.4609695504396427, -3.4415735934932714, 9362.0, 30146.0, 35388.0, 9362.0, 8.17190170288086, 0.2103431075811386, 0.0458621047437191, -0.1720573604106903, -0.03828584402799606, 0.023624420166015625, 0.9978868365287781, -0.056998711079359055, -0.04855918884277344, 1.491943359375, 1.594482421875, 0.4041595458984375, 1.493408203125
23166, -3.3883469104766846, 3.142038583755493, 6.534817695617676, -0.057397160679101944, 0.049138884991407394, -2.3944528102874756, -0.26269128918647766, 0.22505365312099457, -0.23757515847682953, -0.8523679971694946, -0.9927990436553955, 0.07196391373872757, 0.5141307424988952, -1.4760988932571593, -3.436336351880278, 9362.0, 30146.0, 35388.0, 9362.0, 8.17190170288086, -0.0631227120757103, 0.006308647338300943, 0.031159942969679832, -0.03828584402799606, 0.023624420166015625, 0.9978868365287781, -0.05674191564321518, -0.06647872924804688, 1.490478515625, 1.594482421875, 0.4041595458984375, 1.493408203125
23176, -3.388841390609741, 3.1415553092956543, 6.535173416137695, -0.057397160679101944, 0.049138884991407394, -2.3944528102874756, -0.26269128918647766, 0.22505365312099457, -0.23757515847682953, -0.8523911833763123, -0.9927676916122437, 0.07200493663549423, 0.5080597068328285, -1.4620187806987985, -3.422072264955244, 9362.0, 30146.0, 35388.0, 9362.0, 8.17190170288086, -0.059396181255578995, -0.025348037481307983, 0.5447425842285156, -0.03919094428420067, 0.020454445853829384, 0.9977858066558838, -0.05674191564321518, -0.06647872924804688, 1.490478515625, 1.594482421875, 0.4041595458984375, 1.493408203125
23196, -3.3885786533355713, 3.139254093170166, 6.538941383361816, -0.06554687023162842, 0.05612165480852127, -2.4016053676605225, -0.2806190252304077, 0.2404642254114151, -0.2392800748348236, -0.8524088859558105, -0.9928117990493774, 0.0720333606004715, 0.5116916265383943, -1.4717394776597814, -3.433419296204253, 9362.0, 30146.0, 35388.0, 9362.0, 8.17190170288086, 0.025379952043294907, -0.017419056966900826, -0.1943780481815338, -0.03870978206396103, 0.02241355925798416, 0.9975038170814514, -0.03813134506344795, -0.030637741088867188, 1.493408203125, 1.594482421875, 0.4041595458984375, 1.49267578125
23226, -3.3874824047088623, 3.1369476318359375, 6.545109272003174, -0.07127870619297028, 0.06103365868330002, -2.406402349472046, -0.29256653785705566, 0.25073540210723877, -0.24041318893432617, -0.8523146510124207, -0.9925289750099182, 0.07165076583623886, 0.6365640515902576, -1.5254863850962295, -3.28789807352076, 9362.0, 30146.0, 35388.0, 9362.0, 8.17190170288086, -0.2761364281177521, 0.45830342173576355, 0.2865505516529083, -0.040227171033620834, 0.022534698247909546, 0.9991140365600586, -0.05641290545463562, 0.023120880126953125, 1.497802734375, 1.594482421875, 0.4041595458984375, 1.496337890625
23256, -3.3862040042877197, 3.1349222660064697, 6.545439720153809, -0.0834600180387497, 0.07147494703531265, -2.4160449504852295, -0.3164912164211273, 0.27132028341293335, -0.2418523132801056, -0.8522888422012329, -0.9925339818000793, 0.07163093984127045, 0.649985531632323, -1.5355000902968357, -3.276962849105464, 9362.0, 30146.0, 35388.0, 9362.0, 8.17190170288086, -0.06012025475502014, -0.2159046083688736, 0.0753292664885521, -0.039761561900377274, 0.02224014699459076, 0.998429000377655, -0.051312122493982315, -0.021678924560546875, 1.494140625, 1.594482421875, 0.4041595458984375, 1.4970703125
23266, -3.3860223293304443, 3.136934280395508, 6.545042037963867, -0.08665478974580765, 0.07421384006738663, -2.4184658527374268, -0.3224628269672394, 0.2764583230018616, -0.2423245757818222, -0.8522809147834778, -0.9925320148468018, 0.07163021713495255, 0.6537331401792055, -1.5426099428008229, -3.2771766569522587, 9362.0, 30146.0, 35388.0, 9362.0, 8.17190170288086, 0.0991789922118187, -0.18516652286052704, 0.24399574100971222, -0.04139428585767746, 0.024545729160308838, 0.9971520900726318, -0.06337150186300278, -0.01271820068359375, 1.494873046875, 1.594482421875, 0.4041595458984375, 1.4970703125
23276, -3.3857288360595703, 3.1384541988372803, 6.546396255493164, -0.08665478974580765, 0.07421384006738663, -2.4184658527374268, -0.3224628269672394, 0.2764583230018616, -0.2423245757818222, -0.8524054884910583, -0.9927515387535095, 0.07197338342666626, 0.4856111780592364, -1.4775156593442773, -3.436637802434312, 9362.0, 30146.0, 35388.0, 9362.0, 8.17190170288086, -0.09448115527629852, -0.06811407208442688, 0.024758465588092804, -0.03927288576960564, 0.025113545358181, 0.9974285960197449, -0.0558677613735199, 0.05896186828613281, 1.500732421875, 1.594482421875, 0.4041595458984375, 1.4970703125
23286, -3.385591506958008, 3.140322208404541, 6.5452561378479, -0.0932234600186348, 0.07984565943479538, -2.423323392868042, -0.33440420031547546, 0.2867225110530853, -0.2434510439634323, -0.8524320125579834, -0.9927157759666443, 0.07191716879606247, 0.4923647220186154, -1.5074980551747785, -3.394480333191604, 9362.0, 30146.0, 35388.0, 9362.0, 8.17190170288086, 0.07978077232837677, -0.15414460003376007, -0.02702978067100048, -0.03992613032460213, 0.02326103113591671, 0.9980793595314026, -0.041923508048057556, 0.15752029418945312, 1.5087890625, 1.594482421875, 0.4041595458984375, 1.493408203125
23296, -3.3853302001953125, 3.1416659355163574, 6.5444722175598145, -0.09659738838672638, 0.08273854851722717, -2.425760507583618, -0.34038177132606506, 0.29185599088668823, -0.24397186934947968, -0.8524324297904968, -0.9926899075508118, 0.07188577204942703, 0.497647959666298, -1.5124432018172342, -3.392903748943155, 9362.0, 30146.0, 35388.0, 9362.0, 8.17190170288086, -0.029490910470485687, 0.1872415691614151, -0.2817469537258148, -0.03992613032460213, 0.02326103113591671, 0.9980793595314026, -0.03529677912592888, -0.04855918884277344, 1.491943359375, 1.594482421875, 0.4041595458984375, 1.496337890625
23306, -3.3846487998962402, 3.1409332752227783, 6.542176723480225, -0.10003109276294708, 0.08568276464939117, -2.4282031059265137, -0.3463592231273651, 0.29698705673217773, -0.24452872574329376, -0.8524388670921326, -0.9927048683166504, 0.07187016308307648, 0.4986912667467453, -1.50981970209574, -3.4031805192351117, 9362.0, 30146.0, 35388.0, 9362.0, 8.17190170288086, -0.029490910470485687, 0.1872415691614151, -0.2817469537258148, -0.03948243707418442, 0.021858518943190575, 1.000232458114624, -0.045179251581430435, -0.07543754577636719, 1.48974609375, 0.898681640625, 5.929046630859375, 1.496337890625
23336, -3.387488603591919, 3.1405067443847656, 6.536459445953369, -0.1035246029496193, 0.08867832273244858, -2.430650472640991, -0.35234296321868896, 0.3021240830421448, -0.2449578046798706, -0.8524293303489685, -0.9927082061767578, 0.07186862081289291, 0.5022638026711865, -1.502553778217532, -3.3955951383655627, 9362.0, 30146.0, 35388.0, 9362.0, 8.17190170288086, -0.27428194880485535, -0.3509669601917267, -0.21092601120471954, -0.03712756559252739, 0.022572316229343414, 0.9966663122177124, -0.03962341696023941, -0.03959846496582031, 1.49267578125, 0.898681640625, 5.929046630859375, 1.49560546875
23376, -3.3845536708831787, 3.1397576332092285, 6.534389019012451, -0.1218893826007843, 0.10442683100700378, -2.442955255508423, -0.3822300136089325, 0.32780787348747253, -0.24743160605430603, -0.8524385690689087, -0.9927273392677307, 0.07193751633167267, 0.49755449420442355, -1.5006797065436501, -3.405692124447052, 9362.0, 30146.0, 35388.0, 9362.0, 8.17190170288086, 0.03209661319851875, -0.21879783272743225, -0.3297508656978607, -0.039094727486371994, 0.023561282083392143, 0.9983651041984558, -0.042687494307756424, -0.06647872924804688, 1.490478515625, 0.898681640625, 5.929046630859375, 1.497802734375
23406, -3.38348388671875, 3.141584873199463, 6.532578945159912, -0.12965334951877594, 0.11108556389808655, -2.4479165077209473, -0.3941643238067627, 0.3380623161792755, -0.24872688949108124, -0.8524121046066284, -0.9927162528038025, 0.07196135073900223, 0.49946685287989473, -1.4915157430611714, -3.3887927606039243, 9362.0, 30146.0, 35388.0, 9362.0, 8.17190170288086, -0.04596824571490288, 0.04368216171860695, -0.07411231845617294, -0.04235687479376793, 0.02322222664952278, 1.0003337860107422, -0.055777281522750854, -0.06647872924804688, 1.490478515625, 0.898681640625, 5.929046630859375, 1.48974609375
23426, -3.382471799850464, 3.143065929412842, 6.533332347869873, -0.1458984613418579, 0.12501883506774902, -2.4579014778137207, -0.4181063771247864, 0.35861098766326904, -0.2503111660480499, -0.8523933291435242, -0.9927757382392883, 0.07203108072280884, 0.4836811869254568, -1.4695565042328838, -3.4207676418735384, 9362.0, 30146.0, 35388.0, 9362.0, 8.17190170288086, 0.17167596518993378, -0.024404510855674744, 0.005948171950876713, -0.04008304700255394, 0.023588206619024277, 0.9992114901542664, -0.04624272137880325, 0.06792068481445312, 1.50146484375, 0.898681640625, 5.929046630859375, 1.48974609375
23436, -3.380735397338867, 3.1404154300689697, 6.5328192710876465, -0.1458984613418579, 0.12501883506774902, -2.4579014778137207, -0.4181063771247864, 0.35861098766326904, -0.2503111660480499, -0.8523820042610168, -0.9927661418914795, 0.07204075157642365, 0.49444189989436244, -1.463137598402625, -3.425647857014473, 9362.0, 30146.0, 35388.0, 9362.0, 8.17190170288086, 0.17167596518993378, -0.024404510855674744, 0.005948171950876713, -0.03876298666000366, 0.023479877039790154, 0.9990310668945312, -0.04624272137880325, 0.06792068481445312, 1.50146484375, 0.898681640625, 5.929046630859375, 1.48974609375
23456, -3.379723310470581, 3.137481212615967, 6.529850006103516, -0.1543801873922348, 0.13229362666606903, -2.4629180431365967, -0.4300643801689148, 0.3688681423664093, -0.25132277607917786, -0.8523771166801453, -0.9927656054496765, 0.072043277323246, 0.4966402371485495, -1.4613031613193357, -3.429408799859821, 9362.0, 30146.0, 35388.0, 9362.0, 8.17190170288086, 0.2600516080856323, 0.05228403955698013, 0.05342038348317146, -0.03819988667964935, 0.02338370867073536, 0.9982273578643799, -0.06767718493938446, -0.12023735046386719, 1.486083984375, 0.898681640625, 5.929046630859375, 1.490478515625
23466, -3.379026174545288, 3.1366140842437744, 6.530574798583984, -0.1543801873922348, 0.13229362666606903, -2.4629180431365967, -0.4300643801689148, 0.3688681423664093, -0.25132277607917786, -0.8523658514022827, -0.9927581548690796, 0.07204866409301758, 0.49380712742735516, -1.461947710714611, -3.430479382134847, 9362.0, 30146.0, 35388.0, 9362.0, 8.17190170288086, 0.2600516080856323, 0.05228403955698013, 0.05342038348317146, -0.03819988667964935, 0.02338370867073536, 0.9982273578643799, -0.06875742971897125, -0.030637741088867188, 1.493408203125, 0.898681640625, 5.929046630859375, 1.490478515625
23486, -3.380188465118408, 3.12990403175354, 6.530303955078125, -0.16755110025405884, 0.14359036087989807, -2.4704792499542236, -0.44798749685287476, 0.38424527645111084, -0.25280529260635376, -0.8523523807525635, -0.9927738904953003, 0.07204248011112213, 0.5082613055681271, -1.4699223318885402, -3.4337497795328997, 9362.0, 30146.0, 35388.0, 9362.0, 8.17190170288086, 0.05252053588628769, 0.3536190092563629, 0.07682380080223083, -0.04197933152318001, 0.023441653698682785, 0.997671902179718, -0.06950326263904572, -0.01271820068359375, 1.494873046875, 0.898681640625, 5.929046630859375, 1.4970703125
23496, -3.380897045135498, 3.1274425983428955, 6.530812740325928, -0.17663007974624634, 0.15137778222560883, -2.4755465984344482, -0.4599091112613678, 0.3944993317127228, -0.25387513637542725, -0.8523760437965393, -0.9927541613578796, 0.07204625755548477, 0.48706415048645696, -1.455623052127379, -3.4137585483281216, 9362.0, 30146.0, 35388.0, 9362.0, 8.17190170288086, 0.05252053588628769, 0.3536190092563629, 0.07682380080223083, -0.04197933152318001, 0.023441653698682785, 0.997671902179718, -0.0775170549750328, -0.24567794799804688, 1.475830078125, 0.898681640625, 5.929046630859375, 1.4970703125
23506, -3.3806536197662354, 3.1262588500976562, 6.533551216125488, -0.18125896155834198, 0.15534843504428864, -2.4780876636505127, -0.46586644649505615, 0.39963141083717346, -0.2543383538722992, -0.8523725867271423, -0.9927546381950378, 0.07203789800405502, 0.4906760865189482, -1.4505999165589571, -3.4266751847470664, 9362.0, 30146.0, 35388.0, 9362.0, 8.17190170288086, -0.06578966230154037, 0.1468566656112671, -0.15867039561271667, -0.04197933152318001, 0.023441653698682785, 0.997671902179718, -0.0775170549750328, -0.24567794799804688, 1.475830078125, 0.898681640625, 5.929046630859375, 1.4970703125
23526, -3.38075852394104, 3.1228573322296143, 6.531245231628418, -0.18594741821289062, 0.15937042236328125, -2.480633020401001, -0.47182515263557434, 0.40476641058921814, -0.2547452449798584, -0.8523685932159424, -0.9927673935890198, 0.07205753773450851, 0.5052793039045052, -1.4675589867293866, -3.4225324539187207, 9362.0, 30146.0, 35388.0, 9362.0, 8.17190170288086, 0.00866173580288887, 0.27884960174560547, -0.18483866751194, -0.04197933152318001, 0.023441653698682785, 0.997671902179718, -0.06805419921875, 0.08584022521972656, 1.5029296875, 0.898681640625, 5.929046630859375, 1.4912109375
23556, -3.3798515796661377, 3.119791269302368, 6.530247211456299, -0.20036987960338593, 0.17174431681632996, -2.488297462463379, -0.4896748960018158, 0.42016518115997314, -0.2561112344264984, -0.852348268032074, -0.9927805662155151, 0.07207047194242477, 0.5054417412434257, -1.4626982000884823, -3.435312569993062, 9362.0, 30146.0, 35388.0, 9362.0, 8.17190170288086, -0.14865891635417938, -0.08022405207157135, -0.3863314390182495, -0.04197933152318001, 0.023441653698682785, 0.997671902179718, -0.07113097608089447, 0.05000114440917969, 1.5, 0.898681640625, 5.929046630859375, 1.494140625
23596, -3.3794567584991455, 3.1285312175750732, 6.523299694061279, -0.22559711337089539, 0.19339440762996674, -2.5011544227600098, -0.5194392800331116, 0.4458446204662323, -0.2579665184020996, -0.8523520827293396, -0.9928169250488281, 0.0721358209848404, 0.48505452079486583, -1.467564134813216, -3.474233901677156, 9362.0, 30146.0, 35388.0, 9362.0, 8.17190170288086, 0.2124536633491516, 0.19690831005573273, -0.33133769035339355, -0.041278988122940063, 0.025092974305152893, 0.9998458027839661, -0.05672697722911835, -0.2635974884033203, 1.474365234375, 0.898681640625, 5.929046630859375, 1.494873046875
23606, -3.3784432411193848, 3.126573085784912, 6.520815849304199, -0.22559711337089539, 0.19339440762996674, -2.5011544227600098, -0.5194392800331116, 0.4458446204662323, -0.2579665184020996, -0.8524145483970642, -0.9928712248802185, 0.07222723215818405, 0.4526108889720797, -1.4635412889907968, -3.4626410216913115, 9362.0, 30146.0, 35388.0, 9362.0, 8.17190170288086, 0.2124536633491516, 0.19690831005573273, -0.33133769035339355, -0.04377952590584755, 0.023865513503551483, 0.9968720078468323, -0.05672697722911835, -0.2635974884033203, 1.474365234375, 0.898681640625, 5.929046630859375, 1.494873046875
23616, -3.379469871520996, 3.1283655166625977, 6.517406940460205, -0.23610511422157288, 0.20241397619247437, -2.506321668624878, -0.5313529372215271, 0.4561068117618561, -0.25886061787605286, -0.8524162769317627, -0.9928621053695679, 0.07224128395318985, 0.44603512920103894, -1.466737687596094, -3.478895431438193, 9362.0, 30146.0, 35388.0, 9362.0, 8.17190170288086, 0.17775693535804749, -0.30581942200660706, -0.4125124216079712, -0.04377952590584755, 0.023865513503551483, 0.9968720078468323, -0.051913268864154816, -0.03959846496582031, 1.49267578125, 0.898681640625, 5.929046630859375, 1.494873046875
23636, -3.3794641494750977, 3.1315953731536865, 6.510949611663818, -0.24144840240478516, 0.20700067281723022, -2.508913040161133, -0.5373033285140991, 0.4612328112125397, -0.2594301998615265, -0.8524472713470459, -0.9928773641586304, 0.07224354892969131, 0.45256471320788283, -1.4676006497744538, -3.460760074325841, 9362.0, 30146.0, 35388.0, 9362.0, 8.17190170288086, 0.17775693535804749, -0.30581942200660706, -0.4125124216079712, -0.03772555664181709, 0.02346929721534252, 0.9983674883842468, -0.05892014503479004, -0.2546367645263672, 1.47509765625, 0.898681640625, 5.929046630859375, 1.5
23656, -3.379178285598755, 3.1283035278320312, 6.505162239074707, -0.25231385231018066, 0.21632809937000275, -2.514108180999756, -0.5492376685142517, 0.4715050458908081, -0.2601724863052368, -0.8524272441864014, -0.9929132461547852, 0.0723147839307785, 0.45552643712826363, -1.4791012429328418, -3.4551430472489306, 9362.0, 30146.0, 35388.0, 9362.0, 8.17190170288086, 0.17775693535804749, -0.30581942200660706, -0.4125124216079712, -0.03988412395119667, 0.02243606187403202, 0.9999386668205261, -0.060096625238657, -0.06647872924804688, 1.490478515625, 0.898681640625, 5.929046630859375, 1.494873046875
23666, -3.378371000289917, 3.1266119480133057, 6.502992153167725, -0.25231385231018066, 0.21632809937000275, -2.514108180999756, -0.5492376685142517, 0.4715050458908081, -0.2601724863052368, -0.8524622917175293, -0.9928995966911316, 0.07228725403547287, 0.43873902007820326, -1.4557798698963893, -3.447128182727179, 9362.0, 30146.0, 35388.0, 9362.0, 8.17190170288086, -0.19862781465053558, 0.07257793098688126, 0.03881562501192093, -0.03988412395119667, 0.02243606187403202, 0.9999386668205261, -0.060096625238657, -0.06647872924804688, 1.490478515625, 0.898681640625, 5.929046630859375, 1.494873046875
23726, -3.3806283473968506, 3.127586841583252, 6.499994277954102, -0.28052058815956116, 0.240545392036438, -2.5271658897399902, -0.5790151357650757, 0.4971788227558136, -0.2623397409915924, -0.8524378538131714, -0.992920458316803, 0.07229766994714737, 0.45305721854234327, -1.477995631891929, -3.4534099862088747, 9362.0, 30146.0, 35388.0, 9362.0, 8.17190170288086, -0.17567582428455353, 0.19247981905937195, 0.23099759221076965, -0.04102242365479469, 0.022629521787166595, 0.9976606965065002, -0.05401255935430527, -0.11127853393554688, 1.48681640625, 1.505126953125, 0.205902099609375, 1.4912109375
23736, -3.3793294429779053, 3.1268186569213867, 6.500988960266113, -0.28052058815956116, 0.240545392036438, -2.5271658897399902, -0.5790151357650757, 0.4971788227558136, -0.2623397409915924, -0.8524608016014099, -0.9928879737854004, 0.07228446006774902, 0.4385777074013741, -1.466941641556872, -3.437810997069367, 9362.0, 30146.0, 35388.0, 9362.0, 8.17190170288086, 0.03063936159014702, -0.028253737837076187, -0.1965387761592865, -0.04102242365479469, 0.022629521787166595, 0.9976606965065002, -0.05401255935430527, -0.11127853393554688, 1.48681640625, 1.505126953125, 0.205902099609375, 1.4912109375
23756, -3.3789567947387695, 3.1250598430633545, 6.5020952224731445, -0.28052058815956116, 0.240545392036438, -2.5271658897399902, -0.5790151357650757, 0.4971788227558136, -0.2623397409915924, -0.8524543046951294, -0.9929020404815674, 0.07230378687381744, 0.438248433286082, -1.462037922003276, -3.4383101941427014, 9362.0, 30146.0, 35388.0, 9362.0, 8.17190170288086, 0.03063936159014702, -0.028253737837076187, -0.1965387761592865, -0.039240382611751556, 0.022212926298379898, 0.9970308542251587, -0.046045441180467606, -0.15607833862304688, 1.483154296875, 1.505126953125, 0.205902099609375, 1.49267578125
23786, -3.3778860569000244, 3.1254236698150635, 6.499671459197998, -0.28052058815956116, 0.240545392036438, -2.5271658897399902, -0.5790151357650757, 0.4971788227558136, -0.2623397409915924, -0.8522860407829285, -0.9929144382476807, 0.07245434820652008, 0.4395717590624545, -1.406474021979875, -3.5075669724427936, 9362.0, 30146.0, 35388.0, 9362.0, 8.17190170288086, 0.15982986986637115, 0.36981138586997986, 0.15894359350204468, -0.039597075432538986, 0.02435082197189331, 0.9979138374328613, -0.054330937564373016, 0.1844005584716797, 1.510986328125, 1.505126953125, 0.205902099609375, 1.49267578125
23796, -3.376600503921509, 3.121856212615967, 6.499255657196045, -0.28052058815956116, 0.240545392036438, -2.5271658897399902, -0.5790151357650757, 0.4971788227558136, -0.2623397409915924, -0.8524272441864014, -0.9929094910621643, 0.0722973421216011, 0.4582055248813778, -1.4993346133610999, -3.42733716055765, 9362.0, 30146.0, 35388.0, 9362.0, 8.17190170288086, 0.15982986986637115, 0.36981138586997986, 0.15894359350204468, -0.039846330881118774, 0.0230117104947567, 1.0000163316726685, -0.054330937564373016, 0.1844005584716797, 1.510986328125, 1.505126953125, 0.205902099609375, 1.49267578125
23806, -3.3769283294677734, 3.120190143585205, 6.49872350692749, -0.28052058815956116, 0.240545392036438, -2.5271658897399902, -0.5790151357650757, 0.4971788227558136, -0.2623397409915924, -0.8524489998817444, -0.9928710460662842, 0.07224880158901215, 0.44661474050380134, -1.499189689729036, -3.4129411221324637, 9362.0, 30146.0, 35388.0, 9362.0, 8.17190170288086, -0.07047098129987717, 0.21384641528129578, 0.039520420134067535, -0.039846330881118774, 0.0230117104947567, 1.0000163316726685, -0.054330937564373016, 0.1844005584716797, 1.510986328125, 1.505126953125, 0.205902099609375, 1.49267578125
23836, -3.380383014678955, 3.1121575832366943, 6.49596643447876, -0.3608238399028778, 0.3095169961452484, -2.561649799346924, -0.6563904881477356, 0.5639201998710632, -0.26803717017173767, -0.852444589138031, -0.9928659796714783, 0.0722375363111496, 0.4487525229129221, -1.504711396760797, -3.413675074065203, 9362.0, 30146.0, 35388.0, 9362.0, 8.17190170288086, 0.03566795587539673, 0.47084563970565796, -0.10529123991727829, -0.04077279195189476, 0.02319657802581787, 0.9989032745361328, -0.05083940923213959, -0.03959846496582031, 1.49267578125, 1.505126953125, 0.205902099609375, 1.4970703125
23856, -3.3813319206237793, 3.105400562286377, 6.496106147766113, -0.3807820975780487, 0.3266655504703522, -2.5697154998779297, -0.6741638779640198, 0.5793249607086182, -0.2695528566837311, -0.8524050116539001, -0.9927781224250793, 0.0720750093460083, 0.507001663821012, -1.4574607136576105, -3.4418955669989417, 9362.0, 30146.0, 35388.0, 9362.0, 8.17190170288086, 0.03566795587539673, 0.47084563970565796, -0.10529123991727829, -0.04216883331537247, 0.023070968687534332, 0.9982771277427673, -0.04417889192700386, -0.021678924560546875, 1.494140625, 1.505126953125, 0.205902099609375, 1.493408203125
23866, -3.3817811012268066, 3.105128288269043, 6.495378494262695, -0.3807820975780487, 0.3266655504703522, -2.5697154998779297, -0.6741638779640198, 0.5793249607086182, -0.2695528566837311, -0.852278470993042, -0.9924907088279724, 0.07165881246328354, 0.6648775646611597, -1.519616988081765, -3.2860412134738124, 9362.0, 30146.0, 35388.0, 9362.0, 8.17190170288086, -0.07819578796625137, 0.103289395570755, -0.043997086584568024, -0.04216883331537247, 0.023070968687534332, 0.9982771277427673, -0.04663808271288872, -0.10231781005859375, 1.487548828125, 1.505126953125, 0.205902099609375, 1.493408203125
23896, -3.382838010787964, 3.104353904724121, 6.496471881866455, -0.4082214832305908, 0.3502494990825653, -2.5805423259735107, -0.6978106498718262, 0.5998777151107788, -0.27172520756721497, -0.8524122834205627, -0.9927934408187866, 0.07213739305734634, 0.43595045419359835, -1.5049025894944066, -3.4413906187122834, 9362.0, 30146.0, 35388.0, 9362.0, 8.17190170288086, -0.11542127281427383, 0.08743609488010406, 0.125833660364151, -0.04216883331537247, 0.023070968687534332, 0.9982771277427673, -0.05690503120422363, -0.1291980743408203, 1.4853515625, 1.505126953125, 0.205902099609375, 1.493408203125
23926, -3.3818891048431396, 3.113755226135254, 6.495851039886475, -0.42942216992378235, 0.3684772849082947, -2.588714122772217, -0.7155689001083374, 0.6153010725975037, -0.2731645107269287, -0.8522914052009583, -0.9925170540809631, 0.0716627761721611, 0.6355049791375093, -1.5168997002680555, -3.2825738616217777, 9362.0, 30146.0, 35388.0, 9362.0, 8.17190170288086, 0.03819233924150467, -0.3969373106956482, -0.08404844254255295, -0.04216883331537247, 0.023070968687534332, 0.9982771277427673, -0.06022275611758232, -0.20087814331054688, 1.4794921875, 1.505126953125, 0.205902099609375, 1.4912109375
23936, -3.382512092590332, 3.1180734634399414, 6.496273994445801, -0.42942216992378235, 0.3684772849082947, -2.588714122772217, -0.7155689001083374, 0.6153010725975037, -0.2731645107269287, -0.8523130416870117, -0.9927478432655334, 0.07211649417877197, 0.5045783634777884, -1.4253721573889777, -3.4497291350812893, 9362.0, 30146.0, 35388.0, 9362.0, 8.17190170288086, 0.08490310609340668, -0.6484338045120239, -0.021371791139245033, -0.04216883331537247, 0.023070968687534332, 0.9982771277427673, -0.06022275611758232, -0.20087814331054688, 1.4794921875, 1.505126953125, 0.205902099609375, 1.491943359375
23946, -3.3816206455230713, 3.1226673126220703, 6.497561931610107, -0.44385215640068054, 0.3808860778808594, -2.5941874980926514, -0.7274326682090759, 0.6255768537521362, -0.27418234944343567, -0.8523073196411133, -0.9927433729171753, 0.07212094962596893, 0.5024898862843288, -1.4304783575761348, -3.4450542267885584, 9362.0, 30146.0, 35388.0, 9362.0, 8.17190170288086, 0.08490310609340668, -0.6484338045120239, -0.021371791139245033, -0.04216883331537247, 0.023070968687534332, 0.9982771277427673, -0.05546848475933075, -0.05751800537109375, 1.4912109375, 1.505126953125, 0.205902099609375, 1.491943359375
23986, -3.3781161308288574, 3.129276990890503, 6.503840446472168, -0.44385215640068054, 0.3808860778808594, -2.5941874980926514, -0.7274326682090759, 0.6255768537521362, -0.27418234944343567, -0.8523210287094116, -0.9927365779876709, 0.07211750745773315, 0.5141442259749657, -1.4272047637906553, -3.440343490018672, 9362.0, 30146.0, 35388.0, 9362.0, 8.17190170288086, -0.009174286387860775, 0.19549256563186646, 0.17816612124443054, -0.040331900119781494, 0.02288070134818554, 1.0000810623168945, -0.06378711760044098, -0.08439826965332031, 1.489013671875, 1.505126953125, 0.205902099609375, 1.4912109375
23996, -3.3782687187194824, 3.1286139488220215, 6.506049156188965, -0.44385215640068054, 0.3808860778808594, -2.5941874980926514, -0.7274326682090759, 0.6255768537521362, -0.27418234944343567, -0.8523159027099609, -0.9927425384521484, 0.07212787866592407, 0.5158230168799814, -1.4212677448000193, -3.444686634832491, 9362.0, 30146.0, 35388.0, 9362.0, 8.17190170288086, -0.042989276349544525, -0.14361964166164398, 0.15735816955566406, -0.040331900119781494, 0.02288070134818554, 1.0000810623168945, -0.05479215085506439, 0.06792068481445312, 1.50146484375, 1.505126953125, 0.205902099609375, 1.4912109375
24036, -3.376072645187378, 3.128047466278076, 6.5118489265441895, -0.49623075127601624, 0.4259338676929474, -2.613499641418457, -0.7691155672073364, 0.6614951491355896, -0.27750951051712036, -0.8523129820823669, -0.9927314519882202, 0.07210990786552429, 0.5131056381083646, -1.4275195530368023, -3.448668288589195, 9362.0, 30146.0, 35388.0, 9362.0, 8.17190170288086, 0.01720413751900196, 0.12253794074058533, -0.03795666992664337, -0.03982476145029068, 0.023712608963251114, 0.9990618228912354, -0.05219106376171112, -0.0037593841552734375, 1.49560546875, 1.505126953125, 0.205902099609375, 1.494140625
24056, -3.3777334690093994, 3.1284682750701904, 6.513068199157715, -0.5274721384048462, 0.45280390977859497, -2.6246347427368164, -0.7929560542106628, 0.682009756565094, -0.2791736423969269, -0.8523384928703308, -0.9927276968955994, 0.07205912470817566, 0.5047397206639992, -1.4181435374147497, -3.447962878635112, 9362.0, 30146.0, 35388.0, 9362.0, 8.17190170288086, 0.01720413751900196, 0.12253794074058533, -0.03795666992664337, -0.03979291021823883, 0.024615196511149406, 0.9981617331504822, -0.0656496211886406, -0.3083972930908203, 1.470703125, 1.505126953125, 0.205902099609375, 1.494140625
24066, -3.3785276412963867, 3.126345634460449, 6.513990879058838, -0.5274721384048462, 0.45280390977859497, -2.6246347427368164, -0.7929560542106628, 0.682009756565094, -0.2791736423969269, -0.8523401618003845, -0.9927359819412231, 0.07205463200807571, 0.53185654381602, -1.4002862675959307, -3.4491173093086664, 9362.0, 30146.0, 35388.0, 9362.0, 8.17190170288086, 0.01720413751900196, 0.12253794074058533, -0.03795666992664337, -0.03979291021823883, 0.024615196511149406, 0.9981617331504822, -0.06359194964170456, 0.06792068481445312, 1.50146484375, 1.505126953125, 0.205902099609375, 1.494140625
24106, -3.382242202758789, 3.1228370666503906, 6.509310245513916, -0.5596667528152466, 0.4804947078227997, -2.6358389854431152, -0.8167914748191833, 0.7025534510612488, -0.28070956468582153, -0.8522571921348572, -0.9926584959030151, 0.07202783972024918, 0.5805490129984394, -1.401258019629779, -3.4445290318318262, 9362.0, 30146.0, 35388.0, 9362.0, 8.17190170288086, -0.04917198419570923, -0.03177915886044502, -0.36055973172187805, -0.04092549905180931, 0.02350013703107834, 1.0013147592544556, -0.059276334941387177, 0.15752029418945312, 1.5087890625, 1.505126953125, 0.205902099609375, 1.493408203125
24136, -3.3826539516448975, 3.1186513900756836, 6.508976459503174, -0.5844382047653198, 0.5018024444580078, -2.644282102584839, -0.8346141576766968, 0.7179487943649292, -0.2824612855911255, -0.8522529602050781, -0.992664635181427, 0.0720352753996849, 0.5802161216235163, -1.4022326721803324, -3.456927057518475, 9362.0, 30146.0, 35388.0, 9362.0, 8.17190170288086, 0.10747124254703522, 0.2045242041349411, -0.01095822174102068, -0.04092549905180931, 0.02350013703107834, 1.0013147592544556, -0.04985884949564934, 0.05896186828613281, 1.500732421875, 1.505126953125, 0.205902099609375, 1.49267578125
24196, -3.378720998764038, 3.1245815753936768, 6.508635997772217, -0.6012492179870605, 0.5162640810012817, -2.6499428749084473, -0.8464893102645874, 0.7282174229621887, -0.2835470736026764, -0.8522732257843018, -0.9926740527153015, 0.07202890515327454, 0.5839071400779889, -1.4033452571922567, -3.44868932438808, 9362.0, 30146.0, 35388.0, 9362.0, 8.17190170288086, 0.14818063378334045, -0.5490842461585999, 0.0069940295070409775, -0.040802858769893646, 0.023348351940512657, 0.9998806118965149, -0.04791700467467308, -0.05751800537109375, 1.4912109375, 1.505126953125, 0.205902099609375, 1.4912109375
24206, -3.377686023712158, 3.1296961307525635, 6.508531093597412, -0.6531081199645996, 0.5608820915222168, -2.6670336723327637, -0.8821548819541931, 0.7590391635894775, -0.28613653779029846, -0.8522734642028809, -0.9926638603210449, 0.0720304474234581, 0.5820377747579364, -1.3984543681566208, -3.446795469486737, 9362.0, 30146.0, 35388.0, 9362.0, 8.17190170288086, 0.14818063378334045, -0.5490842461585999, 0.0069940295070409775, -0.03970913216471672, 0.0248307716101408, 0.996915340423584, -0.04791700467467308, -0.05751800537109375, 1.4912109375, 1.505126953125, 0.205902099609375, 1.4912109375
24236, -3.3763818740844727, 3.1368918418884277, 6.5069427490234375, -0.6708702445030212, 0.5761653184890747, -2.6727676391601562, -0.8940656185150146, 0.7692877650260925, -0.28719499707221985, -0.8522757887840271, -0.9926642179489136, 0.07202146202325821, 0.581820682099897, -1.3975798313674659, -3.453072853701727, 9362.0, 30146.0, 35388.0, 9362.0, 8.17190170288086, -0.0664982944726944, -0.3039422035217285, 0.062143947929143906, -0.039944715797901154, 0.025088656693696976, 0.9998113512992859, -0.050774428993463516, -0.06647872924804688, 1.490478515625, 1.505126953125, 0.205902099609375, 1.497802734375
24256, -3.3762710094451904, 3.1371355056762695, 6.508636474609375, -0.6979609727859497, 0.5994747877120972, -2.6814002990722656, -0.9119923710823059, 0.7846808433532715, -0.28827381134033203, -0.8522719740867615, -0.9926643371582031, 0.07201719284057617, 0.5893953141415282, -1.393190014994957, -3.4422833951182894, 9362.0, 30146.0, 35388.0, 9362.0, 8.17190170288086, 0.23956245183944702, 0.10950766503810883, 0.1452542245388031, -0.036770518869161606, 0.024759316816926003, 0.9996025562286377, -0.05056678503751755, 0.023120880126953125, 1.497802734375, 1.505126953125, 0.205902099609375, 1.497802734375
24326, -3.3839452266693115, 3.133678436279297, 6.5191144943237305, -0.763262152671814, 0.655657947063446, -2.7017130851745605, -0.9537534713745117, 0.8205641508102417, -0.29212701320648193, -0.8522700667381287, -0.9925886988639832, 0.0719134658575058, 0.5609290970114127, -1.3897702039268154, -3.461990909504578, 9362.0, 30146.0, 35388.0, 9362.0, 8.17190170288086, -0.00972976814955473, 0.17294462025165558, 0.2199345827102661, -0.039268918335437775, 0.02149169333279133, 0.9969732165336609, -0.06281012296676636, -0.1650371551513672, 1.482421875, 1.505126953125, 0.205902099609375, 1.493408203125
24346, -3.384502410888672, 3.1321122646331787, 6.518692493438721, -0.763262152671814, 0.655657947063446, -2.7017130851745605, -0.9537534713745117, 0.8205641508102417, -0.29212701320648193, -0.8522841930389404, -0.9925764203071594, 0.07194224745035172, 0.538858722241602, -1.3761526883558872, -3.4450944078852355, 9362.0, 30146.0, 35388.0, 9362.0, 8.17190170288086, 0.14332370460033417, 0.6553738713264465, 0.03274530917406082, -0.039268918335437775, 0.02149169333279133, 0.9969732165336609, -0.056251149624586105, 0.10376167297363281, 1.50439453125, 1.505126953125, 0.205902099609375, 1.49560546875
24366, -3.3831241130828857, 3.1258957386016846, 6.517343521118164, -0.7921427488327026, 0.680505633354187, -2.7105062007904053, -0.9716174602508545, 0.8359516859054565, -0.29406479001045227, -0.8522710800170898, -0.9925884008407593, 0.07193674147129059, 0.5610353528663845, -1.3891999993866477, -3.458247117087221, 9362.0, 30146.0, 35388.0, 9362.0, 8.17190170288086, 0.04023240506649017, -0.20462296903133392, -0.2497919499874115, -0.0421505868434906, 0.02151060663163662, 1.0005906820297241, -0.04838380590081215, -0.1739978790283203, 1.481689453125, 1.505126953125, 0.205902099609375, 1.5
24406, -3.3800206184387207, 3.1209840774536133, 6.513851165771484, -0.8116943836212158, 0.6973275542259216, -2.7163944244384766, -0.9835403561592102, 0.8462401628494263, -0.29476046562194824, -0.852264404296875, -0.9925912022590637, 0.07192359864711761, 0.5695916283541286, -1.3866875655425872, -3.4562327261991097, 9362.0, 30146.0, 35388.0, 9362.0, 8.17190170288086, 0.12458665668964386, -0.23202751576900482, 0.38577893376350403, -0.03949194774031639, 0.023908376693725586, 0.999549388885498, -0.06532413512468338, -0.05751800537109375, 1.4912109375, 1.505126953125, 0.205902099609375, 1.49267578125
24416, -3.378678321838379, 3.12268328666687, 6.516880035400391, -0.851512610912323, 0.7315883636474609, -2.7282166481018066, -1.00736665725708, 0.8668004274368286, -0.2962868809700012, -0.8521831035614014, -0.9923340082168579, 0.0715876966714859, 0.6987838432699941, -1.4339612514156386, -3.313939002822383, 9362.0, 30146.0, 35388.0, 9362.0, 8.17190170288086, 0.12458665668964386, -0.23202751576900482, 0.38577893376350403, -0.04110646992921829, 0.022374579682946205, 1.0000919103622437, -0.06589654088020325, -0.27255821228027344, 1.4736328125, 1.505126953125, 0.205902099609375, 1.49267578125
24426, -3.377230405807495, 3.1240644454956055, 6.5163044929504395, -0.851512610912323, 0.7315883636474609, -2.7282166481018066, -1.00736665725708, 0.8668004274368286, -0.2962868809700012, -0.8521809577941895, -0.9923389554023743, 0.07157690823078156, 0.7076963882160389, -1.431399544048702, -3.301828514793629, 9362.0, 30146.0, 35388.0, 9362.0, 8.17190170288086, 0.04423242807388306, -0.06414899230003357, 0.2686859667301178, -0.04110646992921829, 0.022374579682946205, 1.0000919103622437, -0.06645236164331436, -0.09335899353027344, 1.48828125, 1.505126953125, 0.205902099609375, 1.49267578125
24436, -3.375847578048706, 3.126032590866089, 6.517062187194824, -0.851512610912323, 0.7315883636474609, -2.7282166481018066, -1.00736665725708, 0.8668004274368286, -0.2962868809700012, -0.85218745470047, -0.9923468232154846, 0.07160556316375732, 0.6952318481260774, -1.4375160617283314, -3.3123357156664177, 9362.0, 30146.0, 35388.0, 9362.0, 8.17190170288086, 0.11606934666633606, -0.22421549260616302, -0.12540651857852936, -0.042935702949762344, 0.02282056398689747, 0.9991414546966553, -0.06557971984148026, -0.20087814331054688, 1.4794921875, 1.505126953125, 0.205902099609375, 1.48974609375
24446, -3.3743300437927246, 3.129284620285034, 6.515974521636963, -0.882001519203186, 0.7578233480453491, -2.7371225357055664, -1.025222897529602, 0.8821913599967957, -0.29756084084510803, -0.852164626121521, -0.9923532009124756, 0.07160080969333649, 0.7076486046163057, -1.4440954144804152, -3.305169503992272, 9362.0, 30146.0, 35388.0, 9362.0, 8.17190170288086, 0.10432044416666031, 0.11175067722797394, -0.05403422936797142, -0.04300757125020027, 0.02108144946396351, 0.9985171556472778, -0.06311767548322678, -0.1291980743408203, 1.4853515625, 1.505126953125, 0.205902099609375, 1.491943359375
24456, -3.374232053756714, 3.1282384395599365, 6.516489505767822, -0.89228355884552, 0.7666708827018738, -2.740100383758545, -1.0311825275421143, 0.8873154520988464, -0.29799148440361023, -0.8522877097129822, -0.9925810098648071, 0.0719199851155281, 0.5476392536667395, -1.3678807813089122, -3.454370601636156, 9362.0, 30146.0, 35388.0, 9362.0, 8.17190170288086, 0.13169938325881958, 0.31885772943496704, 0.2754782438278198, -0.041036974638700485, 0.02252068556845188, 0.997732400894165, -0.06121182069182396, -0.2546367645263672, 1.47509765625, 1.505126953125, 0.205902099609375, 1.49560546875
24466, -3.373542070388794, 3.1273691654205322, 6.51784086227417, -0.9026251435279846, 0.7755696177482605, -2.7430827617645264, -1.0371365547180176, 0.8924359679222107, -0.2984856367111206, -0.852272093296051, -0.9926083087921143, 0.07194923609495163, 0.5627713145026072, -1.389256608428127, -3.4524695743645415, 9362.0, 30146.0, 35388.0, 9362.0, 8.17190170288086, -0.10382802784442902, -0.253216952085495, 0.07588593661785126, -0.03753381595015526, 0.024680620059370995, 0.9979796409606934, -0.056721825152635574, 0.08584022521972656, 1.5029296875, 1.505126953125, 0.205902099609375, 1.4912109375
24476, -3.3734943866729736, 3.130911350250244, 6.518280029296875, -0.9130262732505798, 0.7845195531845093, -2.746070384979248, -1.0430846214294434, 0.8975515961647034, -0.29905396699905396, -0.8522814512252808, -0.9925972819328308, 0.07193838804960251, 0.5626788527291307, -1.3871298015776858, -3.4585214559303363, 9362.0, 30146.0, 35388.0, 9362.0, 8.17190170288086, 0.22160807251930237, 0.39056655764579773, 0.13209927082061768, -0.038422103971242905, 0.0253449734300375, 0.9977716207504272, -0.061151206493377686, -0.05751800537109375, 1.4912109375, 1.505126953125, 0.205902099609375, 1.493408203125
