timeTick, roll, pitch, yaw, stateX, stateY, stateZ, stateVX, stateVY, stateVZ, otX0, otY0, otZ0, otRoll0, otPitch0, otYaw0, left wing, pitch motor, yaw motor, right wing, voltage, roll rate, pitch rate, yaw rate, A_x, A_y, A_z, current, i_raw, v_raw, airflow_voltage, airflow_speed, pot_Pitch
104017, 0.018660463392734528, -0.3004652261734009, -0.15062661468982697, 0, 0, 0, 0, 0, 0, 0.35244837403297424, -0.7873499393463135, 0.059545084834098816, -0.3241235712448144, -0.5443235943552907, -3.3884860172640354, 0, 0, 0, 0, 0, 0, 0, 0, 0, 0, 0, 0, 0, 0, 0, 0, 0
104027, 0.019265148788690567, -0.30334025621414185, -0.15039342641830444, 0.30950993299484253, 0.00536320311948657, 0.007574176881462336, 0.15807713568210602, -0.003821506630629301, 0.0017413037130609155, 0.3524464964866638, -0.7873522043228149, 0.05954981967806816, -0.3227343972355449, -0.5507740976462685, -3.3886216057159033, 9362.0, 30146.0, 35388.0, 9362.0, 8.211570739746094, 0.15168575942516327, 0.35665982961654663, 0.2920573651790619, -0.02136814594268799, 0.007852500304579735, 1.0005401372909546, -0.05828152224421501, -0.1291980743408203, 1.4853515625, 0, 0, 0
104037, 0.019429584965109825, -0.30570173263549805, -0.1484585702419281, 0.30950993299484253, 0.00536320311948657, 0.007574176881462336, 0.15807713568210602, -0.003821506630629301, 0.0017413037130609155, 0.3524487018585205, -0.7873435020446777, 0.05955151841044426, -0.32085966297628504, -0.5441777553315035, -3.390435033123493, 9362.0, 30146.0, 35388.0, 9362.0, 8.191736221313477, -0.10868577659130096, 0.012503787875175476, -0.003407613607123494, -0.021787570789456367, 0.005462990142405033, 1.0004829168319702, -0.050635337829589844, -0.03959846496582031, 1.49267578125, 1.300048828125, 0.0489654541015625, 1.490478515625
104047, 0.018858855590224266, -0.30518704652786255, -0.1494956761598587, 0.3126818835735321, 0.005286084953695536, 0.007609397638589144, 0.15911978483200073, -0.0038904740940779448, 0.0017518169479444623, 0.3524520993232727, -0.7873528003692627, 0.05956026166677475, -0.32682213124146875, -0.5463584608949361, -3.3903170434657235, 9362.0, 30146.0, 35388.0, 9362.0, 8.191736221313477, -0.046003393828868866, 0.170150488615036, -0.10085299611091614, -0.020746957510709763, 0.005244781728833914, 1.0032516717910767, -0.04938651621341705, -0.1650371551513672, 1.482421875, 1.505126953125, 0.205902099609375, 1.49560546875
104057, 0.01865910366177559, -0.3054729700088501, -0.15124638378620148, 0.3126818835735321, 0.005286084953695536, 0.007609397638589144, 0.15911978483200073, -0.0038904740940779448, 0.0017518169479444623, 0.3524390161037445, -0.7873477339744568, 0.059533532708883286, -0.32110323191893847, -0.5456579637437358, -3.3918057891530116, 9362.0, 30146.0, 35388.0, 9362.0, 8.191736221313477, 0.11692210286855698, -0.06804082542657852, -0.15200799703598022, -0.021412109956145287, 0.006117494311183691, 0.9991909861564636, -0.04503999277949333, -0.03959846496582031, 1.49267578125, 1.404052734375, 0.04400634765625, 1.48828125
104067, 0.019445225596427917, -0.3045780658721924, -0.15252764523029327, 0.31587475538253784, 0.005207601934671402, 0.007649069651961327, 0.16016697883605957, -0.003957598470151424, 0.0020907968282699585, 0.35244566202163696, -0.7873550057411194, 0.05954188480973244, -0.32298916644486847, -0.5444847604396159, -3.390425548403868, 9362.0, 30146.0, 35388.0, 9362.0, 8.191736221313477, 0.06260977685451508, 0.09556212276220322, -0.14662322402000427, -0.02102833241224289, 0.0062914094887673855, 0.9998883605003357, -0.0437801219522953, -0.07543754577636719, 1.48974609375, 1.6875, 0.634674072265625, 1.493408203125
104077, 0.01947103813290596, -0.30559679865837097, -0.15336693823337555, 0.31587475538253784, 0.005207601934671402, 0.007649069651961327, 0.16016697883605957, -0.003957598470151424, 0.0020907968282699585, 0.35245266556739807, -0.7873499393463135, 0.0595458522439003, -0.31930167256077746, -0.5435457256148482, -3.39374910077797, 9362.0, 30146.0, 35388.0, 9362.0, 8.191736221313477, 0.03066473826766014, 0.2671588659286499, 0.0578942596912384, -0.020977182313799858, 0.005555162206292152, 1.00082266330719, -0.058157987892627716, -0.1291980743408203, 1.4853515625, 1.087646484375, 1.4275054931640625, 1.49267578125
104087, 0.020091649144887924, -0.3076988458633423, -0.15289629995822906, 0.31908854842185974, 0.005127756390720606, 0.007690220605581999, 0.1612115502357483, -0.004027023911476135, 0.002092735841870308, 0.352441668510437, -0.7873426079750061, 0.059541959315538406, -0.32335652597418607, -0.5451488997636034, -3.396785288751016, 9362.0, 30146.0, 35388.0, 9362.0, 8.191736221313477, -0.01703117974102497, 0.17384326457977295, 0.07732944935560226, -0.021827835589647293, 0.005390717647969723, 0.9989262223243713, -0.06291213631629944, -0.01271820068359375, 1.494873046875, 0.881103515625, 6.5938873291015625, 1.491943359375
104097, 0.020505690947175026, -0.30973660945892334, -0.15264858305454254, 0.31908854842185974, 0.005127756390720606, 0.007690220605581999, 0.1612115502357483, -0.004027023911476135, 0.002092735841870308, 0.35244515538215637, -0.7873548865318298, 0.059545524418354034, -0.3223417941920894, -0.5467383364010345, -3.3901205924745317, 9362.0, 30146.0, 35388.0, 9362.0, 8.191736221313477, -0.03618362545967102, 0.10127239674329758, -0.16121195256710052, -0.021960843354463577, 0.004436899442225695, 0.9972417950630188, -0.05859650671482086, -0.030637741088867188, 1.493408203125, 1.67724609375, 0.6079559326171875, 1.48974609375
104107, 0.02000490017235279, -0.3110447824001312, -0.15451227128505707, 0.3223233222961426, 0.005046497099101543, 0.0077300299890339375, 0.16226691007614136, -0.004099259618669748, 0.0017978696851059794, 0.35245174169540405, -0.7873509526252747, 0.05953807756304741, -0.3217035596060475, -0.5436179130159076, -3.3927042695843523, 9362.0, 30146.0, 35388.0, 9362.0, 8.191736221313477, 0.06459908187389374, 0.23641417920589447, 0.08533310145139694, -0.0217063520103693, 0.0049065337516367435, 0.9991363883018494, -0.06326552480459213, -0.1291980743408203, 1.4853515625, 0.697998046875, 17.072662353515625, 1.4853515625
104117, 0.018591182306408882, -0.3127070963382721, -0.15313877165317535, 0.3223233222961426, 0.005046497099101543, 0.0077300299890339375, 0.16226691007614136, -0.004099259618669748, 0.0017978696851059794, 0.35244306921958923, -0.7873499989509583, 0.05953606590628624, -0.32344920298524366, -0.5455131151859405, -3.391677469336197, 9362.0, 30146.0, 35388.0, 9362.0, 8.191736221313477, 0.2646511197090149, 0.06652433425188065, -0.23351269960403442, -0.022408319637179375, 0.007565287407487631, 0.998112142086029, -0.06583642214536667, -0.2546367645263672, 1.47509765625, 1.089111328125, 1.407745361328125, 1.49267578125
104127, 0.019924767315387726, -0.31292524933815, -0.1545136719942093, 0.32557931542396545, 0.00496381102129817, 0.007763472385704517, 0.16333317756652832, -0.004168109968304634, 0.0015137153677642345, 0.352453351020813, -0.7873503565788269, 0.059540994465351105, -0.3227975359920113, -0.5465682530590357, -3.391637904504731, 9362.0, 30146.0, 35388.0, 9362.0, 8.191736221313477, 0.19261516630649567, -0.18802888691425323, -0.02274997904896736, -0.021466191858053207, 0.007963467389345169, 0.9991974234580994, -0.06185202673077583, -0.09335899353027344, 1.48828125, 1.7080078125, 0.6897125244140625, 1.490478515625
104137, 0.022061292082071304, -0.3117053806781769, -0.1558125764131546, 0.32557931542396545, 0.00496381102129817, 0.007763472385704517, 0.16333317756652832, -0.004168109968304634, 0.0015137153677642345, 0.35244691371917725, -0.7873442769050598, 0.05953050032258034, -0.32250823266892525, -0.5419520545016496, -3.3958058914024702, 9362.0, 30146.0, 35388.0, 9362.0, 8.191736221313477, 0.06668459624052048, -0.0731719359755516, -0.44245800375938416, -0.02022116631269455, 0.008825181983411312, 0.9996302723884583, -0.0723886713385582, -0.08439826965332031, 1.489013671875, 1.426025390625, 0.069732666015625, 1.496337890625
104147, 0.022653313353657722, -0.31116679310798645, -0.1595429629087448, 0.3288566768169403, 0.004879720043390989, 0.00779198482632637, 0.16440163552761078, -0.004242881201207638, 0.001366148702800274, 0.35244759917259216, -0.7873514294624329, 0.05954397842288017, -0.3212184834149528, -0.5476805115212073, -3.3897471917218196, 9362.0, 30146.0, 35388.0, 9362.0, 8.191736221313477, 0.15015742182731628, 0.12968778610229492, 0.27183106541633606, -0.01999010518193245, 0.007164305076003075, 1.0012515783309937, -0.06766565144062042, -0.11127853393554688, 1.48681640625, 0.9287109375, 4.90576171875, 1.491943359375
104157, 0.02300216071307659, -0.31142815947532654, -0.15737518668174744, 0.3288566768169403, 0.004879720043390989, 0.00779198482632637, 0.16440163552761078, -0.004242881201207638, 0.001366148702800274, 0.352446973323822, -0.7873514294624329, 0.059541769325733185, -0.3200479475177142, -0.5465759014407752, -3.3908460725431926, 9362.0, 30146.0, 35388.0, 9362.0, 8.191736221313477, -0.2519056499004364, -0.03781725838780403, -0.19452346861362457, -0.020520543679594994, 0.0066016665659844875, 1.0028129816055298, -0.052951306104660034, -0.08439826965332031, 1.489013671875, 1.002685546875, 2.923919677734375, 1.494140625
104167, 0.021908067166805267, -0.31141039729118347, -0.15752819180488586, 0.33215537667274475, 0.004794053267687559, 0.00782205630093813, 0.16546942293643951, -0.004324129316955805, 0.0017356311436742544, 0.3524492084980011, -0.7873508334159851, 0.05954204872250557, -0.3201556220640084, -0.5462560649060606, -3.3919660738992, 9362.0, 30146.0, 35388.0, 9362.0, 8.191736221313477, -0.052829548716545105, -0.3523716926574707, 0.06032203510403633, -0.021342135965824127, 0.004904678091406822, 1.0029159784317017, -0.04550832509994507, -0.09335899353027344, 1.48828125, 1.171875, 0.5655364990234375, 1.493408203125
104177, 0.02219383232295513, -0.30908116698265076, -0.1575675755739212, 0.33215537667274475, 0.004794053267687559, 0.00782205630093813, 0.16546942293643951, -0.004324129316955805, 0.0017356311436742544, 0.35244807600975037, -0.7873436808586121, 0.05952797085046768, -0.32321826663936243, -0.5487911929531322, -3.3907506460631414, 9362.0, 30146.0, 35388.0, 9362.0, 8.191736221313477, -0.03715719282627106, 0.40002545714378357, 0.34935465455055237, -0.02054618112742901, 0.00610370421782136, 1.002896785736084, -0.04187369719147682, -0.1650371551513672, 1.482421875, 1.546875, 0.2949676513671875, 1.48974609375
104187, 0.022322628647089005, -0.31142088770866394, -0.15626384317874908, 0.33547544479370117, 0.0047067864798009396, 0.007862412370741367, 0.16653460264205933, -0.004402771592140198, 0.0022855752613395452, 0.35244011878967285, -0.7873488068580627, 0.059549178928136826, -0.32115448298827387, -0.5472513000667334, -3.3855106413083833, 9362.0, 30146.0, 35388.0, 9362.0, 8.191736221313477, 0.06325264275074005, 0.037083324044942856, 0.1699598878622055, -0.02348022349178791, 0.004532727878540754, 1.0013383626937866, -0.04082760587334633, -0.07543754577636719, 1.48974609375, 1.14697265625, 0.7671356201171875, 1.490478515625
104197, 0.02271537110209465, -0.31189024448394775, -0.15604136884212494, 0.33547544479370117, 0.0047067864798009396, 0.007862412370741367, 0.16653460264205933, -0.004402771592140198, 0.0022855752613395452, 0.35244715213775635, -0.7873457074165344, 0.059530314058065414, -0.3205529476327655, -0.5465134572272348, -3.389434921450867, 9362.0, 30146.0, 35388.0, 9362.0, 8.191736221313477, 0.1097048744559288, 0.10593236982822418, 0.10131557285785675, -0.024756798520684242, 0.006484546232968569, 0.9991557598114014, -0.035700175911188126, -0.03959846496582031, 1.49267578125, 1.80615234375, 0.995513916015625, 1.493408203125
104207, 0.023048870265483856, -0.31230658292770386, -0.15506720542907715, 0.3388168215751648, 0.004617932718247175, 0.00791088305413723, 0.16760249435901642, -0.0044828481040894985, 0.0024471511133015156, 0.3524400293827057, -0.7873504161834717, 0.059549618512392044, -0.3250154063953679, -0.5474580241033493, -3.391946505149201, 9362.0, 30146.0, 35388.0, 9362.0, 8.191736221313477, -0.10459090024232864, 0.009690549224615097, 0.24826747179031372, -0.022175395861268044, 0.0071746730245649815, 0.9966269731521606, -0.032289158552885056, -0.08439826965332031, 1.489013671875, 1.304443359375, 0.043182373046875, 1.49560546875
104217, 0.02355194464325905, -0.3130604326725006, -0.1544194519519806, 0.3388168215751648, 0.004617932718247175, 0.00791088305413723, 0.16760249435901642, -0.0044828481040894985, 0.0024471511133015156, 0.3524535894393921, -0.7873493432998657, 0.05956323444843292, -0.3197979285737471, -0.5491468276086948, -3.392209087835624, 9362.0, 30146.0, 35388.0, 9362.0, 8.191736221313477, 0.07747054845094681, -0.14991456270217896, 0.1478959321975708, -0.020810838788747787, 0.008187434636056423, 0.9979315996170044, -0.03980116546154022, -0.06647872924804688, 1.490478515625, 0.66796875, 19.535858154296875, 1.494140625
104227, 0.023733528330922127, -0.3124812841415405, -0.15394219756126404, 0.342179536819458, 0.004527456127107143, 0.007954002358019352, 0.16867005825042725, -0.004565287381410599, 0.0019060032209381461, 0.3524496257305145, -0.7873499989509583, 0.05952731892466545, -0.31963577696695294, -0.5493003838324739, -3.3927011932306566, 9362.0, 30146.0, 35388.0, 9362.0, 8.191736221313477, 0.2641996741294861, -0.052064087241888046, -0.12239368259906769, -0.021403584629297256, 0.00666900584474206, 0.9984245300292969, -0.04135243222117424, -0.03959846496582031, 1.49267578125, 1.49560546875, 0.1868743896484375, 1.48681640625
104237, 0.025176027789711952, -0.31126779317855835, -0.154819056391716, 0.342179536819458, 0.004527456127107143, 0.007954002358019352, 0.16867005825042725, -0.004565287381410599, 0.0019060032209381461, 0.3524414300918579, -0.7873494625091553, 0.059543464332818985, -0.3209425203896131, -0.5514164179032264, -3.395273631165365, 9362.0, 30146.0, 35388.0, 9362.0, 8.191736221313477, -0.30477216839790344, 0.5025689005851746, -0.08893784135580063, -0.020985623821616173, 0.006234393455088139, 0.9958849549293518, -0.05075298994779587, -0.27255821228027344, 1.4736328125, 1.011474609375, 2.733917236328125, 1.494873046875
104247, 0.023846426978707314, -0.31420886516571045, -0.1545022577047348, 0.3455636203289032, 0.004435298033058643, 0.00798810925334692, 0.16973502933979034, -0.004651691298931837, 0.0014026021817699075, 0.35246074199676514, -0.7873405814170837, 0.059558890759944916, -0.3221810176443051, -0.5485492953586402, -3.390032622152938, 9362.0, 30146.0, 35388.0, 9362.0, 8.211570739746094, -0.007298488635569811, -0.12138522416353226, -0.006224736571311951, -0.021413810551166534, 0.006390145979821682, 1.0016835927963257, -0.05366537719964981, 0.05896186828613281, 1.500732421875, 1.65966796875, 0.5630340576171875, 1.49560546875
104257, 0.023325812071561813, -0.313041627407074, -0.15366606414318085, 0.3455636203289032, 0.004435298033058643, 0.00798810925334692, 0.16973502933979034, -0.004651691298931837, 0.0014026021817699075, 0.3524443507194519, -0.7873492240905762, 0.05955120548605919, -0.322179996463693, -0.5428605973739025, -3.3939374771145756, 9362.0, 30146.0, 35388.0, 9362.0, 8.191736221313477, -0.2384261190891266, 0.14016279578208923, -0.054793257266283035, -0.020133502781391144, 0.005861812736839056, 1.0020947456359863, -0.05789303407073021, -0.10231781005859375, 1.487548828125, 1.7607421875, 0.842681884765625, 1.490478515625
104267, 0.021329553797841072, -0.3133057653903961, -0.1527208387851715, 0.34896907210350037, 0.004341422580182552, 0.008017695508897305, 0.17081017792224884, -0.004735429305583239, 0.0016562914242967963, 0.35245150327682495, -0.7873450517654419, 0.0595543198287487, -0.31981285838810064, -0.5476675670402358, -3.391764923350167, 9362.0, 30146.0, 35388.0, 9362.0, 8.191736221313477, -0.044235508888959885, 0.09199487417936325, -0.08837425708770752, -0.022052569314837456, 0.0074798231944441795, 0.9990905523300171, -0.07015351951122284, -0.06647872924804688, 1.490478515625, 1.8486328125, 1.16552734375, 1.493408203125
104277, 0.020879779011011124, -0.3145713806152344, -0.15329787135124207, 0.34896907210350037, 0.004341422580182552, 0.008017695508897305, 0.17081017792224884, -0.004735429305583239, 0.0016562914242967963, 0.352444052696228, -0.7873421907424927, 0.05955491587519646, -0.3201669249937423, -0.5469855523942329, -3.3891467878181243, 9362.0, 30146.0, 35388.0, 9362.0, 8.211570739746094, -0.0974637120962143, 0.07682102918624878, -0.028793545439839363, -0.02210935391485691, 0.006628059782087803, 0.9990439414978027, -0.055388350039720535, 0.08584022521972656, 1.5029296875, 1.313232421875, 0.0333251953125, 1.494873046875
104287, 0.01988026313483715, -0.3150205612182617, -0.1532404124736786, 0.3523959815502167, 0.004245959222316742, 0.008049343712627888, 0.17188414931297302, -0.004810518119484186, 0.0015004468150436878, 0.3524499535560608, -0.7873536348342896, 0.05954676866531372, -0.320342065284051, -0.5471151432686554, -3.3907185527338313, 9362.0, 30146.0, 35388.0, 9362.0, 8.191736221313477, 0.009489281103014946, 0.2339949756860733, 0.10865405946969986, -0.021477678790688515, 0.006194029934704304, 1.0017799139022827, -0.051531560719013214, 0.10376167297363281, 1.50439453125, 0.76171875, 12.60418701171875, 1.494873046875
104297, 0.02038683369755745, -0.31621837615966797, -0.15301820635795593, 0.3523959815502167, 0.004245959222316742, 0.008049343712627888, 0.17188414931297302, -0.004810518119484186, 0.0015004468150436878, 0.35244837403297424, -0.7873415350914001, 0.059555478394031525, -0.3225866071405231, -0.5429698683650201, -3.3927390392239114, 9362.0, 30146.0, 35388.0, 9362.0, 8.211570739746094, 0.033569056540727615, 0.22305746376514435, 0.04700963944196701, -0.02244834043085575, 0.007497867569327354, 1.0010626316070557, -0.05247693508863449, -0.10231781005859375, 1.487548828125, 1.790771484375, 0.9409332275390625, 1.494873046875
104307, 0.020657798275351524, -0.31705597043037415, -0.15219132602214813, 0.3558444678783417, 0.004149033688008785, 0.00808218214660883, 0.17296627163887024, -0.004882441367954016, 0.0017698740120977163, 0.3524450659751892, -0.7873451709747314, 0.05955817922949791, -0.3237001534602377, -0.5474699455930647, -3.3898310697260956, 9362.0, 30146.0, 35388.0, 9362.0, 8.191736221313477, -0.011552400887012482, 0.3757134675979614, 0.010518080554902554, -0.022764552384614944, 0.007123634684830904, 0.9992287158966064, -0.06240800395607948, -0.2187976837158203, 1.47802734375, 1.774658203125, 0.886993408203125, 1.4970703125
104317, 0.02023692987859249, -0.31840187311172485, -0.1531931459903717, 0.3558444678783417, 0.004149033688008785, 0.00808218214660883, 0.17296627163887024, -0.004882441367954016, 0.0017698740120977163, 0.35244041681289673, -0.7873459458351135, 0.059567272663116455, -0.3253053878548541, -0.5431880305454513, -3.3909411189108947, 9362.0, 30146.0, 35388.0, 9362.0, 8.191736221313477, -0.011552400887012482, 0.3757134675979614, 0.010518080554902554, -0.021187305450439453, 0.005800795275717974, 0.9979628920555115, -0.06240800395607948, -0.2187976837158203, 1.47802734375, 1.26708984375, 0.1136474609375, 1.490478515625
104747, 0.01380963809788227, -0.33616793155670166, -0.1662263125181198, 0.4373283386230469, 0.001696117571555078, 0.009158707223832607, 0.19754661619663239, -0.006199917756021023, 0.0025782370939850807, 0.3524566888809204, -0.7873378992080688, 0.05958221107721329, -0.321873461813151, -0.543859789895464, -3.390312498677669, 9362.0, 30146.0, 35388.0, 9362.0, 8.191736221313477, -0.2251885086297989, 0.17016533017158508, -0.030766315758228302, -0.01968640834093094, 0.006275518331676722, 0.9995891451835632, -0.07213985919952393, -0.11127853393554688, 1.48681640625, 1.26708984375, 0.1136474609375, 1.49560546875
105117, 0.01665394753217697, -0.3623766601085663, -0.1721809208393097, 0.5124576091766357, -0.0007275913958437741, 0.009913873858749866, 0.21892428398132324, -0.007268753834068775, 0.0017328730318695307, 0.3524516522884369, -0.7873450517654419, 0.05957619100809097, -0.3189012766273406, -0.5472812117354522, -3.392883800604045, 9362.0, 30146.0, 35388.0, 9362.0, 8.191736221313477, -0.016460327431559563, -0.060467321425676346, 0.0723118707537651, -0.020152008160948753, 0.005114433355629444, 0.999645471572876, -0.0248433668166399, -0.08439826965332031, 1.489013671875, 1.26708984375, 0.1136474609375, 1.49560546875
105217, 0.017407242208719254, -0.369121789932251, -0.17486369609832764, 0.5346601009368896, -0.0014696911675855517, 0.010084470734000206, 0.22514425218105316, -0.0075735049322247505, 0.0017028760630637407, 0.35245370864868164, -0.7873507738113403, 0.05957990139722824, -0.3235967506142171, -0.5458162186816935, -3.392849926295934, 9362.0, 30146.0, 35388.0, 9362.0, 8.191736221313477, -0.03814474865794182, -0.03660297766327858, -0.18925634026527405, -0.02324644848704338, 0.004117093048989773, 0.9981104135513306, -0.06764353811740875, -0.05751800537109375, 1.4912109375, 1.26708984375, 0.1136474609375, 1.489013671875
105507, 0.019095171242952347, -0.3887875974178314, -0.18463583290576935, 0.6026507019996643, -0.0038067663554102182, 0.010797460563480854, 0.24394024908542633, -0.008555009961128235, 0.0036102812737226486, 0.3524525463581085, -0.7873461842536926, 0.059562020003795624, -0.3168321742707884, -0.5475147936121232, -3.391341824423478, 9362.0, 30146.0, 35388.0, 9362.0, 8.211570739746094, 0.0769050121307373, -0.10757992416620255, -0.017551152035593987, -0.020904727280139923, 0.004506884608417749, 1.0024051666259766, -0.0390077568590641, -0.03959846496582031, 1.49267578125, 1.26708984375, 0.1136474609375, 1.4970703125
105597, 0.019433993846178055, -0.38925492763519287, -0.18867000937461853, 0.6248759627342224, -0.004590753931552172, 0.011138929054141045, 0.2499600052833557, -0.008870105259120464, 0.003538441611453891, 0.35244327783584595, -0.7873455882072449, 0.059577472507953644, -0.3189339454851916, -0.5446745633774697, -3.392808354150416, 9362.0, 30146.0, 35388.0, 9362.0, 8.211570739746094, 0.06058894470334053, 0.16911925375461578, 0.028572270646691322, -0.02004479430615902, 0.006520753260701895, 1.0013302564620972, -0.018483586609363556, -0.03959846496582031, 1.49267578125, 1.26708984375, 0.1136474609375, 1.490478515625
105607, 0.020499536767601967, -0.3913189470767975, -0.1881553828716278, 0.6273788809776306, -0.004679640289396048, 0.011173870414495468, 0.25062617659568787, -0.00890715979039669, 0.003450334072113037, 0.3524382412433624, -0.7873480319976807, 0.05957920476794243, -0.3242599969334853, -0.5439427855072267, -3.39019702277335, 9362.0, 30146.0, 35388.0, 9362.0, 8.191736221313477, -0.19368188083171844, 0.2200039029121399, -0.03890466317534447, -0.02230442687869072, 0.008327718824148178, 1.0016307830810547, -0.03663775697350502, -0.03959846496582031, 1.49267578125, 0.94482421875, 4.4117279052734375, 1.491943359375
105717, 0.018627364188432693, -0.400325208902359, -0.1890946626663208, 0.6553547382354736, -0.005681105423718691, 0.01158006303012371, 0.25804439187049866, -0.00929877907037735, 0.0037939546164125204, 0.3524453938007355, -0.7873457670211792, 0.05955827981233597, -0.3215445893302126, -0.5497102311164213, -3.392737808579126, 9362.0, 30146.0, 35388.0, 9362.0, 8.191736221313477, -0.21494413912296295, 0.12539656460285187, -0.025091269984841347, -0.02131684496998787, 0.006460255943238735, 1.0007942914962769, -0.04596131294965744, -0.06647872924804688, 1.490478515625, 0.94482421875, 4.4117279052734375, 1.48974609375
105827, 0.018736310303211212, -0.4102214276790619, -0.19164501130580902, 0.6841557025909424, -0.006724345963448286, 0.012008153833448887, 0.2656293213367462, -0.00966863613575697, 0.00323192379437387, 0.35245752334594727, -0.7873538732528687, 0.05957052484154701, -0.32030004835584697, -0.5438883333886793, -3.3923570948938266, 9362.0, 30146.0, 35388.0, 9362.0, 8.211570739746094, 0.025516601279377937, 0.15964990854263306, -0.04445582255721092, -0.02112669311463833, 0.006583708338439465, 0.998741626739502, -0.042454179376363754, 0.0052013397216796875, 1.496337890625, 0.94482421875, 4.4117279052734375, 1.490478515625
105917, 0.01739872433245182, -0.4195890426635742, -0.18916834890842438, 0.708347737789154, -0.007608158979564905, 0.012324461713433266, 0.272005170583725, -0.009971597231924534, 0.003941819537431002, 0.3524448275566101, -0.7873525619506836, 0.0595632866024971, -0.3206702508762826, -0.5462023953530775, -3.39154050056434, 9362.0, 30146.0, 35388.0, 9362.0, 8.191736221313477, 0.046822380274534225, 0.3840671479701996, -0.1368580311536789, -0.020813705399632454, 0.006359464954584837, 0.9995022416114807, -0.12473367899656296, 0.13064002990722656, 1.506591796875, 0.94482421875, 4.4117279052734375, 1.48974609375
105927, 0.0175606831908226, -0.4216287136077881, -0.18961694836616516, 0.7110713720321655, -0.007708033546805382, 0.012364314869046211, 0.27272167801856995, -0.010003311559557915, 0.004029080271720886, 0.3524428606033325, -0.7873581647872925, 0.05956362932920456, -0.3175556536325105, -0.5490818172486058, -3.3923738411789963, 9362.0, 30146.0, 35388.0, 9362.0, 8.211570739746094, 0.18690532445907593, -0.4010169208049774, -0.26926150918006897, -0.019471334293484688, 0.009786032140254974, 0.9989299178123474, -0.10567872226238251, -0.2904777526855469, 1.47216796875, 0.94482421875, 4.4117279052734375, 1.48974609375
105937, 0.01845807582139969, -0.4193626046180725, -0.19057585299015045, 0.71380215883255, -0.0078082275576889515, 0.012404581531882286, 0.27344000339508057, -0.010035479441285133, 0.004024599678814411, 0.3524501323699951, -0.7873548269271851, 0.05957034230232239, -0.3202160200794297, -0.546933644380232, -3.3970350504900715, 9362.0, 30146.0, 35388.0, 9362.0, 8.211570739746094, 0.2615666687488556, 0.030308546498417854, 0.06604649871587753, -0.01854083687067032, 0.0074646142311394215, 0.999893069267273, -0.09203016012907028, -0.22775840759277344, 1.477294921875, 0.94482421875, 4.4117279052734375, 1.494140625
105947, 0.02048603817820549, -0.4204578995704651, -0.19104106724262238, 0.7165401577949524, -0.007908744737505913, 0.012444354593753815, 0.27416113018989563, -0.010067915543913841, 0.003930413164198399, 0.3524489998817444, -0.7873554825782776, 0.05955677852034569, -0.31860541221048666, -0.5490677043381709, -3.3939548393400645, 9362.0, 30146.0, 35388.0, 9362.0, 8.191736221313477, -0.20076370239257812, 0.2524220049381256, -0.11050345748662949, -0.021670568734407425, 0.0044684577733278275, 0.9999998211860657, -0.0721970647573471, -0.20087814331054688, 1.4794921875, 0.94482421875, 4.4117279052734375, 1.4970703125
105987, 0.01911015622317791, -0.4239676296710968, -0.19264335930347443, 0.7275641560554504, -0.008314311504364014, 0.012598615139722824, 0.27704691886901855, -0.010211754590272903, 0.003943483345210552, 0.35245218873023987, -0.7873583436012268, 0.05955897271633148, -0.3209887948435842, -0.5455910440157652, -3.3935264961267566, 9362.0, 30146.0, 35388.0, 9362.0, 8.191736221313477, -0.012118075974285603, -0.03951861709356308, -0.1000237762928009, -0.019642464816570282, 0.006138843484222889, 0.9993672966957092, -0.031992387026548386, -0.05751800537109375, 1.4912109375, 0.94482421875, 4.4117279052734375, 1.490478515625
105997, 0.019654618576169014, -0.42404988408088684, -0.1938222348690033, 0.7303382754325867, -0.008416600525379181, 0.012638716027140617, 0.2777738571166992, -0.010246112942695618, 0.004077128600329161, 0.3524482548236847, -0.7873506546020508, 0.05957692489027977, -0.3197045959113245, -0.5468472773445683, -3.3892505099274053, 9362.0, 30146.0, 35388.0, 9362.0, 8.211570739746094, -0.08586049824953079, -0.08766363561153412, -0.3280501365661621, -0.02073352038860321, 0.006918914150446653, 0.9978697896003723, -0.03294941037893295, 0.12168121337890625, 1.505859375, 0.94482421875, 4.4117279052734375, 1.491943359375
106007, 0.019954930990934372, -0.4226963520050049, -0.1957169473171234, 0.7331196665763855, -0.008519237861037254, 0.01267940178513527, 0.2784995436668396, -0.010281283408403397, 0.0040603503584861755, 0.35245710611343384, -0.7873538732528687, 0.05957185477018356, -0.3184088441861661, -0.5446760369642334, -3.387819482619673, 9362.0, 30146.0, 35388.0, 9362.0, 8.211570739746094, 0.09509003907442093, 0.2194208949804306, 0.03751729056239128, -0.02143174782395363, 0.005677587352693081, 1.000022053718567, -0.02542664296925068, -0.06647872924804688, 1.490478515625, 0.94482421875, 4.4117279052734375, 1.494873046875
106017, 0.02038596197962761, -0.42346835136413574, -0.19702686369419098, 0.7359082698822021, -0.008622230961918831, 0.012719221413135529, 0.27922433614730835, -0.010317356325685978, 0.003903975710272789, 0.35245493054389954, -0.7873528003692627, 0.05958060547709465, -0.3240376051869763, -0.5486506676005831, -3.389240901934441, 9362.0, 30146.0, 35388.0, 9362.0, 8.211570739746094, -0.064735047519207, 0.4496452510356903, 0.3818155527114868, -0.020804109051823616, 0.005381548777222633, 1.001517415046692, -0.04100054129958153, 0.014162063598632812, 1.4970703125, 0.94482421875, 4.4117279052734375, 1.494140625
106347, 0.025789283215999603, -0.4345172047615051, -0.21441587805747986, 0.8320567607879639, -0.012249118648469448, 0.01383648905903101, 0.3036463260650635, -0.01172904297709465, 0.002893471624702215, 0.3524487316608429, -0.7873512506484985, 0.05956060439348221, -0.318714937945, -0.5462157163457846, -3.391645354736153, 9362.0, 30146.0, 35388.0, 9362.0, 8.211570739746094, -0.2178269624710083, 0.36225050687789917, -0.0700291097164154, -0.022602317854762077, 0.004565076436847448, 0.999123215675354, -0.040657833218574524, -0.03959846496582031, 1.49267578125, 0.94482421875, 4.4117279052734375, 1.49267578125
106467, 0.028050849214196205, -0.4337157607078552, -0.21572771668434143, 0.86902916431427, -0.013690303079783916, 0.014173092320561409, 0.31255239248275757, -0.012300352565944195, 0.003071348648518324, 0.35244646668434143, -0.7873469591140747, 0.05956020578742027, -0.31668282071569936, -0.5463904857869863, -3.3887910778360872, 9362.0, 30146.0, 35388.0, 9362.0, 8.191736221313477, -0.08146148920059204, -0.08413767069578171, -0.2063954621553421, -0.019056357443332672, 0.004292898345738649, 1.0002961158752441, -0.04733167216181755, 0.023120880126953125, 1.497802734375, 0.94482421875, 4.4117279052734375, 1.491943359375
106707, 0.03592563048005104, -0.44852712750434875, -0.23243719339370728, 0.9462025761604309, -0.0168005358427763, 0.015073924325406551, 0.3306649327278137, -0.013670353218913078, 0.003938694484531879, 0.3524513840675354, -0.7873433232307434, 0.05956437438726425, -0.32455420028244664, -0.5463280379042033, -3.390697257367021, 9362.0, 30146.0, 35388.0, 9362.0, 8.191736221313477, 0.13147571682929993, 0.378267765045166, 0.004765740130096674, -0.020863087847828865, 0.004207482095807791, 1.0003478527069092, -0.05187443271279335, -0.05751800537109375, 1.4912109375, 0.94482421875, 4.4117279052734375, 1.48974609375
106767, 0.03587718680500984, -0.4465768039226532, -0.2329384982585907, 0.9661810398101807, -0.01763243041932583, 0.015316435135900974, 0.3352818489074707, -0.014060481451451778, 0.004138828720897436, 0.3524378836154938, -0.7873545289039612, 0.05956857278943062, -0.3231612638649988, -0.5464462198353317, -3.3913847682251186, 9362.0, 30146.0, 35388.0, 9362.0, 8.191736221313477, -0.10705757886171341, 0.18202006816864014, -0.04686634987592697, -0.020841093733906746, 0.007778369355946779, 0.9989051818847656, -0.052540123462677, -0.08439826965332031, 1.489013671875, 0.94482421875, 4.4117279052734375, 1.4912109375
106937, 0.031177671626210213, -0.46326133608818054, -0.24537263810634613, 1.0242997407913208, -0.020109087228775024, 0.01598307304084301, 0.3485359251499176, -0.015057963319122791, 0.0035803341306746006, 0.35244470834732056, -0.7873517274856567, 0.059557534754276276, -0.3211589783527678, -0.5475149622668596, -3.39321902819365, 9362.0, 30146.0, 35388.0, 9362.0, 8.191736221313477, -0.07359187304973602, -0.09292512387037277, -0.08300430327653885, -0.02260928973555565, 0.007992403581738472, 0.9980502128601074, -0.0565662756562233, -0.0037593841552734375, 1.49560546875, 0.94482421875, 4.4117279052734375, 1.48974609375
107007, 0.0348704494535923, -0.46303611993789673, -0.24633657932281494, 1.0453541278839111, -0.02102302387356758, 0.01616922952234745, 0.3532755970954895, -0.015408975072205067, 0.003167115617543459, 0.35243815183639526, -0.7873570322990417, 0.05954371392726898, -0.32229219579785173, -0.5498953717853396, -3.3959667098355553, 9362.0, 30146.0, 35388.0, 9362.0, 8.191736221313477, 0.027927925810217857, 0.272406667470932, -0.049654461443424225, -0.02187243476510048, 0.004868257790803909, 0.9993753433227539, -0.041970014572143555, 0.13064002990722656, 1.506591796875, 0.94482421875, 4.4117279052734375, 1.49560546875
107407, 0.041133396327495575, -0.48414912819862366, -0.26197436451911926, 1.1968942880630493, -0.02792392112314701, 0.0176632609218359, 0.38625580072402954, -0.018301881849765778, 0.003530793357640505, 0.3524455428123474, -0.7873495221138, 0.05954863876104355, -0.3187601367093358, -0.5508547594029096, -3.3873713240111396, 9362.0, 30146.0, 35388.0, 9362.0, 8.191736221313477, 0.10036655515432358, 0.18507863581180573, 0.16006939113140106, -0.01974470354616642, 0.005075747147202492, 0.9995977282524109, -0.048484932631254196, -0.10231781005859375, 1.487548828125, 0.94482421875, 4.4117279052734375, 1.493408203125
107907, 0.03830522298812866, -0.5061107873916626, -0.28597086668014526, 1.396282434463501, -0.037762705236673355, 0.01907282881438732, 0.42794913053512573, -0.021893475204706192, 0.0023443466052412987, 0.352427214384079, -0.7873508334159851, 0.059569668024778366, -0.32111082298371324, -0.5461420090097988, -3.3895894537160114, 9362.0, 30146.0, 35388.0, 9362.0, 8.211570739746094, 0.08190223574638367, 0.3273265063762665, -0.10736832767724991, -0.02186325564980507, 0.006404909770935774, 1.001193642616272, -0.062430452555418015, 0.014162063598632812, 1.4970703125, 1.768798828125, 0.8681182861328125, 1.491943359375
107917, 0.03880094364285469, -0.5087705254554749, -0.28509199619293213, 1.4048587083816528, -0.03820196911692619, 0.019122082740068436, 0.42968446016311646, -0.02203347347676754, 0.002692783484235406, 0.3524317145347595, -0.7873461246490479, 0.05956282839179039, -0.3219610173366146, -0.5518776227342244, -3.3944550080039404, 9362.0, 30146.0, 35388.0, 9362.0, 8.211570739746094, 0.02691749297082424, -0.14432141184806824, -0.11844095587730408, -0.022608820348978043, 0.006814165972173214, 1.0026297569274902, -0.050482459366321564, -0.0037593841552734375, 1.49560546875, 1.768798828125, 0.8681182861328125, 1.491943359375
107927, 0.03807592764496803, -0.5090055465698242, -0.2854185402393341, 1.4091598987579346, -0.03842265531420708, 0.019149743020534515, 0.43055200576782227, -0.022103480994701385, 0.0028394400142133236, 0.35242989659309387, -0.7873510122299194, 0.05957137048244476, -0.3254981438897746, -0.5448907796620972, -3.3918889899632316, 9362.0, 30146.0, 35388.0, 9362.0, 8.191736221313477, -0.32519587874412537, -0.10786280035972595, 0.36621519923210144, -0.02169111557304859, 0.005379744805395603, 1.0008221864700317, -0.04930879920721054, -0.030637741088867188, 1.493408203125, 1.768798828125, 0.8681182861328125, 1.48974609375
107937, 0.03670497611165047, -0.5094249248504639, -0.2836175858974457, 1.4134697914123535, -0.03864404559135437, 0.019179241731762886, 0.4314247667789459, -0.0221744105219841, 0.003060614923015237, 0.35242998600006104, -0.7873505353927612, 0.059554312378168106, -0.3225420155498982, -0.5456048829344695, -3.3899604770315235, 9362.0, 30146.0, 35388.0, 9362.0, 8.191736221313477, -0.10082889348268509, -0.005262804217636585, -0.17705252766609192, -0.0219817403703928, 0.0067070708610117435, 0.9990140199661255, -0.04908056557178497, -0.030637741088867188, 1.493408203125, 1.768798828125, 0.8681182861328125, 1.4970703125
108057, 0.03686567395925522, -0.5161440968513489, -0.2867974638938904, 1.4658697843551636, -0.04135379195213318, 0.019528167322278023, 0.4419238865375519, -0.022985883057117462, 0.0025319629348814487, 0.35244593024253845, -0.7873489260673523, 0.05955520272254944, -0.31917439253051944, -0.5469785228970352, -3.390496029547662, 9362.0, 30146.0, 35388.0, 9362.0, 8.211570739746094, 0.1926160305738449, 0.060769595205783844, -0.09270849823951721, -0.020675355568528175, 0.004472280386835337, 0.9997431039810181, -0.04492044448852539, -0.030637741088867188, 1.493408203125, 1.768798828125, 0.8681182861328125, 1.49560546875
108067, 0.03580319136381149, -0.5160995125770569, -0.2880895733833313, 1.4658697843551636, -0.04135379195213318, 0.019528167322278023, 0.4419238865375519, -0.022985883057117462, 0.0025319629348814487, 0.35244449973106384, -0.7873480319976807, 0.059557292610406876, -0.3186929466810136, -0.5470305394926243, -3.3938758332242758, 9362.0, 30146.0, 35388.0, 9362.0, 8.191736221313477, 0.1926160305738449, 0.060769595205783844, -0.09270849823951721, -0.020675355568528175, 0.004472280386835337, 0.9997431039810181, -0.03608987107872963, -0.030637741088867188, 1.493408203125, 1.768798828125, 0.8681182861328125, 1.497802734375
108257, 0.03201909735798836, -0.5261755585670471, -0.28716129064559937, 1.5560177564620972, -0.04607725143432617, 0.02005740813910961, 0.45962339639663696, -0.02421942725777626, 0.0022229300811886787, 0.3524470329284668, -0.7873565554618835, 0.05953800305724144, -0.3220470334818578, -0.5460414881155202, -3.3900889786206085, 9362.0, 30146.0, 35388.0, 9362.0, 8.191736221313477, -0.23937499523162842, -0.13688752055168152, -0.17173030972480774, -0.020987628027796745, 0.005552319809794426, 0.9995081424713135, -0.038727495819330215, 0.05896186828613281, 1.500732421875, 1.768798828125, 0.8681182861328125, 1.490478515625
108357, 0.03473569452762604, -0.5302912592887878, -0.29175302386283875, 1.602432131767273, -0.04852939769625664, 0.020283501595258713, 0.46868574619293213, -0.024832120165228844, 0.002566247945651412, 0.3524453938007355, -0.7873478531837463, 0.05954357609152794, -0.316847212030774, -0.5458786509895504, -3.388460832303845, 9362.0, 30146.0, 35388.0, 9362.0, 8.211570739746094, 0.04645131528377533, 0.0488378182053566, 0.103208027780056, -0.02081129513680935, 0.0033768624998629093, 1.0006998777389526, -0.04434053972363472, -0.2187976837158203, 1.47802734375, 1.768798828125, 0.8681182861328125, 1.496337890625
108427, 0.03501393646001816, -0.5359270572662354, -0.2922932207584381, 1.6354625225067139, -0.05028332397341728, 0.020441390573978424, 0.4750547707080841, -0.025284454226493835, 0.0019516226602718234, 0.3524429500102997, -0.7873563766479492, 0.05954942852258682, -0.3189757306161231, -0.5479215174241006, -3.3918960047674656, 9362.0, 30146.0, 35388.0, 9362.0, 8.211570739746094, -0.014785912819206715, 0.16889286041259766, -0.04724574461579323, -0.022065963596105576, 0.006943540181964636, 0.9991930723190308, -0.04628806933760643, -0.06647872924804688, 1.490478515625, 1.768798828125, 0.8681182861328125, 1.48681640625
108457, 0.03420563042163849, -0.5356175303459167, -0.2915361523628235, 1.6497554779052734, -0.0510447733104229, 0.02049713209271431, 0.477811336517334, -0.025478672236204147, 0.001845005201175809, 0.3524470627307892, -0.7873498201370239, 0.0595397986471653, -0.3237415355592311, -0.5439108233850618, -3.3924496979346466, 9362.0, 30146.0, 35388.0, 9362.0, 8.191736221313477, -0.09984564781188965, 0.07157953083515167, -0.032016221433877945, -0.022065963596105576, 0.006943540181964636, 0.9991930723190308, -0.050451140850782394, -0.15607833862304688, 1.483154296875, 1.768798828125, 0.8681182861328125, 1.493408203125
108467, 0.03351011127233505, -0.5367262959480286, -0.29081523418426514, 1.6497554779052734, -0.0510447733104229, 0.02049713209271431, 0.477811336517334, -0.025478672236204147, 0.001845005201175809, 0.3524402379989624, -0.7873475551605225, 0.05953657999634743, -0.3208889717106755, -0.5485203003244408, -3.38890178324662, 9362.0, 30146.0, 35388.0, 9362.0, 8.191736221313477, -0.09984564781188965, 0.07157953083515167, -0.032016221433877945, -0.022065963596105576, 0.006943540181964636, 0.9991930723190308, -0.04668339714407921, -0.0037593841552734375, 1.49560546875, 1.768798828125, 0.8681182861328125, 1.493408203125
108507, 0.034084293991327286, -0.5370499491691589, -0.2882186770439148, 1.6737608909606934, -0.052326641976833344, 0.020611776039004326, 0.48240330815315247, -0.025795506313443184, 0.002489646663889289, 0.3524419367313385, -0.7873495817184448, 0.05953659862279892, -0.3209297202283618, -0.5443510280962869, -3.391586479483443, 9362.0, 30146.0, 35388.0, 9362.0, 8.191736221313477, 0.0015865500317886472, -0.03014223277568817, -0.13090582191944122, -0.020327545702457428, 0.006099614314734936, 1.001762866973877, -0.05087392032146454, 0.15752029418945312, 1.5087890625, 1.768798828125, 0.8681182861328125, 1.491943359375
108557, 0.03589840233325958, -0.5395673513412476, -0.29069364070892334, 1.6979960203170776, -0.05362436920404434, 0.0207458958029747, 0.48700013756752014, -0.026115968823432922, 0.002785623772069812, 0.352444589138031, -0.7873510718345642, 0.059540703892707825, -0.3173771683383647, -0.5458014953641452, -3.3914790294059096, 9362.0, 30146.0, 35388.0, 9362.0, 8.211570739746094, 0.0077363913878798485, 0.3018486499786377, 0.06433556228876114, -0.02078130654990673, 0.00511934095993638, 0.9998932480812073, -0.07057569921016693, 0.10376167297363281, 1.50439453125, 1.768798828125, 0.8681182861328125, 1.494873046875
108567, 0.03601405397057533, -0.5410215258598328, -0.29067009687423706, 1.6979960203170776, -0.05362436920404434, 0.0207458958029747, 0.48700013756752014, -0.026115968823432922, 0.002785623772069812, 0.35244643688201904, -0.787356972694397, 0.0595192052423954, -0.32168822138122194, -0.5481458063486571, -3.386918552040933, 9362.0, 30146.0, 35388.0, 9362.0, 8.211570739746094, -0.14405351877212524, 0.08296344429254532, -0.01910051330924034, -0.02078130654990673, 0.00511934095993638, 0.9998932480812073, -0.07403131574392319, -0.03959846496582031, 1.49267578125, 1.768798828125, 0.8681182861328125, 1.496337890625
108667, 0.035881079733371735, -0.5408401489257812, -0.29219701886177063, 1.7521247863769531, -0.0565374493598938, 0.021043863147497177, 0.4971643090248108, -0.02684910036623478, 0.002491757972165942, 0.3525390923023224, -0.7872503399848938, 0.05987285450100899, -0.3200936630393004, -0.6063955273102692, -3.3072777911068094, 9362.0, 30146.0, 35388.0, 9362.0, 8.191736221313477, 0.3188409209251404, 0.12350711226463318, -0.013704029843211174, -0.021550439298152924, 0.005261342041194439, 0.999714732170105, -0.03658519312739372, 0.023120880126953125, 1.497802734375, 1.768798828125, 0.8681182861328125, 1.493408203125
108907, 0.07758526504039764, -0.47951361536979675, -0.20746828615665436, 0.3602786064147949, -0.7891287803649902, 0.059637393802404404, 0.3924355208873749, -0.08910670876502991, 0.0049935211427509785, 0.35760682821273804, -0.7921523451805115, 0.08269137144088745, -2.3785873168743312, 4.1913504961350725, 16.376711683081822, 38412.0, 39508.0, 2621.0, 38712.0, 8.191736221313477, 3.26755428314209, -4.358023166656494, 150.89248657226562, -0.15646083652973175, 0.02312292717397213, 0.9390154480934143, 0.08461214601993561, 0.15752029418945312, 1.5087890625, 1.768798828125, 0.8681182861328125, 1.57177734375
108917, 0.11497059464454651, -0.41118553280830383, 0.9223083257675171, 0.36420705914497375, -0.7900204658508301, 0.05968574061989784, 0.3932546377182007, -0.08922640979290009, 0.004676124546676874, 0.36467245221138, -0.7970309853553772, 0.09410024434328079, -0.19481676169051373, 7.4712294265920605, 14.465628183882222, 44323.0, 39508.0, 2621.0, 42493.0, 8.132232666015625, -8.830562591552734, -16.28508758544922, -3.5802271366119385, -0.3934134244918823, 0.1969638615846634, 1.0640827417373657, 0.09565307945013046, 0.39048004150390625, 1.52783203125, 1.768798828125, 0.8681182861328125, 1.57177734375
108927, 0.019145814701914787, 0.03642812371253967, 1.0221436023712158, 0.3681434988975525, -0.7909134030342102, 0.0597078911960125, 0.3941190540790558, -0.08935283124446869, -0.0002481499104760587, 0.36805108189582825, -0.7978448867797852, 0.10533353686332703, 2.072391736543955, 10.634408791855833, 13.597759282312637, 47275.0, 39508.0, 2621.0, 44161.0, 8.152067184448242, 4.3136420249938965, -52.19449996948242, 22.713144302368164, -0.7944751977920532, 0.029711775481700897, 1.1610325574874878, 0.14393936097621918, 0.48903846740722656, 1.535888671875, 1.768798828125, 0.8681182861328125, 1.6845703125
109127, 2.1477181911468506, 0.8628830909729004, -0.23730339109897614, 0.3549993336200714, -0.7878098487854004, 0.06085952743887901, 0.035867173224687576, -0.010314208455383778, 0.13902010023593903, 0.33003148436546326, -0.8189607858657837, 0.2658652663230896, -9.594444286533466, 8.653722571261966, 49.11160685709394, 48380.0, 37576.0, 2621.0, 47437.0, 7.636364459991455, 25.83036231994629, -46.436180114746094, 326.288330078125, 0.0837850272655487, -1.111697793006897, 1.557279348373413, 2.1072988510131836, 2.6483898162841797, 1.71240234375, 1.768798828125, 0.8681182861328125, 1.742431640625
109247, -0.5256820917129517, 12.678937911987305, 20.770896911621094, 0.3565254211425781, -0.7940046191215515, 0.0988004133105278, -0.11041118204593658, -0.06684432923793793, 0.7060690522193909, 0.2807903289794922, -0.8085951209068298, 0.3733469843864441, -15.658039266845881, 8.314394458265127, 62.295168480157955, 42439.0, 28585.0, 65535.0, 43915.0, 7.715703010559082, -191.93927001953125, -118.99287414550781, -153.17626953125, -0.9832587838172913, -0.45977550745010376, 0.9903658628463745, 2.0560758113861084, 2.1376724243164062, 1.670654296875, 1.768798828125, 0.8681182861328125, 1.493408203125
109297, -5.230275630950928, 12.780872344970703, 29.52001190185547, 0.3574131727218628, -0.7976364493370056, 0.1314973533153534, -0.21203096210956573, -0.09523766487836838, 0.8000428676605225, 0.23806075751781464, -0.7894535064697266, 0.43666720390319824, -13.981849840168655, 8.231064552737507, 76.36357494731728, 40784.0, 30336.0, 65535.0, 42442.0, 7.735538005828857, 30.0853328704834, -63.88285827636719, 192.58302307128906, 0.46872907876968384, -2.9920835494995117, 0.8150278329849243, 1.9687554836273193, 1.2864761352539062, 1.60107421875, 1.768798828125, 0.8681182861328125, 1.515380859375
109387, -13.653362274169922, 9.369473457336426, 43.01411437988281, 0.33998650312423706, -0.8064479827880859, 0.20092160999774933, -0.4111284017562866, -0.09550042450428009, 0.8174423575401306, 0.14544032514095306, -0.7769763469696045, 0.5458204746246338, -3.538537750941946, 6.2584016696785625, 90.64192418349195, 40784.0, 30336.0, 65535.0, 42442.0, 7.814876556396484, 79.66742706298828, -6.841969013214111, 432.5502624511719, 0.43439605832099915, 1.3600982427597046, 0.43282273411750793, 1.7822922468185425, 1.7882328033447266, 1.64208984375, 1.768798828125, 0.8681182861328125, 1.623779296875
109397, -13.36689567565918, 8.966903686523438, 45.12843704223633, 0.3357950448989868, -0.8073909282684326, 0.20890642702579498, -0.4263134002685547, -0.09554906189441681, 0.7794909477233887, 0.1383001059293747, -0.778218686580658, 0.5566352605819702, -3.131722373602794, 5.696046943604472, 102.13026076085394, 40784.0, 30336.0, 65535.0, 42442.0, 7.755372524261475, -43.730873107910156, -5.272714138031006, 168.34954833984375, 0.43439605832099915, 1.3600982427597046, 0.43282273411750793, 1.7875399589538574, 1.8778324127197266, 1.6494140625, 1.768798828125, 0.8681182861328125, 1.623779296875
109417, -14.636610984802246, 7.758965492248535, 48.82111358642578, 0.33422794938087463, -0.8105013370513916, 0.2246948629617691, -0.45786964893341064, -0.08995860815048218, 0.7822448015213013, 0.12111087888479233, -0.778396487236023, 0.5810288190841675, -4.190403169165038, 4.944874529303689, 101.11497200836953, 40784.0, 30336.0, 65535.0, 42442.0, 7.795042037963867, 155.68374633789062, -19.14209747314453, 230.39425659179688, -1.345735788345337, -0.9976358413696289, 2.6584341526031494, 1.8405429124832153, 1.3133563995361328, 1.603271484375, 1.768798828125, 0.8681182861328125, 1.60693359375
109487, -15.612329483032227, 7.6463494300842285, 58.1483154296875, 0.30056315660476685, -0.8168470859527588, 0.2849169075489044, -0.657389223575592, -0.05755118280649185, 0.8267905712127686, 0.08249195665121078, -0.7829853892326355, 0.6469398736953735, 1.697199868715784, 4.450171204685063, 111.74869859269661, 40784.0, 30336.0, 65535.0, 42442.0, 7.83471155166626, 102.58479309082031, -60.605430603027344, 509.7105712890625, 0.8970221877098083, 1.2357558012008667, 0.3051835298538208, 1.7241655588150024, 2.173511505126953, 1.673583984375, 1.768798828125, 0.8681182861328125, 1.61572265625
109797, 0.2203657031059265, -1.685497522354126, 112.47581481933594, 0.07252541929483414, -0.7955910563468933, 0.5775132179260254, -1.0519527196884155, -0.026093747466802597, 0.9533587694168091, 0.0034226328134536743, -0.7679942846298218, 0.934730052947998, -4.85130129278472, -10.201919294693454, 170.09260842628316, 37404.0, 31115.0, 65535.0, 42450.0, 7.735538005828857, 95.41492462158203, 48.86207962036133, -119.50714111328125, 0.2146809846162796, 2.0731823444366455, 2.0139718055725098, 1.676079273223877, 2.7290287017822266, 1.718994140625, 1.9072265625, 1.4620513916015625, 1.575439453125
109827, 2.7109901905059814, -2.611844778060913, 118.67717742919922, 0.05672392621636391, -0.7921808958053589, 0.6093965768814087, -1.0054576396942139, 0.0002949314075522125, 0.9366933107376099, -0.007380716502666473, -0.7618935108184814, 0.969043493270874, -6.380016042266379, -10.438509050523322, 163.67589126797796, 37404.0, 31115.0, 65535.0, 42450.0, 7.656198978424072, -42.034767150878906, 53.92993927001953, 398.4732666015625, 0.8579006195068359, -2.444584608078003, 0.485198974609375, 1.573559045791626, 1.5642337799072266, 1.623779296875, 1.9072265625, 1.4620513916015625, 1.541748046875
109917, 1.32625150680542, -4.193754196166992, 132.49862670898438, -0.013867421075701714, -0.7877917885780334, 0.6985073089599609, -0.9461426138877869, 0.07165780663490295, 0.9435938000679016, -0.05487647280097008, -0.7514311075210571, 1.0687737464904785, -6.884155835898746, -15.878235047857146, 179.0318586285492, 37404.0, 31115.0, 65535.0, 42450.0, 7.83471155166626, -158.03456115722656, 66.98753356933594, 388.64349365234375, 0.2024541199207306, 0.579077422618866, 0.8811162114143372, 1.64484441280365, 1.4298343658447266, 1.61279296875, 1.9072265625, 1.4620513916015625, 1.560791015625
110617, -3.1332926750183105, 4.993175983428955, -177.25946044921875, -0.3625722825527191, -0.7722436189651489, 1.2713425159454346, -0.9201929569244385, -0.16372723877429962, 0.2801351249217987, -0.4209538400173187, -0.9181730151176453, 1.2922141551971436, -1.586899062520285, 2.0476719596387625, -177.59879013608983, 35237.0, 29476.0, 35631.0, 34758.0, 7.933885097503662, 14.328822135925293, -48.99695587158203, -199.920166015625, -0.1293542981147766, -0.33000510931015015, 0.21769092977046967, 0.7531482577323914, 0.6592788696289062, 1.5498046875, 1.825927734375, 1.070709228515625, 1.44580078125
110627, -2.8131330013275146, 5.562844276428223, -178.3501739501953, -0.3717591166496277, -0.7738906741142273, 1.2738368511199951, -0.9177302122116089, -0.16573964059352875, 0.218720480799675, -0.4235022962093353, -0.9270385503768921, 1.2871865034103394, 0.3993896923823223, 1.8485426862394831, 179.07266430373875, 35237.0, 29476.0, 35631.0, 34758.0, 7.9537200927734375, 62.476837158203125, -27.45197105407715, 169.92478942871094, 0.384713351726532, -0.2060174196958542, 0.9872431755065918, 0.7549976706504822, 1.0803966522216797, 1.584228515625, 1.825927734375, 1.070709228515625, 1.44580078125
110637, -2.4952220916748047, 5.688198089599609, -177.03701782226562, -0.3809284269809723, -0.7755525708198547, 1.2756224870681763, -0.9171501398086548, -0.16717669367790222, 0.1384650319814682, -0.42768871784210205, -0.9265264272689819, 1.2792733907699585, -2.256222173100515, 0.05137952436979276, 174.58189297517168, 32163.0, 25896.0, 31391.0, 33101.0, 7.9140496253967285, 36.173274993896484, -1.4474660158157349, -154.98190307617188, -0.7646656632423401, -0.3139602243900299, -0.2206268608570099, 0.6983597874641418, 0.6682376861572266, 1.550537109375, 1.825927734375, 1.070709228515625, 1.436279296875
110647, -1.9888466596603394, 5.841053009033203, -178.41807556152344, -0.39006146788597107, -0.7772424817085266, 1.27690589427948, -0.909659743309021, -0.17079418897628784, 0.11817819625139236, -0.4293798506259918, -0.9297305345535278, 1.272742509841919, -0.4947587787636453, -0.7423165648521604, 175.78255849460047, 31988.0, 26048.0, 30785.0, 33244.0, 7.9140496253967285, 60.25688171386719, -82.83712768554688, -67.11799621582031, 0.12991522252559662, -0.23847460746765137, 0.6154277920722961, 0.6883453726768494, 1.2954349517822266, 1.601806640625, 1.825927734375, 1.070709228515625, 1.462646484375
110657, -1.461930274963379, 6.468008995056152, -179.0640411376953, -0.39916491508483887, -0.7789478302001953, 1.2775297164916992, -0.9115524291992188, -0.17128536105155945, 0.006682630628347397, -0.431613951921463, -0.9348269104957581, 1.268196702003479, -0.5232226647973808, -1.2303072070559153, 178.72519859688032, 31988.0, 26048.0, 30785.0, 33244.0, 7.933885097503662, -16.666410446166992, 40.78120040893555, -414.3379821777344, -0.5749932527542114, 0.21041321754455566, 2.1536784172058105, 0.7536900639533997, 0.4263191223144531, 1.53076171875, 2.04052734375, 2.5884857177734375, 1.462646484375
110667, -1.1347647905349731, 6.309604644775391, 177.84951782226562, -0.3942446708679199, -0.7900207042694092, 1.2852028608322144, -0.8688434958457947, -0.19564901292324066, -0.01729624904692173, -0.43096721172332764, -0.9411708116531372, 1.2656234502792358, 0.7572176172441493, 0.3935778322650947, 178.87593358693277, 32107.0, 27586.0, 31508.0, 34212.0, 7.8942155838012695, 146.54736328125, 5.554957389831543, 783.0487670898438, -0.5325051546096802, -1.1681393384933472, 0.6076101064682007, 0.9169293642044067, 0.5696792602539062, 1.54248046875, 2.04052734375, 2.5884857177734375, 1.462646484375
111247, 3.4080257415771484, -4.0156941413879395, 178.7945556640625, -0.4896344542503357, -0.9504596590995789, 1.2017982006072998, -0.22807812690734863, 0.018621575087308884, -0.10157188773155212, -0.6103729009628296, -0.9601296782493591, 1.1528737545013428, -5.85037963193265, -6.886425950109299, 175.4254512369877, 38468.0, 30034.0, 32785.0, 38659.0, 7.755372524261475, 125.10952758789062, 42.55348587036133, 287.4562683105469, -0.18725401163101196, -1.3968443870544434, 1.001579999923706, 1.208009123802185, 0.4263191223144531, 1.53076171875, 1.146240234375, 0.7736968994140625, 1.5791015625
111267, 6.1870622634887695, -4.403328895568848, 179.71177673339844, -0.49427366256713867, -0.9500018954277039, 1.1988940238952637, -0.23708058893680573, 0.02724950760602951, -0.17332413792610168, -0.6271795034408569, -0.9559801816940308, 1.1549981832504272, -7.05748294856234, -6.378893716930577, 176.57150355159055, 36342.0, 29852.0, 33912.0, 40412.0, 7.874380588531494, -123.03063201904297, -28.218503952026367, -134.55184936523438, 0.8866699934005737, -0.48883306980133057, 1.0083106756210327, 1.358302116394043, 1.3491954803466797, 1.606201171875, 1.146240234375, 0.7736968994140625, 1.487548828125
111277, 5.825486660003662, -4.310186862945557, -178.97987365722656, -0.49668973684310913, -0.9496791958808899, 1.1972841024398804, -0.24607038497924805, 0.038093533366918564, -0.14897364377975464, -0.6397571563720703, -0.9632682800292969, 1.1554713249206543, -4.294332628236802, -5.588421031165609, 173.73395990282273, 36342.0, 29852.0, 33912.0, 40412.0, 7.755372524261475, -71.98262023925781, -4.094761371612549, -488.2117919921875, -1.3706891536712646, -1.9600145816802979, 0.2789362967014313, 1.2536977529525757, 0.6234378814697266, 1.546875, 1.146240234375, 0.7736968994140625, 1.505859375
111287, 5.02099084854126, -4.4578070640563965, 178.4825897216797, -0.49920350313186646, -0.9492225050926208, 1.195997953414917, -0.25701940059661865, 0.05274716019630432, -0.10813672840595245, -0.6458505988121033, -0.9660019278526306, 1.1572221517562866, -6.349586326443963, -5.663399108902837, 174.65532053472575, 36342.0, 29852.0, 33912.0, 40412.0, 7.775207042694092, -42.563053131103516, -30.560407638549805, 511.4963073730469, 0.34129267930984497, 1.6622037887573242, 1.6905046701431274, 1.2106457948684692, 1.3939952850341797, 1.60986328125, 1.146240234375, 0.7736968994140625, 1.505859375
111297, 4.277270317077637, -4.265359401702881, -179.82666015625, -0.49920350313186646, -0.9492225050926208, 1.195997953414917, -0.25701940059661865, 0.05274716019630432, -0.10813672840595245, -0.6495742797851562, -0.9682467579841614, 1.1607805490493774, -3.872432117454593, -3.612145791764533, 176.01255037844155, 36342.0, 29852.0, 33912.0, 40412.0, 7.854546070098877, -70.52206420898438, 53.643531799316406, -137.9491424560547, 0.5649448037147522, 0.6553243398666382, 2.2436630725860596, 1.2106457948684692, 1.3939952850341797, 1.60986328125, 1.146240234375, 0.7736968994140625, 1.505859375
111317, 3.083958625793457, -4.7076263427734375, 178.088623046875, -0.4998249113559723, -0.9511496424674988, 1.1890560388565063, -0.26507899165153503, 0.0710444375872612, -0.05968611687421799, -0.660997748374939, -0.9638394713401794, 1.160786509513855, -6.542453531022989, -5.26633129416652, 177.68030584658703, 36342.0, 29852.0, 33912.0, 40412.0, 7.775207042694092, -90.53005981445312, 8.66457462310791, -551.0769653320312, 0.5649448037147522, 0.6553243398666382, 2.2436630725860596, 1.3397401571273804, 1.6896743774414062, 1.634033203125, 1.146240234375, 0.7736968994140625, 1.52197265625
111337, 4.83742094039917, -4.561058044433594, 179.3829345703125, -0.5051885843276978, -0.9496774673461914, 1.186667561531067, -0.27395644783973694, 0.07703542709350586, -0.15201735496520996, -0.6725626587867737, -0.9724344611167908, 1.1622917652130127, -4.706099063668355, -3.8694826359657384, 173.03824600227733, 36342.0, 29852.0, 33912.0, 40412.0, 7.795042037963867, 75.15753936767578, 31.565406799316406, -2.551661968231201, 0.5649448037147522, 0.6553243398666382, 2.2436630725860596, 1.4426199197769165, 1.0893573760986328, 1.5849609375, 1.146240234375, 0.7736968994140625, 1.52197265625
111907, 1.4502357244491577, 4.756316661834717, 178.39683532714844, -0.7392946481704712, -0.971155047416687, 1.1832168102264404, -0.3762069642543793, -0.02326187677681446, 0.054058805108070374, -0.8081629276275635, -1.0735926628112793, 1.2088236808776855, -0.3474667079901477, 1.7975189405009644, 171.67784368767124, 36741.0, 29952.0, 33496.0, 37222.0, 7.854546070098877, 184.0441436767578, 42.4504508972168, 792.7642822265625, -0.5601374506950378, -1.1309006214141846, 2.5331995487213135, 1.1748347282409668, 1.2864761352539062, 1.60107421875, 1.146240234375, 0.7736968994140625, 1.494873046875
112077, 3.775083303451538, 5.127955436706543, -179.4962615966797, -0.7870514392852783, -1.0042892694473267, 1.1959761381149292, -0.23641200363636017, -0.045521002262830734, 0.11976542323827744, -0.8248994946479797, -1.0879398584365845, 1.2042460441589355, -0.2041263081825308, -0.3812074734284181, 177.361112379946, 36741.0, 29952.0, 33496.0, 37222.0, 7.83471155166626, 41.52610778808594, -11.072576522827148, -289.3973693847656, 0.0338602252304554, -0.8978463411331177, 1.167837142944336, 0.9999566674232483, 1.0983161926269531, 1.585693359375, 1.146240234375, 0.7736968994140625, 1.5029296875
112377, 4.719212055206299, 3.228746175765991, -178.52684020996094, -0.8143976330757141, -1.062599778175354, 1.2022863626480103, -0.0006003060843795538, -0.007023016456514597, -0.02843501605093479, -0.8620631694793701, -1.1029160022735596, 1.1905076503753662, 0.19492798433063324, -0.0006666652773503756, 171.23049671639703, 36741.0, 29952.0, 33496.0, 37222.0, 7.795042037963867, -164.31204223632812, 28.234474182128906, 201.7201385498047, -0.38277408480644226, 0.4345364272594452, -0.08018160611391068, 0.9754786491394043, 0.4263191223144531, 1.53076171875, 1.146240234375, 0.7736968994140625, 1.51025390625
