timeTick, roll, pitch, yaw, stateX, stateY, stateZ, stateVX, stateVY, stateVZ, otX0, otY0, otZ0, otRoll0, otPitch0, otYaw0, left wing, pitch motor, yaw motor, right wing, voltage, roll rate, pitch rate, yaw rate, A_x, A_y, A_z, current, i_raw, v_raw, airflow_voltage, airflow_speed, pot_Pitch
47669, 0.32783979177474976, -5.309807300567627, 1.8196865320205688, 0, 0, 0, 0, 0, 0, -0.3519887626171112, -0.9094278812408447, 0.06613174080848694, -0.3834321941152165, 0.41536447101572094, 3.1779230376169005, 0, 0, 0, 0, 0, 0, 0, 0, 0, 0, 0, 0, 0, 0, 0, 0, 0
47679, 0.3258633017539978, -5.307698726654053, 1.8192265033721924, 0.00047872605500742793, -1.4428662325371988e-05, 10.765397071838379, 0.052419621497392654, -0.0015800726832821965, 0.46525850892066956, -0.3519684076309204, -0.9094409942626953, 0.06616506725549698, -0.37364057252349697, 0.4217777836861387, 3.1922324644269717, 9362.0, 30146.0, 35388.0, 9362.0, 8.370248794555664, -0.012478812597692013, -0.2077503502368927, 0.15058088302612305, -0.005859891418367624, 0.003118407679721713, 1.0010535717010498, -0.0696212574839592, -0.05751800537109375, 1.4912109375, 1.07666015625, 1.58135986328125, 0
47689, 0.3266576826572418, -5.306979179382324, 1.8207614421844482, 0.0010484021622687578, -3.159388870699331e-05, 10.770048141479492, 0.06151561439037323, -0.0018530291272327304, 0.46488597989082336, -0.3519701063632965, -0.9094386100769043, 0.06615500897169113, -0.3787902212294493, 0.41958053992371447, 3.184296113815975, 9362.0, 30146.0, 35388.0, 9362.0, 8.370248794555664, -0.018618062138557434, -0.10974815487861633, 0.017428843304514885, -0.0031795878894627094, 0.0020850985310971737, 1.001325249671936, -0.060693997889757156, 0.014162063598632812, 1.4970703125, 0.8935546875, 6.1177825927734375, 1.49560546875
47699, 0.3274429738521576, -5.305976867675781, 1.821564793586731, 0.001709043513983488, -5.147339834365994e-05, 10.77469539642334, 0.07061267644166946, -0.002122635720297694, 0.46456485986709595, -0.35196566581726074, -0.9094372987747192, 0.06617019325494766, -0.3746278423615541, 0.4153742204990465, 3.1879524771818697, 9362.0, 30146.0, 35388.0, 9362.0, 8.370248794555664, 0.026634756475687027, 0.15321220457553864, -0.08811543136835098, -0.004417155869305134, 0.0001968279539141804, 1.001062273979187, -0.05449962988495827, -0.24567794799804688, 1.475830078125, 0.954345703125, 4.13690185546875, 1.4912109375
47709, 0.32819613814353943, -5.305903911590576, 1.8221817016601562, 0.0024606608785688877, -7.405508949887007e-05, 10.779339790344238, 0.07971082627773285, -0.002393583068624139, 0.4642683267593384, -0.3519771099090576, -0.9094398617744446, 0.0661625787615776, -0.3747712036470841, 0.4178775076930492, 3.1959225528143542, 9362.0, 30146.0, 35388.0, 9362.0, 8.370248794555664, 0.04757764935493469, -0.11363484710454941, 0.19935110211372375, -0.004326423164457083, 0.0020475510973483324, 1.0009621381759644, -0.05973343551158905, 0.0052013397216796875, 1.496337890625, 0.573486328125, 28.99310302734375, 1.49560546875
47719, 0.32923224568367004, -5.3062520027160645, 1.8250315189361572, 0.0033032475039362907, -9.935250272974372e-05, 10.783981323242188, 0.08880650252103806, -0.0026658079586923122, 0.46396303176879883, -0.35197022557258606, -0.9094431400299072, 0.0661625936627388, -0.375185541024687, 0.41905062680280025, 3.1896559968516107, 9362.0, 30146.0, 35388.0, 9362.0, 8.370248794555664, 0.09536614269018173, -0.0156871248036623, 0.042327288538217545, -0.005167349707335234, 0.0026605103630572557, 1.0001859664916992, -0.050419554114341736, 0.09480094909667969, 1.503662109375, 1.7138671875, 0.7057647705078125, 1.4912109375
47729, 0.330427885055542, -5.307651996612549, 1.8264238834381104, 0.004236770793795586, -0.00012737754150293767, 10.788619041442871, 0.09789814054965973, -0.002938757883384824, 0.4636152386665344, -0.3519703149795532, -0.9094448089599609, 0.06615786254405975, -0.37402079192589616, 0.4201047030562961, 3.1889523599900005, 9362.0, 30146.0, 35388.0, 9362.0, 8.370248794555664, -0.1982218474149704, -0.14606785774230957, 0.09847769141197205, -0.0036405979190021753, 0.0017263548215851188, 1.0022308826446533, -0.05129825323820114, 0.06792068481445312, 1.50146484375, 1.346923828125, 0.015472412109375, 1.4912109375
47739, 0.3298090994358063, -5.306593418121338, 1.8282588720321655, 0.005261195823550224, -0.00015813806385267526, 10.793252944946289, 0.1069868877530098, -0.003213136689737439, 0.4632289409637451, -0.35198190808296204, -0.9094420075416565, 0.06616762280464172, -0.37309964855875166, 0.4200637422588045, 3.186296339584122, 9362.0, 30146.0, 35388.0, 9362.0, 8.370248794555664, 0.04211387410759926, -0.05996139347553253, -0.04028742015361786, -0.0034314184449613094, 0.003282854100689292, 1.0019975900650024, -0.04108117148280144, -0.04855918884277344, 1.491943359375, 0.985107421875, 3.3311920166015625, 1.489013671875
47749, 0.3299894630908966, -5.306523323059082, 1.8298933506011963, 0.006376597564667463, -0.00019165346748195589, 10.797883987426758, 0.11609350144863129, -0.0034896456636488438, 0.46300849318504333, -0.35197094082832336, -0.9094429612159729, 0.06616108864545822, -0.3701725762303327, 0.424246381380442, 3.188592078141644, 9362.0, 30146.0, 35388.0, 9362.0, 8.370248794555664, 0.02535717561841011, -0.29052624106407166, -0.25957244634628296, -0.005929040256887674, 0.0013866638764739037, 0.9983869791030884, -0.04824768379330635, -0.030637741088867188, 1.493408203125, 1.8427734375, 1.1400146484375, 1.490478515625
47759, 0.3303636908531189, -5.305859565734863, 1.829840898513794, 0.007583051919937134, -0.00022792734671384096, 10.802513122558594, 0.1251974105834961, -0.003764874069020152, 0.4627787172794342, -0.35197561979293823, -0.9094392657279968, 0.0661822035908699, -0.37447345492917444, 0.4178432521342472, 3.1895548213285174, 9362.0, 30146.0, 35388.0, 9362.0, 8.370248794555664, 0.10426823794841766, 0.2916032373905182, 0.28861719369888306, -0.005596826784312725, 0.0009677351918071508, 0.9989269971847534, -0.04373200982809067, 0.08584022521972656, 1.5029296875, 0.796875, 10.53936767578125, 1.4853515625
47769, 0.33083027601242065, -5.3086934089660645, 1.831192135810852, 0.008880417793989182, -0.00026694993721321225, 10.807138442993164, 0.13427571952342987, -0.004039652179926634, 0.4622747302055359, -0.35197246074676514, -0.9094395041465759, 0.06615148484706879, -0.3807897645565393, 0.4248790492418095, 3.1916997288080373, 9362.0, 30146.0, 35388.0, 9362.0, 8.370248794555664, 0.1885562241077423, -0.2823430597782135, -0.10189217329025269, -0.005986829753965139, 0.002596323611214757, 0.9985520243644714, -0.04310853034257889, -0.04855918884277344, 1.491943359375, 0.7763671875, 11.711318969726562, 1.493408203125
47779, 0.3318551480770111, -5.307945728302002, 1.8311772346496582, 0.010268541984260082, -0.00030872313072904944, 10.811758041381836, 0.1433490514755249, -0.0043147774413228035, 0.46172916889190674, -0.3519725501537323, -0.9094334840774536, 0.06616881489753723, -0.3753807474851195, 0.4204552507415258, 3.187211721801298, 9362.0, 30146.0, 35388.0, 9362.0, 8.370248794555664, -0.009918991476297379, -0.09001323580741882, -0.08276593685150146, -0.005979408975690603, 0.002481685485690832, 0.9988593459129333, -0.031942300498485565, -0.01271820068359375, 1.494873046875, 1.798095703125, 0.966583251953125, 1.4912109375
47789, 0.3316824734210968, -5.308420181274414, 1.8313241004943848, 0.011747421696782112, -0.00035324969212524593, 10.816372871398926, 0.15242698788642883, -0.004590540658682585, 0.46118059754371643, -0.35198333859443665, -0.9094419479370117, 0.06615429371595383, -0.37925476782209727, 0.42120569224917404, 3.191506630965806, 9362.0, 30146.0, 35388.0, 9362.0, 8.370248794555664, -0.17652475833892822, -0.1975237876176834, -0.14910337328910828, -0.005205706227570772, 0.0023188095074146986, 1.000239372253418, -0.03916209191083908, -0.030637741088867188, 1.493408203125, 1.72412109375, 0.73431396484375, 1.490478515625
47799, 0.3312150239944458, -5.308304309844971, 1.8309509754180908, 0.013317080214619637, -0.00040054303826764226, 10.820981979370117, 0.16150476038455963, -0.004868099465966225, 0.46064355969429016, -0.3519657850265503, -0.9094339609146118, 0.06616184115409851, -0.3740618271820201, 0.42448453719961776, 3.185942713899428, 9362.0, 30146.0, 35388.0, 9362.0, 8.370248794555664, -0.007551115471869707, -0.2995302677154541, -0.15151959657669067, -0.004935195203870535, 0.003163193352520466, 0.9985307455062866, -0.04207902029156685, -0.04855918884277344, 1.491943359375, 1.283935546875, 0.075897216796875, 1.4912109375
47809, 0.3308221697807312, -5.305192470550537, 1.8285613059997559, 0.014977587386965752, -0.0004506122786551714, 10.825586318969727, 0.17059677839279175, -0.005145806819200516, 0.46025100350379944, -0.35198336839675903, -0.9094388484954834, 0.06615999341011047, -0.36994605209271814, 0.42492324636552326, 3.1887215465185785, 9362.0, 30146.0, 35388.0, 9362.0, 8.370248794555664, -0.040661659091711044, -0.3485451340675354, 0.09417609125375748, -0.004013830330222845, 0.0030833331402391195, 1.0000598430633545, -0.051245443522930145, -0.03959846496582031, 1.49267578125, 0.668701171875, 19.472854614257812, 1.49267578125
47819, 0.33173608779907227, -5.302354335784912, 1.828772783279419, 0.016728948801755905, -0.0005034529604017735, 10.830185890197754, 0.1796756386756897, -0.0054227011278271675, 0.4597194492816925, -0.3519681692123413, -0.909435510635376, 0.06616564095020294, -0.3750197418896855, 0.4181860708419265, 3.186340679031618, 9362.0, 30146.0, 35388.0, 9362.0, 8.370248794555664, -0.13153737783432007, -0.1377725899219513, 0.20880736410617828, -0.0035928876604884863, 0.0030704529490321875, 1.0023586750030518, -0.038614869117736816, 0.12168121337890625, 1.505859375, 1.48095703125, 0.1587677001953125, 1.49267578125
47829, 0.33132243156433105, -5.301893711090088, 1.8304494619369507, 0.018571123480796814, -0.0005590635119006038, 10.8347806930542, 0.1887594312429428, -0.005699383094906807, 0.45929914712905884, -0.3519960343837738, -0.9094353914260864, 0.06616745889186859, -0.3813335167134078, 0.42072006491065395, 3.169932687394074, 9362.0, 30146.0, 35388.0, 9362.0, 8.370248794555664, 0.14625678956508636, -0.05278778076171875, 0.039838001132011414, -0.004361964296549559, 0.0007403217605315149, 0.9991673827171326, -0.053739141672849655, -0.1739978790283203, 1.481689453125, 1.26123046875, 0.129302978515625, 1.49267578125
47839, 0.33157795667648315, -5.303376197814941, 1.8308775424957275, 0.020504210144281387, -0.0006174523150548339, 10.839372634887695, 0.19785796105861664, -0.0059781065210700035, 0.45908889174461365, -0.3519933819770813, -0.9094382524490356, 0.06617925316095352, -0.3786866914806355, 0.42532147910978324, 3.1706870807525616, 9362.0, 30146.0, 35388.0, 9362.0, 8.370248794555664, 0.1859026551246643, 0.2065248042345047, -0.10618680715560913, -0.005785787478089333, 0.0006822313298471272, 0.999630868434906, -0.05226605013012886, -0.0037593841552734375, 1.49560546875, 1.576171875, 0.361328125, 1.4912109375
47849, 0.3325723707675934, -5.304741382598877, 1.8296856880187988, 0.02252816967666149, -0.0006786202429793775, 10.843961715698242, 0.20693393051624298, -0.00625541852787137, 0.45864441990852356, -0.3520309329032898, -0.9094639420509338, 0.06618104875087738, -0.37552873144821086, 0.4151142120379916, 3.1880193834408566, 9362.0, 30146.0, 35388.0, 9362.0, 8.370248794555664, 0.02947361394762993, 0.021226931363344193, -0.024325469508767128, -0.004718448035418987, 0.0014189525973051786, 0.9993889927864075, -0.055237218737602234, -0.07543754577636719, 1.48974609375, 1.66845703125, 0.5852813720703125, 1.48974609375
47859, 0.33280661702156067, -5.3049845695495605, 1.8289930820465088, 0.02464289218187332, -0.0007425624644383788, 10.848546028137207, 0.2160104513168335, -0.00653321947902441, 0.45817816257476807, -0.35204294323921204, -0.9094712138175964, 0.06621242314577103, -0.3802901076705692, 0.43576724696964675, 3.1843962637431082, 9362.0, 30146.0, 35388.0, 9362.0, 8.370248794555664, 0.08438267558813095, 0.10009972751140594, -0.06108120456337929, -0.004422989208251238, 0.002411301713436842, 0.9997959733009338, -0.05503825098276138, -0.08439826965332031, 1.489013671875, 0.863525390625, 7.31024169921875, 1.49267578125
47869, 0.33290529251098633, -5.305793285369873, 1.828264594078064, 0.026848388835787773, -0.0008092917269095778, 10.85312557220459, 0.2250889390707016, -0.006812740117311478, 0.4577076733112335, -0.3520652651786804, -0.9094537496566772, 0.06622245907783508, -0.3958726079441429, 0.45216667799488164, 3.19461815036911, 9362.0, 30146.0, 35388.0, 9362.0, 8.370248794555664, -0.0765918716788292, 0.31802114844322205, 0.16140718758106232, -0.004590565804392099, 0.00173783244099468, 0.9984927177429199, -0.05198897048830986, -0.06647872924804688, 1.490478515625, 0.821044921875, 9.269668579101562, 1.490478515625
47879, 0.33227115869522095, -5.308175563812256, 1.829140543937683, 0.02914467826485634, -0.0008788188570179045, 10.85770034790039, 0.2341691106557846, -0.007092802319675684, 0.4572503864765167, -0.3520580232143402, -0.9094774723052979, 0.06622494012117386, -0.38567046801834587, 0.44920608747844426, 3.192855341150957, 9362.0, 30146.0, 35388.0, 9362.0, 8.370248794555664, 0.0320894792675972, 0.008705749176442623, -0.15217094123363495, -0.003398220520466566, 0.0022541170474141836, 0.9982750415802002, -0.053599268198013306, -0.2187976837158203, 1.47802734375, 1.7373046875, 0.7721710205078125, 1.493408203125
47889, 0.33317726850509644, -5.30826997756958, 1.8280547857284546, 0.031531721353530884, -0.0009511460666544735, 10.86227035522461, 0.24323917925357819, -0.007372491993010044, 0.45666971802711487, -0.352062851190567, -0.9094681739807129, 0.06623876094818115, -0.3830941240102755, 0.4487246631066739, 3.191931780439303, 9362.0, 30146.0, 35388.0, 9362.0, 8.370248794555664, 0.09497985243797302, -0.10005427151918411, -0.14091861248016357, -0.0036067324690520763, 0.0018858592957258224, 0.9988123774528503, -0.040972594171762466, 0.06792068481445312, 1.50146484375, 1.634033203125, 0.499237060546875, 1.496337890625
47899, 0.3339386284351349, -5.307549953460693, 1.826672911643982, 0.034009478986263275, -0.0010262633441016078, 10.866833686828613, 0.2523127794265747, -0.007651132997125387, 0.45608311891555786, -0.35208234190940857, -0.9094818234443665, 0.06624536216259003, -0.38582883225699827, 0.4506013755683398, 3.1919398602828606, 9362.0, 30146.0, 35388.0, 9362.0, 8.370248794555664, -0.19014038145542145, -0.014276312664151192, -0.13974370062351227, -0.004111027345061302, 0.0008484064601361752, 1.0001732110977173, -0.04437156394124031, -0.030637741088867188, 1.493408203125, 0.6240234375, 23.595809936523438, 1.48974609375
47919, 0.33325767517089844, -5.307801723480225, 1.8250287771224976, 0.0392373651266098, -0.0011849045986309648, 10.875946044921875, 0.27048221230506897, -0.008214140310883522, 0.4551583528518677, -0.3520745635032654, -0.9094890356063843, 0.0662236362695694, -0.3823454268529399, 0.4583933671871421, 3.193380379415768, 9362.0, 30146.0, 35388.0, 9362.0, 8.370248794555664, -0.01687757484614849, -0.3357483148574829, -0.015185891650617123, -0.003930673003196716, 0.0013585113920271397, 0.9999978542327881, -0.05207059532403946, -0.05751800537109375, 1.4912109375, 0.510498046875, 36.929107666015625, 1.494140625
47929, 0.3329174220561981, -5.305367469787598, 1.8249531984329224, 0.0392373651266098, -0.0011849045986309648, 10.875946044921875, 0.27048221230506897, -0.008214140310883522, 0.4551583528518677, -0.35207095742225647, -0.9094849824905396, 0.066244937479496, -0.3811952147651204, 0.45698850774815014, 3.192730003471753, 9362.0, 30146.0, 35388.0, 9362.0, 8.370248794555664, 0.0909094512462616, -0.14962637424468994, 0.10739506781101227, -0.003930673003196716, 0.0013585113920271397, 0.9999978542327881, -0.05609528720378876, 0.10376167297363281, 1.50439453125, 0.510498046875, 36.929107666015625, 1.494140625
47939, 0.3324447274208069, -5.303814888000488, 1.8257532119750977, 0.0392373651266098, -0.0011849045986309648, 10.875946044921875, 0.27048221230506897, -0.008214140310883522, 0.4551583528518677, -0.3520699739456177, -0.9094811081886292, 0.06623692810535431, -0.3825555305473293, 0.4555883385611992, 3.189983115666843, 9362.0, 30146.0, 35388.0, 9362.0, 8.370248794555664, 0.0909094512462616, -0.14962637424468994, 0.10739506781101227, -0.003930673003196716, 0.0013585113920271397, 0.9999978542327881, -0.05130016803741455, -0.06647872924804688, 1.490478515625, 0.510498046875, 36.929107666015625, 1.494140625
47949, 0.3336237370967865, -5.301077842712402, 1.823990821838379, 0.0392373651266098, -0.0011849045986309648, 10.875946044921875, 0.27048221230506897, -0.008214140310883522, 0.4551583528518677, -0.35207265615463257, -0.909478485584259, 0.06622970104217529, -0.3816094508730728, 0.46244876029439297, 3.193673555754414, 9362.0, 30146.0, 35388.0, 9362.0, 8.370248794555664, -0.20327085256576538, -0.17035481333732605, -0.29187822341918945, -0.003930673003196716, 0.0013585113920271397, 0.9999978542327881, -0.05130016803741455, -0.06647872924804688, 1.490478515625, 0.510498046875, 36.929107666015625, 1.494140625
47959, 0.3325420022010803, -5.298619270324707, 1.8208822011947632, 0.0392373651266098, -0.0011849045986309648, 10.875946044921875, 0.27048221230506897, -0.008214140310883522, 0.4551583528518677, -0.35208210349082947, -0.9094902276992798, 0.06624509394168854, -0.38525470580654547, 0.4598077413007502, 3.1918353064552796, 9362.0, 30146.0, 35388.0, 9362.0, 8.370248794555664, -0.20327085256576538, -0.17035481333732605, -0.29187822341918945, -0.005535361357033253, 0.0024601025506854057, 1.0013610124588013, -0.03490646183490753, 0.05000114440917969, 1.5, 0.510498046875, 36.929107666015625, 1.494140625
47969, 0.3338213562965393, -5.300197601318359, 1.8209996223449707, 0.0392373651266098, -0.0011849045986309648, 10.875946044921875, 0.27048221230506897, -0.008214140310883522, 0.4551583528518677, -0.35207444429397583, -0.9095014929771423, 0.06623520702123642, -0.3845592354415714, 0.4557751211672212, 3.180661208367885, 9362.0, 30146.0, 35388.0, 9362.0, 8.370248794555664, 0.08538701385259628, -0.21071848273277283, -0.07161841541528702, -0.005535361357033253, 0.0024601025506854057, 1.0013610124588013, -0.04308103397488594, 0.08584022521972656, 1.5029296875, 0.510498046875, 36.929107666015625, 1.494140625
47979, 0.33471956849098206, -5.299583435058594, 1.8226388692855835, 0.0392373651266098, -0.0011849045986309648, 10.875946044921875, 0.27048221230506897, -0.008214140310883522, 0.4551583528518677, -0.35208043456077576, -0.9095098376274109, 0.06624303013086319, -0.3839531974314991, 0.45373121736892585, 3.1773455215140363, 9362.0, 30146.0, 35388.0, 9362.0, 8.370248794555664, 0.05992009863257408, -0.23850777745246887, -0.15829630196094513, -0.004126145038753748, 0.0019129760330542922, 1.0004279613494873, -0.04308103397488594, 0.08584022521972656, 1.5029296875, 0.510498046875, 36.929107666015625, 1.494140625
47999, 0.3367348313331604, -5.300127029418945, 1.8210593461990356, 0.0392373651266098, -0.0011849045986309648, 10.875946044921875, 0.27048221230506897, -0.008214140310883522, 0.4551583528518677, -0.35207486152648926, -0.9094807505607605, 0.06624041497707367, -0.36062119010978666, 0.44724774042006743, 3.1994025195144147, 9362.0, 30146.0, 35388.0, 9362.0, 8.370248794555664, -0.16278159618377686, -0.17503802478313446, -0.07161813974380493, -0.004229800775647163, 0.0026958133094012737, 1.0002285242080688, -0.056678250432014465, -0.07543754577636719, 1.48974609375, 0.819580078125, 9.343307495117188, 1.494140625
48009, 0.33611366152763367, -5.299484729766846, 1.819639801979065, 0.0392373651266098, -0.0011849045986309648, 10.875946044921875, 0.27048221230506897, -0.008214140310883522, 0.4551583528518677, -0.3520646095275879, -0.9095014333724976, 0.06630410999059677, -0.3640133317877354, 0.4731227203665753, 3.203163963826385, 9362.0, 30146.0, 35388.0, 9362.0, 8.370248794555664, -0.16278159618377686, -0.17503802478313446, -0.07161813974380493, -0.004409833811223507, 0.0027141347527503967, 1.0011630058288574, -0.056678250432014465, -0.07543754577636719, 1.48974609375, 0.819580078125, 9.343307495117188, 1.494140625
48139, 0.3359887897968292, -5.292176246643066, 1.8153784275054932, 0.12072131037712097, -0.003680553985759616, 10.975186347961426, 0.47019338607788086, -0.014500007033348083, 0.4471201002597809, -0.3520280718803406, -0.9094723463058472, 0.06615966558456421, -0.37212823009235585, 0.43793221202000154, 3.1625486095620645, 9362.0, 30146.0, 35388.0, 9362.0, 8.370248794555664, -0.20782963931560516, -0.0272773876786232, -0.07356875389814377, -0.004870676435530186, 0.0023832686711102724, 0.9999916553497314, -0.041393864899873734, 0.08584022521972656, 1.5029296875, 0.825439453125, 9.051254272460938, 1.494140625
48169, 0.3371497392654419, -5.291497230529785, 1.8123916387557983, 0.13030646741390228, -0.003976322710514069, 10.98412036895752, 0.488326758146286, -0.015077287331223488, 0.44636327028274536, -0.3520333170890808, -0.9094859957695007, 0.06617820262908936, -0.37051785407066634, 0.43905689492359556, 3.1798037707395235, 9362.0, 30146.0, 35388.0, 9362.0, 8.370248794555664, -0.2342035174369812, -0.07447239756584167, 0.007957983762025833, -0.005959310568869114, 0.003463690634816885, 0.999596118927002, -0.041393864899873734, 0.08584022521972656, 1.5029296875, 1.27587890625, 0.092620849609375, 1.494140625
48179, 0.33600354194641113, -5.289973735809326, 1.8101348876953125, 0.13030646741390228, -0.003976322710514069, 10.98412036895752, 0.488326758146286, -0.015077287331223488, 0.44636327028274536, -0.3519996702671051, -0.9094719886779785, 0.06614115834236145, -0.3647278648325751, 0.4222045621037296, 3.1812787868416255, 9362.0, 30146.0, 35388.0, 9362.0, 8.370248794555664, -0.2342035174369812, -0.07447239756584167, 0.007957983762025833, -0.0051052151247859, 0.003213133430108428, 1.0006284713745117, -0.041393864899873734, 0.08584022521972656, 1.5029296875, 1.27587890625, 0.092620849609375, 1.494140625
48199, 0.33835625648498535, -5.287838935852051, 1.8060011863708496, 0.13030646741390228, -0.003976322710514069, 10.98412036895752, 0.488326758146286, -0.015077287331223488, 0.44636327028274536, -0.3519938588142395, -0.9094715714454651, 0.06618159264326096, -0.3617718488445152, 0.42858312220317885, 3.1965277687291502, 9362.0, 30146.0, 35388.0, 9362.0, 8.370248794555664, 0.20555688440799713, -0.06756851077079773, -0.47774767875671387, -0.002594554331153631, 0.0016402669716626406, 1.0009479522705078, -0.04496903344988823, -0.07543754577636719, 1.48974609375, 1.27587890625, 0.092620849609375, 1.494140625
48209, 0.33865752816200256, -5.286596298217773, 1.805095911026001, 0.13030646741390228, -0.003976322710514069, 10.98412036895752, 0.488326758146286, -0.015077287331223488, 0.44636327028274536, -0.3520057499408722, -0.9094369411468506, 0.06619715690612793, -0.35230950014709234, 0.42450103649531457, 3.2157498572309993, 9362.0, 30146.0, 35388.0, 9362.0, 8.370248794555664, 0.23778170347213745, -0.16900983452796936, -0.09648339450359344, -0.002594554331153631, 0.0016402669716626406, 1.0009479522705078, -0.04496903344988823, -0.07543754577636719, 1.48974609375, 1.27587890625, 0.092620849609375, 1.494140625
48259, 0.34415924549102783, -5.283707618713379, 1.8067936897277832, 0.18367072939872742, -0.005629761144518852, 11.028573989868164, 0.5789375901222229, -0.018016833811998367, 0.44281840324401855, -0.3520653247833252, -0.9093367457389832, 0.06608666479587555, -0.3845402055556074, 0.3801083812865045, 3.153278876640897, 9362.0, 30146.0, 35388.0, 9362.0, 8.370248794555664, -0.027727100998163223, -0.09377877414226532, 0.20580163598060608, -0.0036953696981072426, 0.002099668374285102, 1.0023337602615356, -0.05002715811133385, -0.0037593841552734375, 1.49560546875, 0.81591796875, 9.52923583984375, 1.494140625
48269, 0.344648540019989, -5.282243251800537, 1.8087553977966309, 0.18367072939872742, -0.005629761144518852, 11.028573989868164, 0.5789375901222229, -0.018016833811998367, 0.44281840324401855, -0.35210666060447693, -0.9092866778373718, 0.06607265025377274, -0.37556737452080363, 0.373528969789362, 3.209525509075634, 9362.0, 30146.0, 35388.0, 9362.0, 8.370248794555664, 0.11863261461257935, -0.3874659240245819, 0.1250608116388321, -0.0036953696981072426, 0.002099668374285102, 1.0023337602615356, -0.04043014720082283, -0.10231781005859375, 1.487548828125, 0.81591796875, 9.52923583984375, 1.494140625
48279, 0.3452836871147156, -5.280963897705078, 1.8093876838684082, 0.18367072939872742, -0.005629761144518852, 11.028573989868164, 0.5789375901222229, -0.018016833811998367, 0.44281840324401855, -0.3520621657371521, -0.9093139171600342, 0.06596697866916656, -0.4026842702651883, 0.3877049137735753, 3.2064380319129326, 9362.0, 30146.0, 35388.0, 9362.0, 8.370248794555664, -0.2699708044528961, 0.457791268825531, -0.11730041354894638, -0.0036953696981072426, 0.002099668374285102, 1.0023337602615356, -0.04043014720082283, -0.10231781005859375, 1.487548828125, 0.81591796875, 9.52923583984375, 1.494140625
48329, 0.3469618856906891, -5.284064292907715, 1.8207627534866333, 0.22003686428070068, -0.006765587721019983, 11.055084228515625, 0.6332610249519348, -0.019846344366669655, 0.4407561421394348, -0.35209089517593384, -0.9092621207237244, 0.06600619852542877, -0.4115261638901147, 0.40112090307923154, 3.189350686106982, 9362.0, 30146.0, 35388.0, 9362.0, 8.370248794555664, -0.05953750014305115, -0.07302174717187881, 0.40039366483688354, -0.0036953696981072426, 0.002099668374285102, 1.0023337602615356, -0.04201960563659668, -0.04855918884277344, 1.491943359375, 0.73974609375, 14.03466796875, 1.494140625
48359, 0.3438381552696228, -5.286520004272461, 1.8316632509231567, 0.246090367436409, -0.007584003731608391, 11.072671890258789, 0.6694479584693909, -0.021073445677757263, 0.43904757499694824, -0.352026104927063, -0.9092782139778137, 0.06594464927911758, -0.400632923808783, 0.3832571058489407, 3.2043862679043205, 9362.0, 30146.0, 35388.0, 9362.0, 8.370248794555664, -0.16947050392627716, -0.005012150853872299, 0.25184234976768494, -0.0036953696981072426, 0.002099668374285102, 1.0023337602615356, -0.03842470049858093, -0.021678924560546875, 1.494140625, 0.9404296875, 4.542816162109375, 1.494140625
48379, 0.3429464101791382, -5.286900997161865, 1.838607907295227, 0.25966009497642517, -0.008011489175260067, 11.081441879272461, 0.6875270009040833, -0.021673472598195076, 0.4379618465900421, -0.3519898056983948, -0.9093679785728455, 0.0660373717546463, -0.3998779487188605, 0.37981101032917763, 3.2073379329691885, 9362.0, 30146.0, 35388.0, 9362.0, 8.370248794555664, -0.058791302144527435, -0.31699708104133606, 0.2405957281589508, -0.0036953696981072426, 0.002099668374285102, 1.0023337602615356, -0.036243028938770294, 0.06792068481445312, 1.50146484375, 0.9404296875, 4.542816162109375, 1.494140625
48399, 0.34065431356430054, -5.283934593200684, 1.8452262878417969, 0.25966009497642517, -0.008011489175260067, 11.081441879272461, 0.6875270009040833, -0.021673472598195076, 0.4379618465900421, -0.3519608676433563, -0.909412145614624, 0.06613549590110779, -0.38373480562887025, 0.3863467586482159, 3.193122645851726, 9362.0, 30146.0, 35388.0, 9362.0, 8.370248794555664, -0.24916064739227295, -0.10091955214738846, 0.7935488820075989, -0.0036953696981072426, 0.002099668374285102, 1.0023337602615356, -0.024970505386590958, -0.1739978790283203, 1.481689453125, 0.9404296875, 4.542816162109375, 1.494140625
48429, 0.3414056599140167, -5.280427932739258, 1.861987590789795, 0.29516884684562683, -0.009132109582424164, 11.103299140930176, 0.7327784299850464, -0.023140275850892067, 0.43586909770965576, -0.3519400358200073, -0.9094283580780029, 0.06616340577602386, -0.38058737230319684, 0.3764501582679145, 3.195495103733296, 9362.0, 30146.0, 35388.0, 9362.0, 8.370248794555664, 0.06748687475919724, -0.04427463561296463, 0.6939191222190857, -0.004657160956412554, 0.0006574218277819455, 1.0000778436660767, -0.024970505386590958, -0.1739978790283203, 1.481689453125, 1.38720703125, 0.0291900634765625, 1.494140625
48439, 0.34244808554649353, -5.280108451843262, 1.8691964149475098, 0.29516884684562683, -0.009132109582424164, 11.103299140930176, 0.7327784299850464, -0.023140275850892067, 0.43586909770965576, -0.3519318997859955, -0.9094433784484863, 0.06613152474164963, -0.37645738768485126, 0.37304589465762206, 3.1973376138073575, 9362.0, 30146.0, 35388.0, 9362.0, 8.370248794555664, 0.3328395187854767, -0.4277741014957428, 0.7391015291213989, -0.0019207928562536836, 0.0041078561916947365, 0.9984639883041382, -0.024970505386590958, -0.1739978790283203, 1.481689453125, 1.29931640625, 0.0500640869140625, 1.494140625
48469, 0.3485471308231354, -5.283993244171143, 1.8896777629852295, 0.31755945086479187, -0.009839390404522419, 11.116360664367676, 0.7599127888679504, -0.02401049993932247, 0.43470466136932373, -0.35191401839256287, -0.9094478487968445, 0.0661965012550354, -0.3759728788239658, 0.38960803728789983, 3.1551434816898327, 9362.0, 30146.0, 35388.0, 9362.0, 8.370248794555664, 0.09244103729724884, 0.05107365921139717, 0.43575847148895264, -0.0031633982434868813, 2.590882832009811e-05, 0.9971044659614563, -0.04181642085313797, -0.04855918884277344, 1.491943359375, 1.29931640625, 0.0500640869140625, 1.494140625
48499, 0.3535873591899872, -5.296948432922363, 1.8956736326217651, 0.34076324105262756, -0.010572941042482853, 11.129377365112305, 0.7870398759841919, -0.02489596977829933, 0.43336883187294006, -0.3519338071346283, -0.9094812870025635, 0.06622634083032608, -0.37663890250044607, 0.4317562051655557, 3.1588324802133605, 9362.0, 30146.0, 35388.0, 9362.0, 8.370248794555664, 0.221600741147995, 0.7591959834098816, 0.12560592591762543, -0.0023958315141499043, 0.005044274963438511, 1.0008134841918945, -0.030539222061634064, -0.06647872924804688, 1.490478515625, 1.29931640625, 0.0500640869140625, 1.494140625
48509, 0.35552263259887695, -5.303178787231445, 1.8945528268814087, 0.34076324105262756, -0.010572941042482853, 11.129377365112305, 0.7870398759841919, -0.02489596977829933, 0.43336883187294006, -0.35194218158721924, -0.9094855189323425, 0.06625530868768692, -0.3723135276203886, 0.43691510649659904, 3.1593367620657595, 9362.0, 30146.0, 35388.0, 9362.0, 8.370248794555664, 0.042475711554288864, 0.5813248157501221, -0.5341788530349731, -0.005734724458307028, 0.004742251709103584, 1.0004172325134277, -0.030539222061634064, -0.06647872924804688, 1.490478515625, 1.29931640625, 0.0500640869140625, 1.494140625
48529, 0.35469716787338257, -5.312232494354248, 1.8858386278152466, 0.3729700446128845, -0.011593077331781387, 11.146683692932129, 0.8233193755149841, -0.0261172354221344, 0.4318351447582245, -0.35196781158447266, -0.9094744920730591, 0.066257543861866, -0.3785757569850968, 0.4596737602090286, 3.1473254685977228, 9362.0, 30146.0, 35388.0, 9362.0, 8.370248794555664, -0.010790472850203514, 0.19252429902553558, -0.09815309941768646, -0.005734724458307028, 0.004742251709103584, 1.0004172325134277, -0.04106326773762703, -0.15607833862304688, 1.483154296875, 1.29931640625, 0.0500640869140625, 1.494140625
48539, 0.3542575240135193, -5.315108299255371, 1.8828719854354858, 0.3729700446128845, -0.011593077331781387, 11.146683692932129, 0.8233193755149841, -0.0261172354221344, 0.4318351447582245, -0.3519980311393738, -0.90948885679245, 0.06628893315792084, -0.3860295146917413, 0.4415038784691774, 3.1303349032016303, 9362.0, 30146.0, 35388.0, 9362.0, 8.370248794555664, 0.03098410740494728, -0.10945379734039307, -0.5409310460090637, -0.008846159093081951, 0.003637523390352726, 0.998464822769165, -0.04106326773762703, -0.15607833862304688, 1.483154296875, 1.29931640625, 0.0500640869140625, 1.494140625
48579, 0.34885162115097046, -5.311429023742676, 1.854749321937561, 0.41527411341667175, -0.01293750200420618, 11.168233871459961, 0.8688198924064636, -0.027657251805067062, 0.42981070280075073, -0.35198935866355896, -0.9095268249511719, 0.06639058887958527, -0.3724934334908149, 0.44560790129952466, 3.1711542480002564, 9362.0, 30146.0, 35388.0, 9362.0, 8.370248794555664, 0.06409098953008652, -0.3428112864494324, -0.8683295845985413, -0.005781723652034998, 0.003474597120657563, 1.0003985166549683, -0.04106326773762703, -0.15607833862304688, 1.483154296875, 1.02099609375, 2.53790283203125, 1.494140625
48609, 0.3481147885322571, -5.296659469604492, 1.8387227058410645, 0.41527411341667175, -0.01293750200420618, 11.168233871459961, 0.8688198924064636, -0.027657251805067062, 0.42981070280075073, -0.3519684672355652, -0.909527599811554, 0.06636108458042145, -0.3623301002533613, 0.42098634458196216, 3.1613626955473895, 9362.0, 30146.0, 35388.0, 9362.0, 8.370248794555664, 0.03933889418840408, -0.13992655277252197, -0.2616890072822571, -0.003292371053248644, 0.0006069231312721968, 0.9997632503509521, -0.04106326773762703, -0.15607833862304688, 1.483154296875, 1.09130859375, 1.378570556640625, 1.494140625
48679, 0.3514750599861145, -5.320593357086182, 1.8334888219833374, 0.5067020058631897, -0.015856066718697548, 11.211050033569336, 0.9596818089485168, -0.0307221207767725, 0.4263631999492645, -0.35195857286453247, -0.9094836115837097, 0.0662696361541748, -0.36441659306245444, 0.3656297040652703, 3.19814606740491, 9362.0, 30146.0, 35388.0, 9362.0, 8.370248794555664, 0.07430753111839294, 0.8753657341003418, -0.22962383925914764, -0.004526529926806688, 0.0025897466111928225, 1.001096487045288, -0.04106326773762703, -0.15607833862304688, 1.483154296875, 0.699462890625, 16.958648681640625, 1.494140625
48749, 0.3591424524784088, -5.359899997711182, 1.8285356760025024, 0.5761160254478455, -0.0180831179022789, 11.240799903869629, 1.0236659049987793, -0.032921213656663895, 0.42337122559547424, -0.3519394099712372, -0.9094420075416565, 0.06621769815683365, -0.3696987655192164, 0.36924637930610515, 3.2037522158330387, 9362.0, 30146.0, 35388.0, 9362.0, 8.370248794555664, 0.052151549607515335, 0.3564789891242981, 0.07312098890542984, -0.009594812989234924, 0.0017420524964109063, 1.0001171827316284, -0.038855645805597305, 0.014162063598632812, 1.4970703125, 1.1455078125, 0.7802734375, 1.494140625
48809, 0.3534645438194275, -5.331982612609863, 1.8129619359970093, 0.639188289642334, -0.020116407424211502, 11.26612663269043, 1.0787084102630615, -0.034854546189308167, 0.42084547877311707, -0.3519911766052246, -0.9094085097312927, 0.06618642061948776, -0.3860253834447458, 0.43772712370804356, 3.187308503585006, 9362.0, 30146.0, 35388.0, 9362.0, 8.370248794555664, 0.0454314760863781, -0.9445464611053467, -0.551055908203125, -0.004124075174331665, 0.0033977478742599487, 1.0016281604766846, -0.055900346487760544, -0.18295860290527344, 1.48095703125, 1.067138671875, 1.7234954833984375, 1.494140625
48819, 0.35190093517303467, -5.323196887969971, 1.8071354627609253, 0.639188289642334, -0.020116407424211502, 11.26612663269043, 1.0787084102630615, -0.034854546189308167, 0.42084547877311707, -0.35200175642967224, -0.9093872904777527, 0.0661652609705925, -0.393960723722751, 0.4470329030716016, 3.1960954493133977, 9362.0, 30146.0, 35388.0, 9362.0, 8.370248794555664, 0.16012711822986603, -0.2575961947441101, -0.1858523190021515, -0.004124075174331665, 0.0033977478742599487, 1.0016281604766846, -0.048850566148757935, -0.07543754577636719, 1.48974609375, 1.067138671875, 1.7234954833984375, 1.494140625
48829, 0.35251179337501526, -5.319624423980713, 1.8045787811279297, 0.639188289642334, -0.020116407424211502, 11.26612663269043, 1.0787084102630615, -0.034854546189308167, 0.42084547877311707, -0.35199233889579773, -0.9094035625457764, 0.06612557172775269, -0.3857382859090032, 0.4298834853904623, 3.1856365836461027, 9362.0, 30146.0, 35388.0, 9362.0, 8.370248794555664, -0.07621365040540695, -0.6323258280754089, -0.3242254853248596, -0.002732673194259405, 0.0035051642917096615, 0.9993202686309814, -0.048850566148757935, -0.07543754577636719, 1.48974609375, 1.067138671875, 1.7234954833984375, 1.494140625
48859, 0.3530644178390503, -5.309115409851074, 1.8019180297851562, 0.6942657232284546, -0.021898848935961723, 11.287126541137695, 1.1243267059326172, -0.03644067421555519, 0.41894322633743286, -0.3519939184188843, -0.9094259738922119, 0.06613883376121521, -0.3827444791588629, 0.4157564550206132, 3.199309948838335, 9362.0, 30146.0, 35388.0, 9362.0, 8.370248794555664, 0.08689544349908829, -0.25100934505462646, 0.05218232423067093, -0.002732673194259405, 0.0035051642917096615, 0.9993202686309814, -0.05728285387158394, -0.04855918884277344, 1.491943359375, 0.79541015625, 10.6201171875, 1.494140625
48879, 0.35359224677085876, -5.311642646789551, 1.8043365478515625, 0.7169339060783386, -0.022634005174040794, 11.29549503326416, 1.1424970626831055, -0.03707581013441086, 0.41793563961982727, -0.35197553038597107, -0.9093996286392212, 0.06610634177923203, -0.38104668941587505, 0.40785222996845505, 3.1833447615702446, 9362.0, 30146.0, 35388.0, 9362.0, 8.370248794555664, 0.17645882070064545, 0.2944194972515106, 0.11223766207695007, -0.0034918044693768024, 0.0013745877658948302, 0.9995817542076111, -0.05728285387158394, -0.04855918884277344, 1.491943359375, 0.662841796875, 19.98095703125, 1.494140625
48889, 0.3557293713092804, -5.314133167266846, 1.8060276508331299, 0.7169339060783386, -0.022634005174040794, 11.29549503326416, 1.1424970626831055, -0.03707581013441086, 0.41793563961982727, -0.3519483506679535, -0.9094199538230896, 0.06612256914377213, -0.37729807002760885, 0.4065873208436983, 3.191840579182043, 9362.0, 30146.0, 35388.0, 9362.0, 8.370248794555664, 0.17645882070064545, 0.2944194972515106, 0.11223766207695007, -0.002989680739119649, 0.0023128788452595472, 1.000403881072998, -0.05728285387158394, -0.04855918884277344, 1.491943359375, 1.22607421875, 0.2537689208984375, 1.494140625
48899, 0.3583705723285675, -5.317730903625488, 1.807153344154358, 0.7169339060783386, -0.022634005174040794, 11.29549503326416, 1.1424970626831055, -0.03707581013441086, 0.41793563961982727, -0.3519435226917267, -0.9094319939613342, 0.06614081561565399, -0.37303081409464517, 0.4064953997092857, 3.1836214406885994, 9362.0, 30146.0, 35388.0, 9362.0, 8.370248794555664, 0.2802649736404419, 0.6644480228424072, 0.13846120238304138, -0.002989680739119649, 0.0023128788452595472, 1.000403881072998, -0.06238320469856262, -0.030637741088867188, 1.493408203125, 1.22607421875, 0.2537689208984375, 1.494140625
48909, 0.3608046770095825, -5.322879314422607, 1.8080835342407227, 0.7169339060783386, -0.022634005174040794, 11.29549503326416, 1.1424970626831055, -0.03707581013441086, 0.41793563961982727, -0.3519463837146759, -0.9094271063804626, 0.06614279747009277, -0.3703522784662241, 0.3985949120587122, 3.1807739348364747, 9362.0, 30146.0, 35388.0, 9362.0, 8.370248794555664, 0.06445589661598206, 0.19466188549995422, 0.688282310962677, -0.0038747487124055624, 0.0034148322883993387, 1.001258373260498, -0.06238320469856262, -0.030637741088867188, 1.493408203125, 1.22607421875, 0.2537689208984375, 1.494140625
48929, 0.36388707160949707, -5.329738616943359, 1.8106892108917236, 0.7169339060783386, -0.022634005174040794, 11.29549503326416, 1.1424970626831055, -0.03707581013441086, 0.41793563961982727, -0.35193195939064026, -0.9094178676605225, 0.06611620634794235, -0.37621155394563266, 0.3985917930173173, 3.191299650230147, 9362.0, 30146.0, 35388.0, 9362.0, 8.370248794555664, 0.10730855166912079, 0.42778146266937256, -0.2509058117866516, -0.0038747487124055624, 0.0034148322883993387, 1.001258373260498, -0.05211673676967621, -0.08439826965332031, 1.489013671875, 1.22607421875, 0.2537689208984375, 1.494140625
48959, 0.3694557547569275, -5.344718933105469, 1.8149924278259277, 0.8112481236457825, -0.025703715160489082, 11.32880973815918, 1.2153887748718262, -0.0396956205368042, 0.41455626487731934, -0.3519507944583893, -0.9093873500823975, 0.06610791385173798, -0.3914557228260127, 0.39558005814024, 3.182234076995551, 9362.0, 30146.0, 35388.0, 9362.0, 8.370248794555664, -0.03926945477724075, 0.49200424551963806, 0.3870461881160736, -0.004549078643321991, 0.0018875806126743555, 1.001297116279602, -0.05211673676967621, -0.08439826965332031, 1.489013671875, 1.24365234375, 0.1847381591796875, 1.494140625
48969, 0.3694949746131897, -5.35090446472168, 1.8180824518203735, 0.8112481236457825, -0.025703715160489082, 11.32880973815918, 1.2153887748718262, -0.0396956205368042, 0.41455626487731934, -0.3519192934036255, -0.9093848466873169, 0.06611137092113495, -0.3720483534632764, 0.4396313354942549, 3.2136384106858116, 9362.0, 30146.0, 35388.0, 9362.0, 8.370248794555664, -0.24462778866291046, 0.5015498399734497, 0.24114520847797394, -0.004549078643321991, 0.0018875806126743555, 1.001297116279602, -0.04443732276558876, -0.06647872924804688, 1.490478515625, 1.24365234375, 0.1847381591796875, 1.494140625
49009, 0.3611457645893097, -5.364072322845459, 1.8260266780853271, 0.8731625080108643, -0.027731046080589294, 11.349492073059082, 1.2612228393554688, -0.041392430663108826, 0.412688672542572, -0.35192549228668213, -0.9093447923660278, 0.06601479649543762, -0.3975384461510219, 0.4434843763253866, 3.202779349758616, 9362.0, 30146.0, 35388.0, 9362.0, 8.370248794555664, -0.11153657734394073, 0.07889489084482193, 0.5216843485832214, -0.00785631313920021, 0.0026977108791470528, 1.0021260976791382, -0.04444441944360733, -0.1291980743408203, 1.4853515625, 1.229736328125, 0.23822021484375, 1.494140625
49019, 0.3584210276603699, -5.36564302444458, 1.8298555612564087, 0.8731625080108643, -0.027731046080589294, 11.349492073059082, 1.2612228393554688, -0.041392430663108826, 0.412688672542572, -0.3519231975078583, -0.9093422889709473, 0.06599165499210358, -0.39565954482501686, 0.44281002348589027, 3.200688190077152, 9362.0, 30146.0, 35388.0, 9362.0, 8.370248794555664, -0.02648688107728958, 0.06316161155700684, 0.5242934823036194, -0.00785631313920021, 0.0026977108791470528, 1.0021260976791382, -0.036753810942173004, -0.09335899353027344, 1.48828125, 1.229736328125, 0.23822021484375, 1.494140625
49029, 0.3575083613395691, -5.3652496337890625, 1.8343086242675781, 0.8731625080108643, -0.027731046080589294, 11.349492073059082, 1.2612228393554688, -0.041392430663108826, 0.412688672542572, -0.3519251048564911, -0.9093433022499084, 0.06600844115018845, -0.3849638975363343, 0.44924119195840717, 3.202752628417899, 9362.0, 30146.0, 35388.0, 9362.0, 8.370248794555664, -0.02648688107728958, 0.06316161155700684, 0.5242934823036194, -0.00770633015781641, 0.0027699864003807306, 1.000385046005249, -0.036753810942173004, -0.09335899353027344, 1.48828125, 1.229736328125, 0.23822021484375, 1.494140625
49039, 0.355682909488678, -5.3623833656311035, 1.83534836769104, 0.8731625080108643, -0.027731046080589294, 11.349492073059082, 1.2612228393554688, -0.041392430663108826, 0.412688672542572, -0.35193872451782227, -0.909342885017395, 0.06600941717624664, -0.3995240584612098, 0.4556945388069096, 3.1955353916323763, 9362.0, 30146.0, 35388.0, 9362.0, 8.370248794555664, -0.3049658238887787, -0.9653155207633972, -0.07306613028049469, -0.009275425225496292, 0.0007909073028713465, 1.000632643699646, -0.036753810942173004, -0.09335899353027344, 1.48828125, 1.229736328125, 0.23822021484375, 1.494140625
49119, 0.3589966595172882, -5.302901744842529, 1.8452211618423462, 1.0174504518508911, -0.032477475702762604, 11.394662857055664, 1.3620009422302246, -0.04487351328134537, 0.40850022435188293, -0.3519134223461151, -0.9093632698059082, 0.06603027135133743, -0.3795503392437042, 0.44293892196279216, 3.1986666728697846, 9362.0, 30146.0, 35388.0, 9362.0, 8.370248794555664, 0.1695791482925415, -0.1125057116150856, -0.08453164994716644, -0.0018744503613561392, 0.0008076048106886446, 0.9997782707214355, -0.03308626264333725, -0.06647872924804688, 1.490478515625, 1.37255859375, 0.02044677734375, 1.494140625
49139, 0.36370089650154114, -5.301289081573486, 1.844866394996643, 1.044872522354126, -0.03338133543729782, 11.402826309204102, 1.3801907300949097, -0.045514240860939026, 0.40782955288887024, -0.3519277274608612, -0.9093647003173828, 0.06600630283355713, -0.3841657173280701, 0.4385030178930549, 3.1998287884302052, 9362.0, 30146.0, 35388.0, 9362.0, 8.370248794555664, 0.20238226652145386, -0.019580485299229622, -0.2771022617816925, -0.001216346281580627, 0.0021115539129823446, 1.0025250911712646, -0.03308626264333725, -0.06647872924804688, 1.490478515625, 1.07958984375, 1.539276123046875, 1.494140625
49169, 0.3677358627319336, -5.311031818389893, 1.84000825881958, 1.0866870880126953, -0.03476157784461975, 11.415044784545898, 1.4074571132659912, -0.04650646075606346, 0.4068797528743744, -0.35188987851142883, -0.909364640712738, 0.06601591408252716, -0.37801470950898497, 0.42796420494468634, 3.19612415133151, 9362.0, 30146.0, 35388.0, 9362.0, 8.370248794555664, 0.29665982723236084, 0.6421275734901428, -0.3864060044288635, -0.001216346281580627, 0.0021115539129823446, 1.0025250911712646, -0.04759739711880684, -0.030637741088867188, 1.493408203125, 1.489013671875, 0.174041748046875, 1.494140625
49199, 0.3684665560722351, -5.3289384841918945, 1.8340566158294678, 1.1293197870254517, -0.03617190569639206, 11.427231788635254, 1.4347397089004517, -0.047520384192466736, 0.4055982828140259, -0.35190504789352417, -0.9093629717826843, 0.06604107469320297, -0.38286511317697647, 0.4296339957180635, 3.2010411838209274, 9362.0, 30146.0, 35388.0, 9362.0, 8.370248794555664, -0.16815075278282166, 0.4250171184539795, 0.05010075867176056, -0.0047193425707519054, 0.0048756287433207035, 1.002388596534729, -0.05248941481113434, -0.030637741088867188, 1.493408203125, 1.12353515625, 0.9957122802734375, 1.494140625
49209, 0.3676607608795166, -5.333312511444092, 1.8341351747512817, 1.1293197870254517, -0.03617190569639206, 11.427231788635254, 1.4347397089004517, -0.047520384192466736, 0.4055982828140259, -0.3519041836261749, -0.9093428254127502, 0.06599892675876617, -0.39238990512769256, 0.42596047667572634, 3.200364712180366, 9362.0, 30146.0, 35388.0, 9362.0, 8.370248794555664, 0.08622688800096512, 0.6560996770858765, -0.27003562450408936, -0.0047193425707519054, 0.0048756287433207035, 1.002388596534729, -0.06494340300559998, -0.07543754577636719, 1.48974609375, 1.12353515625, 0.9957122802734375, 1.494140625
49229, 0.36647364497184753, -5.341514587402344, 1.8300069570541382, 1.1293197870254517, -0.03617190569639206, 11.427231788635254, 1.4347397089004517, -0.047520384192466736, 0.4055982828140259, -0.3519170582294464, -0.9093379974365234, 0.06597734242677689, -0.4004128569349191, 0.4292065808197947, 3.192833578098529, 9362.0, 30146.0, 35388.0, 9362.0, 8.370248794555664, -0.259460985660553, 0.6090176105499268, 0.11411618441343307, -0.0047193425707519054, 0.0048756287433207035, 1.002388596534729, -0.06340309232473373, -0.19191741943359375, 1.480224609375, 1.12353515625, 0.9957122802734375, 1.494140625
49239, 0.3645085096359253, -5.346312999725342, 1.8307042121887207, 1.1293197870254517, -0.03617190569639206, 11.427231788635254, 1.4347397089004517, -0.047520384192466736, 0.4055982828140259, -0.35192936658859253, -0.9093383550643921, 0.06600426882505417, -0.3948667479657405, 0.4425470397308402, 3.19826346142914, 9362.0, 30146.0, 35388.0, 9362.0, 8.370248794555664, 0.12880435585975647, 0.146828293800354, 0.14108368754386902, -0.0047193425707519054, 0.0048756287433207035, 1.002388596534729, -0.06340309232473373, -0.19191741943359375, 1.480224609375, 1.12353515625, 0.9957122802734375, 1.494140625
49259, 0.36305806040763855, -5.345823287963867, 1.831889271736145, 1.2170495986938477, -0.039084140211343765, 11.45151424407959, 1.4896235466003418, -0.04954512044787407, 0.4037041962146759, -0.35191261768341064, -0.9093503355979919, 0.06600484251976013, -0.3979635328680014, 0.44147206771108927, 3.204155010785096, 9362.0, 30146.0, 35388.0, 9362.0, 8.370248794555664, -0.11306945234537125, 0.1597752422094345, 0.37585169076919556, -0.0047193425707519054, 0.0048756287433207035, 1.002388596534729, -0.07461103796958923, -0.18295860290527344, 1.48095703125, 1.12353515625, 0.9957122802734375, 1.494140625
49269, 0.3617244362831116, -5.347087383270264, 1.8359686136245728, 1.2170495986938477, -0.039084140211343765, 11.45151424407959, 1.4896235466003418, -0.04954512044787407, 0.4037041962146759, -0.35191455483436584, -0.9093457460403442, 0.0659751147031784, -0.39597911483689224, 0.43556499882669186, 3.1967703717162514, 9362.0, 30146.0, 35388.0, 9362.0, 8.370248794555664, -0.20989863574504852, 0.1710229068994522, 0.4200476408004761, -0.006350979208946228, 0.0012764929560944438, 1.0022999048233032, -0.06026895344257355, -0.10231781005859375, 1.487548828125, 1.162353515625, 0.637847900390625, 1.494140625
49289, 0.36019793152809143, -5.345232963562012, 1.845054030418396, 1.262150526046753, -0.04058537259697914, 11.463608741760254, 1.5171195268630981, -0.050532273948192596, 0.4026985168457031, -0.3519328534603119, -0.9093456268310547, 0.06603196263313293, -0.38551970157954984, 0.4504636542429523, 3.2024822158557584, 9362.0, 30146.0, 35388.0, 9362.0, 8.370248794555664, 0.07935655862092972, -0.16224123537540436, 0.4608760178089142, -0.008569218218326569, 0.002406003186479211, 1.0000660419464111, -0.05790873244404793, -0.03959846496582031, 1.49267578125, 1.162353515625, 0.637847900390625, 1.494140625
49329, 0.3597898781299591, -5.333646297454834, 1.8597259521484375, 1.3080765008926392, -0.04211581498384476, 11.475674629211426, 1.5446032285690308, -0.051496829837560654, 0.40171679854393005, -0.35190293192863464, -0.9093526005744934, 0.06597055494785309, -0.3878667224734275, 0.4367449208983487, 3.2058805627288907, 9362.0, 30146.0, 35388.0, 9362.0, 8.370248794555664, 0.03931950777769089, -0.3013041317462921, -0.09380298107862473, -0.006551702041178942, 0.0008763493387959898, 1.0005019903182983, -0.041849661618471146, 0.05896186828613281, 1.500732421875, 0.9375, 4.6317138671875, 1.494140625
49339, 0.36082810163497925, -5.330385208129883, 1.8594956398010254, 1.3080765008926392, -0.04211581498384476, 11.475674629211426, 1.5446032285690308, -0.051496829837560654, 0.40171679854393005, -0.35192927718162537, -0.9093262553215027, 0.06593602895736694, -0.39474790322842507, 0.44144956847108574, 3.1989318549371375, 9362.0, 30146.0, 35388.0, 9362.0, 8.370248794555664, -0.04991132393479347, -0.3871529698371887, 0.07253439724445343, -0.0029486108105629683, 7.772546814521775e-05, 1.0003629922866821, -0.041849661618471146, 0.05896186828613281, 1.500732421875, 0.9375, 4.6317138671875, 1.494140625
49359, 0.3638906180858612, -5.326294422149658, 1.8587185144424438, 1.3080765008926392, -0.04211581498384476, 11.475674629211426, 1.5446032285690308, -0.051496829837560654, 0.40171679854393005, -0.3519327938556671, -0.9093641638755798, 0.06603189557790756, -0.38221306406854266, 0.44754792163325874, 3.2052052935415976, 9362.0, 30146.0, 35388.0, 9362.0, 8.370248794555664, 0.43791818618774414, -0.10934735089540482, -0.29387497901916504, -0.0029291086830198765, 0.002294081263244152, 0.99996417760849, -0.03554101288318634, -0.03959846496582031, 1.49267578125, 0.86572265625, 7.217803955078125, 1.494140625
49369, 0.365374892950058, -5.326375484466553, 1.859377384185791, 1.3080765008926392, -0.04211581498384476, 11.475674629211426, 1.5446032285690308, -0.051496829837560654, 0.40171679854393005, -0.3519302010536194, -0.9093737602233887, 0.06604252755641937, -0.38986828777674454, 0.44741418267190625, 3.193643935499645, 9362.0, 30146.0, 35388.0, 9362.0, 8.370248794555664, 0.08055900782346725, -0.3155275881290436, 0.00863481406122446, -0.0032831181306391954, 0.0033352200407534838, 1.0016510486602783, -0.03554101288318634, -0.03959846496582031, 1.49267578125, 0.86572265625, 7.217803955078125, 1.494140625
49389, 0.37121346592903137, -5.325502872467041, 1.859682559967041, 1.3080765008926392, -0.04211581498384476, 11.475674629211426, 1.5446032285690308, -0.051496829837560654, 0.40171679854393005, -0.3519238829612732, -0.9093681573867798, 0.06599017232656479, -0.3775441925058328, 0.45186360166351847, 3.195970272208891, 9362.0, 30146.0, 35388.0, 9362.0, 8.370248794555664, 0.1928926706314087, 0.22495722770690918, -0.12498346716165543, -0.003840747522190213, 0.0024274117313325405, 1.001419186592102, -0.02809712663292885, 0.04104042053222656, 1.499267578125, 1.25830078125, 0.137664794921875, 1.494140625
49399, 0.37282755970954895, -5.325977802276611, 1.857493281364441, 1.3080765008926392, -0.04211581498384476, 11.475674629211426, 1.5446032285690308, -0.051496829837560654, 0.40171679854393005, -0.35194236040115356, -0.9093858599662781, 0.06604686379432678, -0.38236846256609897, 0.45253857271046627, 3.1936503812558015, 9362.0, 30146.0, 35388.0, 9362.0, 8.370248794555664, 0.29436787962913513, -0.13912124931812286, -0.5337846875190735, -0.003840747522190213, 0.0024274117313325405, 1.001419186592102, -0.015119700692594051, 0.04104042053222656, 1.499267578125, 1.25830078125, 0.137664794921875, 1.494140625
49409, 0.37489330768585205, -5.324990272521973, 1.8532629013061523, 1.3080765008926392, -0.04211581498384476, 11.475674629211426, 1.5446032285690308, -0.051496829837560654, 0.40171679854393005, -0.35192304849624634, -0.9094195365905762, 0.0660497173666954, -0.37079354590536767, 0.45508212186899755, 3.1959303858098127, 9362.0, 30146.0, 35388.0, 9362.0, 8.370248794555664, -0.18767015635967255, 0.2897334694862366, -0.29153743386268616, -0.0029905892442911863, 0.0019578305073082447, 1.0008010864257812, -0.015119700692594051, 0.04104042053222656, 1.499267578125, 1.25830078125, 0.137664794921875, 1.494140625
49439, 0.3766094148159027, -5.335529804229736, 1.8471932411193848, 1.500006914138794, -0.04852963238954544, 11.523626327514648, 1.6542024612426758, -0.05547188222408295, 0.3975599706172943, -0.3519234359264374, -0.9093934893608093, 0.06606005877256393, -0.3704841941209445, 0.4426455371870759, 3.19695037493199, 9362.0, 30146.0, 35388.0, 9362.0, 8.370248794555664, -0.19084756076335907, 0.5462679862976074, -0.030002795159816742, -0.004433374851942062, 0.003157390048727393, 0.9987329840660095, -0.02625817060470581, -0.03959846496582031, 1.49267578125, 0.77490234375, 11.7984619140625, 1.494140625
49449, 0.37527939677238464, -5.339745998382568, 1.846396803855896, 1.500006914138794, -0.04852963238954544, 11.523626327514648, 1.6542024612426758, -0.05547188222408295, 0.3975599706172943, -0.3519143760204315, -0.9094170331954956, 0.06608010828495026, -0.37342670368721936, 0.4515042034419423, 3.1907345415333634, 9362.0, 30146.0, 35388.0, 9362.0, 8.370248794555664, -0.04881954565644264, 0.5000712871551514, -0.15180736780166626, -0.004433374851942062, 0.003157390048727393, 0.9987329840660095, -0.02460191398859024, 0.014162063598632812, 1.4970703125, 0.77490234375, 11.7984619140625, 1.494140625
49499, 0.36973434686660767, -5.353203296661377, 1.846366286277771, 1.5838583707809448, -0.051346827298402786, 11.543440818786621, 1.69991135597229, -0.05721025541424751, 0.39532503485679626, -0.35191985964775085, -0.9093960523605347, 0.0660412609577179, -0.38123816775009384, 0.44756792765494424, 3.1877592562929378, 9362.0, 30146.0, 35388.0, 9362.0, 8.370248794555664, -0.0951818898320198, 0.2302732616662979, 0.4428985118865967, -0.0068247499875724316, 0.005369019228965044, 0.9985328316688538, -0.023418407887220383, -0.04855918884277344, 1.491943359375, 1.2041015625, 0.3609771728515625, 1.494140625
49509, 0.3692696988582611, -5.353468894958496, 1.8502620458602905, 1.5838583707809448, -0.051346827298402786, 11.543440818786621, 1.69991135597229, -0.05721025541424751, 0.39532503485679626, -0.3519279658794403, -0.909354031085968, 0.06602533161640167, -0.3829851755340586, 0.46253698712718005, 3.207964497063854, 9362.0, 30146.0, 35388.0, 9362.0, 8.370248794555664, -0.16663731634616852, 0.17099331319332123, 0.5072165131568909, -0.0068247499875724316, 0.005369019228965044, 0.9985328316688538, -0.02477274090051651, 0.13064002990722656, 1.506591796875, 1.2041015625, 0.3609771728515625, 1.494140625
49539, 0.3691786229610443, -5.348329067230225, 1.8621826171875, 1.6699985265731812, -0.054249729961156845, 11.563142776489258, 1.745693325996399, -0.058897119015455246, 0.3926716446876526, -0.3519175350666046, -0.9094062447547913, 0.06609810143709183, -0.36193875732083, 0.4419611744411611, 3.2115292457968247, 9362.0, 30146.0, 35388.0, 9362.0, 8.370248794555664, 0.07596311718225479, -0.14435389637947083, 0.2941363751888275, -0.0050709424540400505, 0.003046361729502678, 0.9999510645866394, -0.025290360674262047, -0.07543754577636719, 1.48974609375, 1.030517578125, 2.3518829345703125, 1.494140625
49559, 0.36974743008613586, -5.3426899909973145, 1.8706903457641602, 1.7050957679748535, -0.05543436110019684, 11.570987701416016, 1.7640243768692017, -0.059565525501966476, 0.3918803334236145, -0.3519776165485382, -0.9094303250312805, 0.06612128764390945, -0.38000393430583057, 0.4259008387261076, 3.1873257006076394, 9362.0, 30146.0, 35388.0, 9362.0, 8.370248794555664, -0.13512155413627625, -0.28110021352767944, 0.3427930176258087, -0.004165096674114466, 0.0027286598924547434, 1.001062273979187, -0.030948422849178314, -0.08439826965332031, 1.489013671875, 1.278076171875, 0.087799072265625, 1.494140625
49589, 0.37132325768470764, -5.336165428161621, 1.8769285678863525, 1.7584284543991089, -0.05723639950156212, 11.58272647857666, 1.7914822101593018, -0.06056802347302437, 0.39068999886512756, -0.3519616723060608, -0.9094304442405701, 0.06611452251672745, -0.37693790960902923, 0.41853505536070656, 3.194907000399553, 9362.0, 30146.0, 35388.0, 9362.0, 8.370248794555664, 0.11741890758275986, 0.030851781368255615, 0.08736968785524368, -0.0036401625256985426, 0.0033381381072103977, 1.0010566711425781, -0.037025995552539825, -0.1739978790283203, 1.481689453125, 0.85986328125, 7.466217041015625, 1.494140625
49599, 0.3730106055736542, -5.334029197692871, 1.8769344091415405, 1.7584284543991089, -0.05723639950156212, 11.58272647857666, 1.7914822101593018, -0.06056802347302437, 0.39068999886512756, -0.35196632146835327, -0.9094240665435791, 0.06614233553409576, -0.3891325307478596, 0.4213367485398578, 3.1915821815041068, 9362.0, 30146.0, 35388.0, 9362.0, 8.370248794555664, -0.06844183802604675, -0.16761061549186707, 0.1528775542974472, -0.00396870169788599, 0.002657991833984852, 1.0004377365112305, -0.03462010249495506, -0.030637741088867188, 1.493408203125, 0.85986328125, 7.466217041015625, 1.494140625
49609, 0.3738418221473694, -5.333794593811035, 1.8773475885391235, 1.7944409847259521, -0.05845446139574051, 11.590531349182129, 1.8097707033157349, -0.06123941391706467, 0.38993358612060547, -0.35195058584213257, -0.9094321727752686, 0.0661991685628891, -0.3814666216499818, 0.41286207999934277, 3.1923050748649233, 9362.0, 30146.0, 35388.0, 9362.0, 8.370248794555664, 0.14142006635665894, -0.048898160457611084, 0.15351438522338867, -0.00396870169788599, 0.002657991833984852, 1.0004377365112305, -0.030126499012112617, 0.12168121337890625, 1.505859375, 0.85986328125, 7.466217041015625, 1.494140625
49629, 0.375238835811615, -5.335022449493408, 1.8744274377822876, 1.7944409847259521, -0.05845446139574051, 11.590531349182129, 1.8097707033157349, -0.06123941391706467, 0.38993358612060547, -0.35196229815483093, -0.9094226360321045, 0.06611455231904984, -0.3820173313437029, 0.41449602862746815, 3.1919150834193393, 9362.0, 30146.0, 35388.0, 9362.0, 8.370248794555664, -0.16201665997505188, 0.41153684258461, -0.28286901116371155, -0.0035630336496979, 0.0007729778881184757, 0.9996772408485413, -0.029433030635118484, 0.15752029418945312, 1.5087890625, 1.19091796875, 0.4375, 1.494140625
49659, 0.37569576501846313, -5.341890335083008, 1.862834095954895, 1.8675626516342163, -0.06093130260705948, 11.606095314025879, 1.846315622329712, -0.06260702759027481, 0.38823387026786804, -0.3519366383552551, -0.9094299674034119, 0.06613021343946457, -0.37763979914163337, 0.4047296531292659, 3.1914617178571967, 9362.0, 30146.0, 35388.0, 9362.0, 8.370248794555664, 0.16919434070587158, 0.14927707612514496, -0.46959105134010315, -0.0024818137753754854, 0.004541011061519384, 1.0008660554885864, -0.04214382916688919, -0.19191741943359375, 1.480224609375, 1.198974609375, 0.38958740234375, 1.494140625
