timeTick, roll, pitch, yaw, stateX, stateY, stateZ, stateVX, stateVY, stateVZ, otX0, otY0, otZ0, otRoll0, otPitch0, otYaw0, left wing, pitch motor, yaw motor, right wing, voltage, roll rate, pitch rate, yaw rate, A_x, A_y, A_z, current, i_raw, v_raw, airflow_voltage, airflow_speed, pot_Pitch
13885, 0.08737342804670334, 0.07071022689342499, -0.17006459832191467, 0, 0, 0, 0, 0, 0, -0.3173863887786865, -0.90716552734375, 0.06632933020591736, -1.189153343854717, 1.417609691626751, -1.7384004409332652, 0, 0, 0, 0, 0, 0, 0, 0, 0, 0, 0, 0, 0, 0, 0, 0, 0
13895, 0.08694133907556534, 0.07437979429960251, -0.17146338522434235, -2.175058170905686e-06, -2.783805712169851e-06, -0.5253833532333374, -0.000246585434069857, -0.0003141360357403755, -0.08499478548765182, -0.31738558411598206, -0.907167375087738, 0.06633679568767548, -1.1829331128165366, 1.4188748053666131, -1.7388593989729737, 9362.0, 30146.0, 35388.0, 9362.0, 7.933885097503662, 0.047311294823884964, -0.1891193389892578, -0.2885720133781433, 0.013696230947971344, -0.008719347417354584, 0.9994120001792908, -0.05548243224620819, -0.12023735046386719, 1.486083984375, 0, 0, 0
13905, 0.0850801095366478, 0.07344838231801987, -0.17159803211688995, -5.248447450867388e-06, -6.6713282649288885e-06, -0.5262333154678345, -0.00036809590528719127, -0.00046336548984982073, -0.08499817550182343, -0.317388653755188, -0.9071651101112366, 0.06631730496883392, -1.1879247042732772, 1.414624133787072, -1.739203715258729, 9362.0, 30146.0, 35388.0, 9362.0, 7.933885097503662, -0.19953227043151855, -0.07975728064775467, 0.021430114284157753, 0.01346047967672348, -0.008287479169666767, 0.9996961355209351, -0.05530472472310066, -0.030637741088867188, 1.493408203125, 1.166748046875, 0.6037750244140625, 1.49267578125
13915, 0.08631845563650131, 0.07538548856973648, -0.17303745448589325, -9.56803069129819e-06, -1.2046953997923993e-05, -0.5270835757255554, -0.0004958219942636788, -0.0006117610028013587, -0.08505228161811829, -0.31738385558128357, -0.907158613204956, 0.06634353846311569, -1.1875505463584377, 1.4138998608735278, -1.7401791994883924, 9362.0, 30146.0, 35388.0, 9362.0, 7.933885097503662, 0.2757822573184967, 0.035448893904685974, 0.016954679042100906, 0.01572931557893753, -0.00965605303645134, 0.9993767142295837, -0.06304619461297989, -0.09335899353027344, 1.48828125, 1.675048828125, 0.6022186279296875, 1.49267578125
13925, 0.08515714108943939, 0.07498842477798462, -0.17187711596488953, -1.5157147572608665e-05, -1.8890961655415595e-05, -0.5279341340065002, -0.0006220046780072153, -0.0007570373709313571, -0.08506188541650772, -0.3173871636390686, -0.9071682691574097, 0.06632714718580246, -1.190498338131187, 1.418563767301947, -1.734278884848813, 9362.0, 30146.0, 35388.0, 9362.0, 7.933885097503662, -0.4147736132144928, 0.05524009093642235, 0.29030641913414, 0.011974033899605274, -0.01085397694259882, 0.999250590801239, -0.054491665214300156, -0.030637741088867188, 1.493408203125, 1.884521484375, 1.3367767333984375, 1.494140625
13935, 0.08609797805547714, 0.07334894686937332, -0.17063292860984802, -2.2024136342224665e-05, -2.7197600502404384e-05, -0.528785228729248, -0.0007513906457461417, -0.0009042948950082064, -0.08516021817922592, -0.31739482283592224, -0.9071579575538635, 0.06633620709180832, -1.1885435667602504, 1.4179322644931176, -1.7439308772387025, 9362.0, 30146.0, 35388.0, 9362.0, 7.933885097503662, 0.20959925651550293, 0.08988754451274872, 0.01362274494022131, 0.013729573227465153, -0.009936441667377949, 0.9978539347648621, -0.059863943606615067, -0.15607833862304688, 1.483154296875, 1.852294921875, 1.18157958984375, 1.497802734375
13945, 0.08495480567216873, 0.07425485551357269, -0.1728542298078537, -3.018123061337974e-05, -3.696655039675534e-05, -0.5296375751495361, -0.0008800289942882955, -0.0010494960006326437, -0.08530641347169876, -0.3173987567424774, -0.9071608781814575, 0.06631942838430405, -1.1869302564753552, 1.4196855161150665, -1.751313952790838, 9362.0, 30146.0, 35388.0, 9362.0, 7.933885097503662, -0.11753653734922409, -0.09398703277111053, -0.10219305008649826, 0.013699045404791832, -0.009307092987000942, 0.999267578125, -0.053807102143764496, -0.09335899353027344, 1.48828125, 1.013671875, 2.6877899169921875, 1.496337890625
13955, 0.08546625077724457, 0.07319753617048264, -0.17091654241085052, -3.961085531045683e-05, -4.8195790441241115e-05, -0.5304912328720093, -0.0010058997431769967, -0.0011963492725044489, -0.08542867749929428, -0.31740236282348633, -0.9071624875068665, 0.06633554399013519, -1.1913261686636951, 1.4203784236476906, -1.7518416601388331, 9362.0, 30146.0, 35388.0, 9362.0, 7.933885097503662, -0.008300167508423328, 0.24719572067260742, 0.2336689531803131, 0.01281567383557558, -0.009432343766093254, 0.9998255372047424, -0.0521392785012722, -0.2187976837158203, 1.47802734375, 1.6025390625, 0.423187255859375, 1.49267578125
13965, 0.08559327572584152, 0.07212749868631363, -0.17033767700195312, -5.030737156630494e-05, -6.0884241975145414e-05, -0.531345784664154, -0.001133399666287005, -0.0013413447886705399, -0.08548342436552048, -0.3174441158771515, -0.9071654081344604, 0.06643896549940109, -1.185731629413499, 1.446768735004781, -1.737308360031456, 9362.0, 30146.0, 35388.0, 9362.0, 7.933885097503662, -0.14246897399425507, 0.17758211493492126, 0.06101427227258682, 0.010173550806939602, -0.00884231273084879, 0.9984694719314575, -0.05212409794330597, -0.03959846496582031, 1.49267578125, 1.749755859375, 0.80908203125, 1.4853515625
13975, 0.08428387343883514, 0.06931572407484055, -0.1686089038848877, -6.226971163414419e-05, -7.502693915739655e-05, -0.5322009921073914, -0.0012590688420459628, -0.0014871957246214151, -0.08555583655834198, -0.31743505597114563, -0.9071671366691589, 0.0664680004119873, -1.19137146829961, 1.449733377523927, -1.735606840811492, 9362.0, 30146.0, 35388.0, 9362.0, 7.933885097503662, 0.06923539936542511, 0.10767397284507751, 0.22899706661701202, 0.013728308491408825, -0.00922113936394453, 0.9990447163581848, -0.052077628672122955, 0.09480094909667969, 1.503662109375, 1.13671875, 0.862274169921875, 1.49267578125
13985, 0.08219015598297119, 0.07255849987268448, -0.16861718893051147, -7.547883433289826e-05, -9.062838216777891e-05, -0.5330575108528137, -0.001382761518470943, -0.0016331006772816181, -0.0857471376657486, -0.3174363076686859, -0.9071683287620544, 0.06644606590270996, -1.1851303566118871, 1.4543523993506824, -1.7301629846292943, 9362.0, 30146.0, 35388.0, 9362.0, 7.933885097503662, -0.3152235746383667, -0.1734500378370285, 0.40798133611679077, 0.011196359992027283, -0.00890735350549221, 1.0015363693237305, -0.047360531985759735, -0.08439826965332031, 1.489013671875, 1.494140625, 0.183990478515625, 1.493408203125
13995, 0.08182448148727417, 0.0713462308049202, -0.16735517978668213, -8.990218339022249e-05, -0.00010767943604150787, -0.5339148044586182, -0.0015019102720543742, -0.0017771084094420075, -0.08571206033229828, -0.31744229793548584, -0.9071672558784485, 0.0664653554558754, -1.1877044197801647, 1.4558368356707945, -1.7322337399566967, 9362.0, 30146.0, 35388.0, 9362.0, 7.933885097503662, 0.20523898303508759, 0.06360065191984177, -0.19736266136169434, 0.011673935689032078, -0.006509529426693916, 0.9985997080802917, -0.04974202439188957, 0.014162063598632812, 1.4970703125, 1.762939453125, 0.8495025634765625, 1.491943359375
14005, 0.08197130262851715, 0.07003242522478104, -0.1677643209695816, -0.0001055449538398534, -0.00012615280866157264, -0.5347715616226196, -0.0016266399761661887, -0.001917567104101181, -0.08564221113920212, -0.3174412250518799, -0.9071665406227112, 0.0664442777633667, -1.1883988703768615, 1.4516394548134315, -1.7349911394179542, 9362.0, 30146.0, 35388.0, 9362.0, 7.933885097503662, -0.05886998027563095, 0.37513890862464905, -0.054077036678791046, 0.013087051920592785, -0.007612310349941254, 0.9985557794570923, -0.04841398820281029, 0.04104042053222656, 1.499267578125, 0.87890625, 6.6805419921875, 1.48974609375
14015, 0.08237084746360779, 0.06682348251342773, -0.16605718433856964, -0.0001224229927174747, -0.0001460258208680898, -0.5356289148330688, -0.001748973736539483, -0.002057035220786929, -0.08583193272352219, -0.3174348473548889, -0.90716153383255, 0.06646328419446945, -1.1892399679933812, 1.456032993593709, -1.7285032156444813, 9362.0, 30146.0, 35388.0, 9362.0, 7.933885097503662, 0.01660347543656826, 0.06536584347486496, 0.001178417238406837, 0.013455212116241455, -0.010310572572052479, 1.0001929998397827, -0.048967327922582626, -0.09335899353027344, 1.48828125, 1.937255859375, 1.652099609375, 1.491943359375
14025, 0.08187276870012283, 0.06706779450178146, -0.16629935801029205, -0.0001405140064889565, -0.00016729580238461494, -0.5364874601364136, -0.0018692286685109138, -0.0021969641093164682, -0.08588158339262009, -0.31744471192359924, -0.9071635007858276, 0.0664643943309784, -1.1875448402720938, 1.4543593707278717, -1.737389375683746, 9362.0, 30146.0, 35388.0, 9362.0, 7.933885097503662, 0.03932355344295502, 0.15343113243579865, 0.160681813955307, 0.013863975182175636, -0.009900979697704315, 1.0000224113464355, -0.059770576655864716, 0.023120880126953125, 1.497802734375, 1.33740234375, 0.0175323486328125, 1.491943359375
14035, 0.08120855689048767, 0.06702819466590881, -0.16526709496974945, -0.0001597805239725858, -0.00018996909784618765, -0.5373461842536926, -0.0019840742461383343, -0.0023376927711069584, -0.08586109429597855, -0.3174405097961426, -0.90716952085495, 0.06645765900611877, -1.1870378590371002, 1.4567879521087548, -1.7364869636113733, 9362.0, 30146.0, 35388.0, 9362.0, 7.933885097503662, 0.11304499208927155, -0.20601360499858856, -0.002239327412098646, 0.013811212033033371, -0.011010468937456608, 0.9989073276519775, -0.0564025342464447, 0.014162063598632812, 1.4970703125, 1.382080078125, 0.0256195068359375, 1.49267578125
14045, 0.0801071748137474, 0.06768689304590225, -0.16548216342926025, -0.00018019726849161088, -0.0002140450378647074, -0.5382049679756165, -0.002099273493513465, -0.0024774977937340736, -0.08589181303977966, -0.3174436092376709, -0.9071564674377441, 0.06645036488771439, -1.1940552811306246, 1.4485705091356635, -1.7386768897068443, 9362.0, 30146.0, 35388.0, 9362.0, 7.933885097503662, -0.15208497643470764, 0.227654367685318, -0.0735311433672905, 0.014987122267484665, -0.008433411829173565, 0.9995461702346802, -0.04929064214229584, -0.030637741088867188, 1.493408203125, 0.82177734375, 9.233016967773438, 1.490478515625
14055, 0.08016044646501541, 0.06823818385601044, -0.16443555057048798, -0.0002017655351664871, -0.00023951323237270117, -0.5390641093254089, -0.0022143807727843523, -0.0026161405257880688, -0.0859401598572731, -0.3174593150615692, -0.907168447971344, 0.06645194441080093, -1.1907645378415022, 1.454852553224157, -1.7360599084786643, 9362.0, 30146.0, 35388.0, 9362.0, 7.933885097503662, 0.1391649842262268, -0.3345046639442444, 0.2538277804851532, 0.015254246070981026, -0.009501638822257519, 1.0009756088256836, -0.05479118600487709, -0.10231781005859375, 1.487548828125, 1.31689453125, 0.0298919677734375, 1.48828125
14065, 0.08119957894086838, 0.06906590610742569, -0.16334325075149536, -0.00022449067910201848, -0.0002663586346898228, -0.5399236083030701, -0.002330644056200981, -0.0027529392391443253, -0.0859576165676117, -0.31743744015693665, -0.9071341156959534, 0.06649025529623032, -1.2042693797968558, 1.466338113026893, -1.7192327775702696, 9362.0, 30146.0, 35388.0, 9362.0, 7.933885097503662, 0.19511152803897858, 0.21858565509319305, 0.30911314487457275, 0.014415811747312546, -0.009798812679946423, 1.0003821849822998, -0.055479370057582855, 0.11272048950195312, 1.505126953125, 1.336669921875, 0.0177764892578125, 1.48974609375
14075, 0.08234243839979172, 0.06511931866407394, -0.1606183797121048, -0.0002483837306499481, -0.0002945731393992901, -0.5407828092575073, -0.0024479669518768787, -0.002889967290684581, -0.08587749302387238, -0.3174678683280945, -0.9071884751319885, 0.06645537912845612, -1.1857838320556606, 1.4668704262016092, -1.7349365698010832, 9362.0, 30146.0, 35388.0, 9362.0, 7.933885097503662, 0.04147543013095856, 0.47994858026504517, 0.30984607338905334, 0.01339236181229353, -0.007440663408488035, 0.9995315074920654, -0.05500004068017006, -0.03959846496582031, 1.49267578125, 0.58447265625, 27.749755859375, 1.490478515625
14085, 0.08253969252109528, 0.0653608962893486, -0.15867015719413757, -0.00027345679700374603, -0.00032416643807664514, -0.5416414737701416, -0.0025666356086730957, -0.003028695471584797, -0.0858539417386055, -0.3174286186695099, -0.9071610569953918, 0.06655333191156387, -1.1475822146267358, 1.48975497730234, -1.7044372067805977, 9362.0, 30146.0, 35388.0, 9362.0, 7.933885097503662, 0.01779308170080185, -0.22099795937538147, -0.07691404968500137, 0.014783072285354137, -0.008537616580724716, 0.9987850189208984, -0.046877630054950714, -0.021678924560546875, 1.494140625, 1.740234375, 0.7806243896484375, 1.494140625
14095, 0.0813056007027626, 0.06582335382699966, -0.15854516625404358, -0.0002996821131091565, -0.00035515613853931427, -0.5425004363059998, -0.002678424585610628, -0.0031692495103925467, -0.08593764901161194, -0.3174877464771271, -0.9070376753807068, 0.06598722189664841, -1.1751424820366574, 1.5938902281942262, -1.8054381138549098, 9362.0, 30146.0, 35388.0, 9362.0, 7.933885097503662, 0.09179823845624924, -0.09429185092449188, -0.2261248379945755, 0.013901551254093647, -0.008737619034945965, 0.9990109801292419, -0.04823847860097885, -0.021678924560546875, 1.494140625, 1.762939453125, 0.8495025634765625, 1.4912109375
14105, 0.08219712972640991, 0.06653283536434174, -0.15916509926319122, -0.00032702702446840703, -0.000387552659958601, -0.5433605313301086, -0.0027905567549169064, -0.0033100564032793045, -0.08608238399028778, -0.31745612621307373, -0.9070051908493042, 0.06603407859802246, -1.2029391479579847, 1.6317688347201056, -1.812375570838611, 9362.0, 30146.0, 35388.0, 9362.0, 7.933885097503662, -0.11078844219446182, 0.17166902124881744, 0.0988081842660904, 0.01225423626601696, -0.009300570003688335, 1.0023143291473389, -0.050406698137521744, -0.030637741088867188, 1.493408203125, 0.92138671875, 5.1427459716796875, 1.490478515625
14115, 0.08344674110412598, 0.066971056163311, -0.159064382314682, -0.0003554982540663332, -0.0004213479987811297, -0.5442211627960205, -0.0029036938212811947, -0.0034490125253796577, -0.0860394686460495, -0.31753334403038025, -0.9071637392044067, 0.06587812304496765, -1.2994986178399903, 1.5928240783362924, -1.7690819037140664, 9362.0, 30146.0, 35388.0, 9362.0, 7.933885097503662, 0.11766449362039566, -0.5371384620666504, -0.27712735533714294, 0.012951294891536236, -0.00821793731302023, 0.9987384080886841, -0.059201911091804504, -0.06647872924804688, 1.490478515625, 1.83251953125, 1.09716796875, 1.494873046875
14125, 0.0836881622672081, 0.06826545298099518, -0.16140711307525635, -0.00038510741433128715, -0.00045654107816517353, -0.5450809597969055, -0.0030181396286934614, -0.0035896042827516794, -0.08591990172863007, -0.3174085319042206, -0.9072062373161316, 0.06637956202030182, -1.143317665198993, 1.416977165649115, -1.7347920979695577, 9362.0, 30146.0, 35388.0, 9362.0, 7.933885097503662, -0.02186858095228672, -0.3808004558086395, -0.4211256206035614, 0.014086865819990635, -0.010608755052089691, 0.9991075992584229, -0.060358550399541855, -0.07543754577636719, 1.48974609375, 1.376953125, 0.0225982666015625, 1.4912109375
14135, 0.08332888036966324, 0.07124003022909164, -0.16322879493236542, -0.0004158638184890151, -0.0004931495641358197, -0.5459403991699219, -0.003133148420602083, -0.003732083598151803, -0.08596895635128021, -0.31745079159736633, -0.9070770740509033, 0.06583002954721451, -1.235051891875981, 1.5644222635786207, -1.7937584373585216, 9362.0, 30146.0, 35388.0, 9362.0, 7.933885097503662, 0.05184301733970642, 0.06098213046789169, -0.09672561287879944, 0.015569513663649559, -0.009515159763395786, 1.0010027885437012, -0.06958626210689545, -0.24567794799804688, 1.475830078125, 0.984375, 3.3490142822265625, 1.49267578125
14145, 0.08318331837654114, 0.06890536099672318, -0.1635143756866455, -0.0004477814363781363, -0.0005311848362907767, -0.5468003153800964, -0.0032503781840205193, -0.0038749680388718843, -0.08601680397987366, -0.31744566559791565, -0.9070413708686829, 0.06587399542331696, -1.213623921983777, 1.5546295152422829, -1.8394239070119673, 9362.0, 30146.0, 35388.0, 9362.0, 7.933885097503662, -0.14486029744148254, -0.07470216602087021, -0.1371052861213684, 0.014438570477068424, -0.01095790509134531, 1.0015875101089478, -0.06411755830049515, 0.014162063598632812, 1.4970703125, 1.001220703125, 2.9564666748046875, 1.486083984375
14155, 0.08309042453765869, 0.0698552057147026, -0.16514471173286438, -0.00048089801566675305, -0.0005706471856683493, -0.5476597547531128, -0.0033729304559528828, -0.0040174974128603935, -0.08587534725666046, -0.3174121379852295, -0.9070321917533875, 0.06584017723798752, -1.213243100576462, 1.5380958613832263, -1.8444419099563787, 9362.0, 30146.0, 35388.0, 9362.0, 7.933885097503662, 0.02682548202574253, 0.3464664816856384, -0.1612420380115509, 0.013441169634461403, -0.010867656208574772, 0.9984530210494995, -0.06475468724966049, -0.20087814331054688, 1.4794921875, 1.248046875, 0.169647216796875, 1.49267578125
14165, 0.08268506824970245, 0.06973090767860413, -0.16687896847724915, -0.0005152194062247872, -0.000611532770562917, -0.5485183596611023, -0.0034913518466055393, -0.004159620497375727, -0.08584732562303543, -0.3173779845237732, -0.9070321917533875, 0.06583618372678757, -1.213883696618533, 1.5456018430542997, -1.8513690825049722, 9362.0, 30146.0, 35388.0, 9362.0, 7.933885097503662, 0.02660570852458477, -0.1696399450302124, -0.26629483699798584, 0.01450388878583908, -0.010020727291703224, 0.9999245405197144, -0.06141316145658493, 0.023120880126953125, 1.497802734375, 1.014404296875, 2.67254638671875, 1.487548828125
14175, 0.08345731347799301, 0.0696684792637825, -0.16679516434669495, -0.0005507320165634155, -0.0006538374000228941, -0.5493776202201843, -0.0036111767403781414, -0.0043013086542487144, -0.08600501716136932, -0.3173813819885254, -0.9069902300834656, 0.06583887338638306, -1.2341687406619788, 1.5366000485671236, -1.8558507405234053, 9362.0, 30146.0, 35388.0, 9362.0, 7.933885097503662, -0.02365105040371418, 0.03487921506166458, 0.2558757960796356, 0.013051828369498253, -0.008377056568861008, 1.00016188621521, -0.06476684659719467, -0.10231781005859375, 1.487548828125, 1.581298828125, 0.3732147216796875, 1.48828125
14185, 0.08456487208604813, 0.07028403878211975, -0.16858474910259247, -0.0005507320165634155, -0.0006538374000228941, -0.5493776202201843, -0.0036111767403781414, -0.0043013086542487144, -0.08600501716136932, -0.3173724412918091, -0.907014012336731, 0.06584803014993668, -1.2578266480656541, 1.5218489067680707, -1.860226743030316, 9362.0, 30146.0, 35388.0, 9362.0, 7.933885097503662, -0.010439320467412472, -0.06282950192689896, -0.10075404495000839, 0.013051828369498253, -0.008377056568861008, 1.00016188621521, -0.06476684659719467, -0.10231781005859375, 1.487548828125, 1.8720703125, 1.27410888671875, 1.490478515625
14195, 0.08542687445878983, 0.07027482986450195, -0.17034347355365753, -0.0005507320165634155, -0.0006538374000228941, -0.5493776202201843, -0.0036111767403781414, -0.0043013086542487144, -0.08600501716136932, -0.31741130352020264, -0.9069502949714661, 0.0656929686665535, -1.272461194556597, 1.4916262278312615, -1.822110816660457, 9362.0, 30146.0, 35388.0, 9362.0, 7.933885097503662, 0.04986129328608513, -0.17695921659469604, -0.19733090698719025, 0.013051828369498253, -0.008377056568861008, 1.00016188621521, -0.04942372441291809, -0.19191741943359375, 1.480224609375, 1.8720703125, 1.27410888671875, 1.490478515625
14215, 0.08550192415714264, 0.06865523010492325, -0.16928055882453918, -0.0007047816761769354, -0.0008372941520065069, -0.5528164505958557, -0.004092381335794926, -0.004875614773482084, -0.08586513251066208, -0.3173561692237854, -0.9070391058921814, 0.0656912550330162, -1.2835153689153918, 1.5272032723682116, -1.7498198682454376, 9362.0, 30146.0, 35388.0, 9362.0, 7.933885097503662, -0.21570229530334473, 0.11146339774131775, 0.17272156476974487, 0.01312929205596447, -0.009365531615912914, 1.0016251802444458, -0.04942372441291809, -0.19191741943359375, 1.480224609375, 1.8720703125, 1.27410888671875, 1.490478515625
14225, 0.08517282456159592, 0.0687505379319191, -0.1671731323003769, -0.0007047816761769354, -0.0008372941520065069, -0.5528164505958557, -0.004092381335794926, -0.004875614773482084, -0.08586513251066208, -0.3174211382865906, -0.9069617986679077, 0.06564504653215408, -1.2588236055672917, 1.4861006833131114, -1.8623094303692382, 9362.0, 30146.0, 35388.0, 9362.0, 7.933885097503662, 0.04595375061035156, -0.4855181872844696, 0.05359239876270294, 0.01312929205596447, -0.009365531615912914, 1.0016251802444458, -0.06829285621643066, -0.18295860290527344, 1.48095703125, 1.8720703125, 1.27410888671875, 1.490478515625
14235, 0.08559778332710266, 0.07140219956636429, -0.16475249826908112, -0.0007890354027040303, -0.0009377200622111559, -0.5545297861099243, -0.004331439267843962, -0.005167234688997269, -0.0855940654873848, -0.3173862099647522, -0.9069671034812927, 0.06566426157951355, -1.265646368760377, 1.5011259345183419, -1.8230258775158792, 9362.0, 30146.0, 35388.0, 9362.0, 7.933885097503662, 0.18225832283496857, -0.09341356158256531, 0.17985033988952637, 0.013656926341354847, -0.00816351454705, 0.9986335635185242, -0.06829285621643066, -0.18295860290527344, 1.48095703125, 1.8720703125, 1.27410888671875, 1.490478515625
14245, 0.08640578389167786, 0.07207868248224258, -0.16292059421539307, -0.0008329399861395359, -0.0009901192970573902, -0.5553861260414124, -0.004449472762644291, -0.005312609951943159, -0.08567223697900772, -0.31742000579833984, -0.9069534540176392, 0.06566152721643448, -1.261513217084713, 1.4974200166328728, -1.8628654124921076, 9362.0, 30146.0, 35388.0, 9362.0, 7.933885097503662, 0.02071017399430275, 0.1470354199409485, 0.5012027621269226, 0.013290862552821636, -0.008849235251545906, 0.9977895617485046, -0.06829285621643066, -0.18295860290527344, 1.48095703125, 1.8720703125, 1.27410888671875, 1.490478515625
14255, 0.08522015810012817, 0.07310578227043152, -0.15976844727993011, -0.0008780467906035483, -0.0010439748875796795, -0.556243896484375, -0.004571882076561451, -0.005458509083837271, -0.08587781339883804, -0.31745445728302, -0.9069498181343079, 0.06568337231874466, -1.2557865301083169, 1.5059064752201436, -1.8509256860777275, 9362.0, 30146.0, 35388.0, 9362.0, 7.933885097503662, 0.02071017399430275, 0.1470354199409485, 0.5012027621269226, 0.014568760991096497, -0.008856981061398983, 0.9998099207878113, -0.06829285621643066, -0.18295860290527344, 1.48095703125, 1.8720703125, 1.27410888671875, 1.490478515625
14285, 0.08720969408750534, 0.07505586743354797, -0.14800213277339935, -0.0010208183666691184, -0.001214326941408217, -0.5588230490684509, -0.004949089605361223, -0.005897107068449259, -0.0859377309679985, -0.3174649178981781, -0.9069675803184509, 0.065689817070961, -1.288601591559429, 1.562473408831039, -1.819859320464553, 9362.0, 30146.0, 35388.0, 9362.0, 7.933885097503662, 0.05202436447143555, -0.05563211441040039, 0.24271103739738464, 0.013728119432926178, -0.00835723802447319, 1.0013667345046997, -0.045595187693834305, -0.12023735046386719, 1.486083984375, 1.8720703125, 1.27410888671875, 1.49267578125
14295, 0.08905702084302902, 0.07419838756322861, -0.14283214509487152, -0.0010208183666691184, -0.001214326941408217, -0.5588230490684509, -0.004949089605361223, -0.005897107068449259, -0.0859377309679985, -0.31749844551086426, -0.9070090651512146, 0.06574655324220657, -1.288225001985516, 1.5891181479411216, -1.7744963672336025, 9362.0, 30146.0, 35388.0, 9362.0, 7.933885097503662, 0.04813912510871887, -0.052698444575071335, 0.6315327286720276, 0.013728119432926178, -0.00835723802447319, 1.0013667345046997, -0.04180696979165077, -0.03959846496582031, 1.49267578125, 1.8720703125, 1.27410888671875, 1.49267578125
14305, 0.08870157599449158, 0.07067981362342834, -0.13498054444789886, -0.001122363843023777, -0.0013352199457585812, -0.5605416297912598, -0.005206010770052671, -0.006193290930241346, -0.08585067093372345, -0.3175060451030731, -0.9069913625717163, 0.06572455167770386, -1.2826350164945497, 1.5928267972585104, -1.7863914340095703, 9362.0, 30146.0, 35388.0, 9362.0, 7.933885097503662, 0.07290758937597275, 0.15995356440544128, 0.6634555459022522, 0.013330928981304169, -0.008782129734754562, 1.0013326406478882, -0.04180696979165077, -0.03959846496582031, 1.49267578125, 1.8720703125, 1.27410888671875, 1.49267578125
14345, 0.08584991097450256, 0.06364040076732635, -0.10759901255369186, -0.00128415587823838, -0.0015278543578460813, -0.5631139874458313, -0.005575384944677353, -0.00664782477542758, -0.08568678796291351, -0.31728264689445496, -0.9070862531661987, 0.06595860421657562, -1.2439707516464416, 1.6465324465821993, -1.9291310364148833, 9362.0, 30146.0, 35388.0, 9362.0, 7.933885097503662, 0.11342447251081467, 0.24136322736740112, 1.0163731575012207, 0.013330928981304169, -0.008782129734754562, 1.0013326406478882, -0.049859486520290375, 0.08584022521972656, 1.5029296875, 1.8720703125, 1.27410888671875, 1.49267578125
14355, 0.085297591984272, 0.05893872678279877, -0.09823764115571976, -0.00128415587823838, -0.0015278543578460813, -0.5631139874458313, -0.005575384944677353, -0.00664782477542758, -0.08568678796291351, -0.31732627749443054, -0.9072160720825195, 0.06649728119373322, -1.1597819590444352, 1.449339461027165, -1.776914300182103, 9362.0, 30146.0, 35388.0, 9362.0, 7.933885097503662, -0.10491211712360382, 0.3973577618598938, 0.7177019119262695, 0.012965871952474117, -0.009729579091072083, 0.9984475374221802, -0.049859486520290375, 0.08584022521972656, 1.5029296875, 1.8720703125, 1.27410888671875, 1.49267578125
14365, 0.08597908169031143, 0.057791247963905334, -0.09208480268716812, -0.00128415587823838, -0.0015278543578460813, -0.5631139874458313, -0.005575384944677353, -0.00664782477542758, -0.08568678796291351, -0.31730714440345764, -0.9072008728981018, 0.06644992530345917, -1.155717268069678, 1.448916242635704, -1.7731498009673634, 9362.0, 30146.0, 35388.0, 9362.0, 7.933885097503662, 0.17830374836921692, 0.00537574989721179, 0.49433189630508423, 0.013597499579191208, -0.009331228211522102, 0.9990843534469604, -0.049859486520290375, 0.08584022521972656, 1.5029296875, 1.8720703125, 1.27410888671875, 1.490478515625
14375, 0.08551327139139175, 0.05628276243805885, -0.08746033161878586, -0.00128415587823838, -0.0015278543578460813, -0.5631139874458313, -0.005575384944677353, -0.00664782477542758, -0.08568678796291351, -0.3173048496246338, -0.9072185158729553, 0.0664474293589592, -1.1554370508350698, 1.431862787552376, -1.7730917267545678, 9362.0, 30146.0, 35388.0, 9362.0, 7.933885097503662, 0.17830374836921692, 0.00537574989721179, 0.49433189630508423, 0.012720324099063873, -0.008799934759736061, 0.9994210600852966, -0.049859486520290375, 0.08584022521972656, 1.5029296875, 1.8720703125, 1.27410888671875, 1.002685546875
14415, 0.08377446979284286, 0.04346846044063568, -0.08022251725196838, -0.001576800481416285, -0.0018787021981552243, -0.5674059391021729, -0.006112828850746155, -0.007383548188954592, -0.08610120415687561, -0.3172914385795593, -0.9071803689002991, 0.06633753329515457, -1.181056385264578, 1.3542448631936281, -1.7202229686691606, 9362.0, 30146.0, 35388.0, 9362.0, 7.933885097503662, -0.3043306767940521, 0.5877504348754883, 0.15306757390499115, 0.013642056845128536, -0.012022235430777073, 0.9985029101371765, -0.043171476572752, -0.08439826965332031, 1.489013671875, 1.8720703125, 1.27410888671875, 1.49267578125
14445, 0.08136209845542908, 0.02281535230576992, -0.09263651818037033, -0.001576800481416285, -0.0018787021981552243, -0.5674059391021729, -0.006112828850746155, -0.007383548188954592, -0.08610120415687561, -0.31723031401634216, -0.9072406888008118, 0.06652525067329407, -1.154597300951873, 1.4167890824439837, -1.7711749722396144, 9362.0, 30146.0, 35388.0, 9362.0, 7.933885097503662, -0.12454256415367126, 0.5376286506652832, -0.9175401329994202, 0.011667650192975998, -0.0073620895855128765, 0.9974544644355774, -0.05829843133687973, -0.07543754577636719, 1.48974609375, 1.8720703125, 1.27410888671875, 1.49560546875
14455, 0.08096063882112503, 0.017413711175322533, -0.10200798511505127, -0.002026318572461605, -0.002430869033560157, -0.5734257698059082, -0.006666148547083139, -0.008388707414269447, -0.08590266108512878, -0.31726694107055664, -0.9072466492652893, 0.06653404980897903, -1.158684308138885, 1.4169744681834686, -1.784598502159533, 9362.0, 30146.0, 35388.0, 9362.0, 7.933885097503662, -0.012955317273736, 0.5909414291381836, -1.1844841241836548, 0.011667650192975998, -0.0073620895855128765, 0.9974544644355774, -0.04866616055369377, -0.18295860290527344, 1.48095703125, 1.8720703125, 1.27410888671875, 1.49560546875
14465, 0.07937120646238327, 0.009010297246277332, -0.11207332462072372, -0.0020931758917868137, -0.0025154503528028727, -0.574286162853241, -0.006705377716571093, -0.008527559228241444, -0.08617527782917023, -0.3172660171985626, -0.907243013381958, 0.06656797230243683, -1.1594908499660237, 1.4292772563347285, -1.7806553082040566, 9362.0, 30146.0, 35388.0, 9362.0, 7.933885097503662, -0.2170068770647049, 0.7648767232894897, -1.3383208513259888, 0.011667650192975998, -0.0073620895855128765, 0.9974544644355774, -0.04866616055369377, -0.18295860290527344, 1.48095703125, 1.8720703125, 1.27410888671875, 1.49560546875
14475, 0.0779404267668724, 0.002797671826556325, -0.1247827336192131, -0.002160379895940423, -0.0026014179456979036, -0.5751485824584961, -0.006735442206263542, -0.008665940724313259, -0.08630380779504776, -0.3172893822193146, -0.9072463512420654, 0.06655824929475784, -1.1618296631916254, 1.4432446669034107, -1.7878030746816385, 9362.0, 30146.0, 35388.0, 9362.0, 7.933885097503662, -0.24592404067516327, 0.3780575692653656, -1.1340223550796509, 0.011667650192975998, -0.0073620895855128765, 0.9974544644355774, -0.04346723482012749, -0.021678924560546875, 1.494140625, 1.8720703125, 1.27410888671875, 1.49560546875
14545, 0.0843181312084198, 0.04985644295811653, -0.15201090276241302, -0.002362920669838786, -0.0028674679342657328, -0.5777350664138794, -0.006757871247828007, -0.009069337509572506, -0.08625282347202301, -0.3174115717411041, -0.9071153402328491, 0.06608274579048157, -1.2259458994834413, 1.6496888802105332, -1.88936057077947, 9362.0, 30146.0, 35388.0, 9362.0, 7.933885097503662, 0.10696253925561905, -0.9479447603225708, -0.01524185948073864, 0.01013245154172182, -0.01148097962141037, 0.9996863007545471, -0.05229942500591278, 0.014162063598632812, 1.4970703125, 1.8720703125, 1.27410888671875, 1.4912109375
14595, 0.08749852329492569, 0.09921450167894363, -0.14823387563228607, -0.002914519514888525, -0.0036369948647916317, -0.5846363306045532, -0.007232689298689365, -0.01019222941249609, -0.08633827418088913, -0.3173646330833435, -0.9071126580238342, 0.06610310077667236, -1.229518467596006, 1.623641494262415, -1.8820040387334693, 9362.0, 30146.0, 35388.0, 9362.0, 7.933885097503662, -0.21264757215976715, -0.024617666378617287, 0.29710879921913147, 0.021736685186624527, -0.008435949683189392, 0.9981514811515808, -0.04142674431204796, -0.08439826965332031, 1.489013671875, 1.8720703125, 1.27410888671875, 1.4912109375
14605, 0.08615175634622574, 0.09766285121440887, -0.1468190997838974, -0.0030623108614236116, -0.00384381040930748, -0.5863666534423828, -0.007552227936685085, -0.01048915646970272, -0.086626797914505, -0.3173375725746155, -0.9071113467216492, 0.0660918578505516, -1.227656049617821, 1.6051327657314118, -1.8873559493564587, 9362.0, 30146.0, 35388.0, 9362.0, 7.933885097503662, -0.11765158921480179, 0.36677736043930054, 0.21548907458782196, 0.02239382453262806, -0.007278412580490112, 0.9990828633308411, -0.04142674431204796, -0.08439826965332031, 1.489013671875, 1.8720703125, 1.27410888671875, 1.4912109375
14665, 0.07732431590557098, 0.021772421896457672, -0.15113338828086853, -0.003377644345164299, -0.0042752488516271114, -0.5898374915122986, -0.008192303590476513, -0.01108215469866991, -0.08696684241294861, -0.3173808157444, -0.9070646166801453, 0.06590349227190018, -1.2647961015110174, 1.5104028371884795, -1.7945627208703379, 9362.0, 30146.0, 35388.0, 9362.0, 7.933885097503662, -0.10389434546232224, 1.5892266035079956, -0.4271835386753082, 0.01712542586028576, -0.00765132624655962, 0.9988511800765991, -0.05213506519794464, -0.12023735046386719, 1.486083984375, 1.71533203125, 0.709686279296875, 1.493408203125
14675, 0.07647909969091415, 0.006254514213651419, -0.1539437472820282, -0.0036282120272517204, -0.004614181350916624, -0.5924516916275024, -0.008475217036902905, -0.011508727446198463, -0.0873078852891922, -0.3173936605453491, -0.907059371471405, 0.06588730961084366, -1.2608030394618368, 1.5204145672824438, -1.795217373537586, 9362.0, 30146.0, 35388.0, 9362.0, 7.933885097503662, -0.10389434546232224, 1.5892266035079956, -0.4271835386753082, 0.00828096829354763, -0.00991758145391941, 0.9980998635292053, -0.05213506519794464, -0.12023735046386719, 1.486083984375, 1.71533203125, 0.709686279296875, 1.493408203125
14695, 0.07229398936033249, -0.014766433276236057, -0.16535663604736328, -0.003713152138516307, -0.004729929845780134, -0.5933250784873962, -0.008512844331562519, -0.011640936136245728, -0.0873723030090332, -0.31739577651023865, -0.9070389866828918, 0.0659015029668808, -1.2530252669417137, 1.5364318762404423, -1.7978341770197406, 9362.0, 30146.0, 35388.0, 9362.0, 7.933885097503662, -0.4118558466434479, 1.081205129623413, -0.5979605913162231, 0.00828096829354763, -0.00991758145391941, 0.9980998635292053, -0.04792708531022072, 0.0052013397216796875, 1.496337890625, 1.71533203125, 0.709686279296875, 1.4912109375
14745, 0.07165291160345078, -0.007341156248003244, -0.17558258771896362, -0.004221888724714518, -0.0054510198533535, -0.5986005663871765, -0.008394754491746426, -0.012382897548377514, -0.08818711340427399, -0.3173763155937195, -0.9071531295776367, 0.06636346876621246, -1.190915634397198, 1.4214656050333474, -1.7234501383997733, 9362.0, 30146.0, 35388.0, 9362.0, 7.933885097503662, -0.027698714286088943, -0.12567956745624542, -0.13708087801933289, 0.006506488658487797, -0.008616277948021889, 0.998677670955658, -0.011625154875218868, -0.09335899353027344, 1.48828125, 1.71533203125, 0.709686279296875, 1.490478515625
14785, 0.07904480397701263, 0.048661839216947556, -0.16992473602294922, -0.004221888724714518, -0.0054510198533535, -0.5986005663871765, -0.008394754491746426, -0.012382897548377514, -0.08818711340427399, -0.31740817427635193, -0.9071508646011353, 0.06635773926973343, -1.1931579587671628, 1.4371917297519587, -1.7276551091552117, 9362.0, 30146.0, 35388.0, 9362.0, 7.933885097503662, 0.2518259882926941, -1.978473424911499, 0.08951607346534729, 0.015404101461172104, -0.0071489242836833, 0.9985635280609131, -0.03364235535264015, -0.04855918884277344, 1.491943359375, 1.71533203125, 0.709686279296875, 1.493408203125
14795, 0.08262606710195541, 0.06145031377673149, -0.16509601473808289, -0.004641152918338776, -0.006085566245019436, -0.6030198931694031, -0.008459729142487049, -0.013008616864681244, -0.08859534561634064, -0.3173934817314148, -0.9071600437164307, 0.06636932492256165, -1.192672156699089, 1.4416797001890984, -1.7275042400217568, 9362.0, 30146.0, 35388.0, 9362.0, 7.933885097503662, 0.3092902600765228, -0.9440287947654724, 0.5720570087432861, 0.015404101461172104, -0.0071489242836833, 0.9985635280609131, -0.03364235535264015, -0.04855918884277344, 1.491943359375, 1.71533203125, 0.709686279296875, 1.493408203125
14805, 0.08412622660398483, 0.07270155102014542, -0.15867215394973755, -0.004726168233901262, -0.00621632719412446, -0.6039063334465027, -0.008543326519429684, -0.013143567368388176, -0.08869732916355133, -0.3173980414867401, -0.907150149345398, 0.06636959314346313, -1.1940161950877193, 1.4304437521593059, -1.728607333018254, 9362.0, 30146.0, 35388.0, 9362.0, 7.933885097503662, 0.16603614389896393, -1.3474884033203125, 0.5627208948135376, 0.015404101461172104, -0.0071489242836833, 0.9985635280609131, -0.03364235535264015, -0.04855918884277344, 1.491943359375, 1.71533203125, 0.709686279296875, 1.493408203125
14815, 0.08613570779561996, 0.08048038929700851, -0.15274454653263092, -0.004812129307538271, -0.006348468363285065, -0.6047935485839844, -0.00864887423813343, -0.013284680433571339, -0.08874296396970749, -0.31739428639411926, -0.9071575999259949, 0.06633730977773666, -1.1926965578337927, 1.4327677450169176, -1.729456118828675, 9362.0, 30146.0, 35388.0, 9362.0, 7.933885097503662, 0.16603614389896393, -1.3474884033203125, 0.5627208948135376, 0.017524829134345055, -0.008812599815428257, 0.9980931878089905, -0.03364235535264015, -0.04855918884277344, 1.491943359375, 1.71533203125, 0.709686279296875, 1.493408203125
14855, 0.08726046234369278, 0.08602363616228104, -0.14406341314315796, -0.004812129307538271, -0.006348468363285065, -0.6047935485839844, -0.00864887423813343, -0.013284680433571339, -0.08874296396970749, -0.31736576557159424, -0.907139003276825, 0.06632059812545776, -1.190107714484747, 1.4023664119810064, -1.723893758147645, 9362.0, 30146.0, 35388.0, 9362.0, 7.933885097503662, -0.14799284934997559, 0.5078388452529907, -0.07962734252214432, 0.018457015976309776, -0.008641773834824562, 0.9992215633392334, -0.06900803744792938, -0.1291980743408203, 1.4853515625, 1.71533203125, 0.709686279296875, 1.491943359375
14885, 0.08323954045772552, 0.06178880110383034, -0.14193527400493622, -0.005452096462249756, -0.007314296904951334, -0.61102694272995, -0.00965574849396944, -0.014315514825284481, -0.08943120390176773, -0.31736302375793457, -0.9071435332298279, 0.06631465256214142, -1.1831964244350595, 1.3876312267261426, -1.7290480232786998, 9362.0, 30146.0, 35388.0, 9362.0, 7.933885097503662, -0.20313584804534912, 1.103369116783142, -0.024043746292591095, 0.015943964943289757, -0.009831193834543228, 0.9999821782112122, -0.07599711418151855, -0.1739978790283203, 1.481689453125, 1.71533203125, 0.709686279296875, 1.493408203125
14895, 0.08291374891996384, 0.04882895573973656, -0.1410829722881317, -0.005549260880798101, -0.007458177395164967, -0.6119213104248047, -0.009777167811989784, -0.014460629783570766, -0.0894407406449318, -0.31733912229537964, -0.9071143269538879, 0.06628149002790451, -1.1870165784611524, 1.393511411032165, -1.7440487714694153, 9362.0, 30146.0, 35388.0, 9362.0, 7.933885097503662, 0.006132916081696749, 1.0660699605941772, -0.10530772805213928, 0.015943964943289757, -0.009831193834543228, 0.9999821782112122, -0.07599711418151855, -0.1739978790283203, 1.481689453125, 1.71533203125, 0.709686279296875, 1.493408203125
14905, 0.08125849068164825, 0.04041968658566475, -0.140781432390213, -0.005647563375532627, -0.007603494916111231, -0.612815797328949, -0.009883294813334942, -0.014602861367166042, -0.08946127444505692, -0.317333459854126, -0.9071332812309265, 0.06631668657064438, -1.1814126436406114, 1.3913128958673155, -1.728763196899503, 9362.0, 30146.0, 35388.0, 9362.0, 7.933885097503662, 0.006132916081696749, 1.0660699605941772, -0.10530772805213928, 0.012244421057403088, -0.010515259578824043, 0.9999399185180664, -0.07599711418151855, -0.1739978790283203, 1.481689453125, 1.71533203125, 0.709686279296875, 1.493408203125
14915, 0.07914283871650696, 0.02987189032137394, -0.1387653648853302, -0.005746816284954548, -0.007750232703983784, -0.6137101650238037, -0.009967280551791191, -0.014744686894118786, -0.08941356837749481, -0.3173440098762512, -0.9071474075317383, 0.06632306426763535, -1.1814442696967133, 1.3818632848912955, -1.7260245176999909, 9362.0, 30146.0, 35388.0, 9362.0, 7.933885097503662, 0.006132916081696749, 1.0660699605941772, -0.10530772805213928, 0.011641259305179119, -0.00978684239089489, 1.0006705522537231, -0.07599711418151855, -0.1739978790283203, 1.481689453125, 1.71533203125, 0.709686279296875, 1.493408203125
14925, 0.07722525298595428, 0.020963696762919426, -0.1376730352640152, -0.005746816284954548, -0.007750232703983784, -0.6137101650238037, -0.009967280551791191, -0.014744686894118786, -0.08941356837749481, -0.3173447549343109, -0.9071564078330994, 0.0663495883345604, -1.189021327845681, 1.3919312686877845, -1.7152799413984139, 9362.0, 30146.0, 35388.0, 9362.0, 7.933885097503662, -0.21662989258766174, 0.9694054126739502, -0.030612263828516006, 0.011641259305179119, -0.00978684239089489, 1.0006705522537231, -0.07599711418151855, -0.1739978790283203, 1.481689453125, 1.71533203125, 0.709686279296875, 1.493408203125
14955, 0.07580442726612091, 0.003956739325076342, -0.13159295916557312, -0.00594746321439743, -0.008047888986766338, -0.6154975891113281, -0.010088339447975159, -0.015019183047115803, -0.08929818868637085, -0.31732654571533203, -0.9071465134620667, 0.06633520871400833, -1.1779043784085494, 1.4190157787215867, -1.717707774460248, 9362.0, 30146.0, 35388.0, 9362.0, 7.933885097503662, -0.09537425637245178, 0.18974564969539642, 0.5631220936775208, 0.00762062007561326, -0.009279537945985794, 1.0001308917999268, -0.07050233334302902, -0.03959846496582031, 1.49267578125, 1.71533203125, 0.709686279296875, 1.4912109375
14985, 0.07456669956445694, 0.0171552374958992, -0.11497601121664047, -0.006352968979626894, -0.00865920353680849, -0.6190628409385681, -0.010163074359297752, -0.015544756315648556, -0.08903851360082626, -0.3173682987689972, -0.9071516990661621, 0.06634419411420822, -1.1846440262561244, 1.4439940654349073, -1.718886682936433, 9362.0, 30146.0, 35388.0, 9362.0, 7.933885097503662, -0.0829881876707077, -0.8421750068664551, 0.4807523787021637, 0.0068905651569366455, -0.008939835242927074, 0.999496340751648, -0.2101689577102661, -0.01271820068359375, 1.494873046875, 1.576171875, 0.361328125, 1.4912109375
15025, 0.07655602693557739, 0.0560116320848465, -0.09385650604963303, -0.00676077650859952, -0.009291264228522778, -0.6226289868354797, -0.01025752630084753, -0.016056278720498085, -0.08918225020170212, -0.31736528873443604, -0.9071101546287537, 0.06630878150463104, -1.1849146036411862, 1.4563043463179781, -1.71216535908217, 9362.0, 30146.0, 35388.0, 9362.0, 7.933885097503662, 0.2177560180425644, -1.4771015644073486, 0.18323200941085815, 0.01297570951282978, -0.009992293082177639, 0.995318591594696, -0.1209302693605423, -0.01271820068359375, 1.494873046875, 1.576171875, 0.361328125, 1.48828125
15115, 0.07988905906677246, 0.07897549122571945, -0.10133428126573563, -0.007838631048798561, -0.010962283238768578, -0.6316102147102356, -0.011478683911263943, -0.01738785021007061, -0.08998069167137146, -0.31733518838882446, -0.907077968120575, 0.06624196469783783, -1.199432471723967, 1.4213068263150603, -1.7229136376170393, 9362.0, 30146.0, 35388.0, 9362.0, 7.933885097503662, 0.0034339616540819407, 0.10952860116958618, -0.18531450629234314, 0.01671369932591915, -0.01022065244615078, 1.0008207559585571, -0.1569434553384781, -0.11127853393554688, 1.48681640625, 1.5439453125, 0.2884979248046875, 1.491943359375
15155, 0.07762563228607178, 0.04860979691147804, -0.10657642036676407, -0.008308717049658298, -0.011668680235743523, -0.6352072954177856, -0.011995114386081696, -0.01792917028069496, -0.09007835388183594, -0.3173172175884247, -0.9070805907249451, 0.06625185906887054, -1.1934412763135491, 1.4133620697427034, -1.7272611151851027, 9362.0, 30146.0, 35388.0, 9362.0, 7.933885097503662, -0.29870903491973877, 0.5402141809463501, -0.1785503476858139, 0.010646418668329716, -0.011622210033237934, 0.9984795451164246, -0.29985475540161133, -0.1739978790283203, 1.481689453125, 1.5439453125, 0.2884979248046875, 1.48828125
15215, 0.07557487487792969, 0.03565708547830582, -0.09256231039762497, -0.009042763151228428, -0.012768082320690155, -0.6406240463256836, -0.012429531663656235, -0.018711019307374954, -0.09031126648187637, -0.31732940673828125, -0.9070948958396912, 0.06625010818243027, -1.1873307197796519, 1.419606776380192, -1.7350232646203152, 9362.0, 30146.0, 35388.0, 9362.0, 7.933885097503662, -0.14777535200119019, -0.6997888088226318, 0.5933220386505127, 0.008208812214434147, -0.009998432360589504, 1.0027410984039307, -0.16235603392124176, -0.03959846496582031, 1.49267578125, 1.5439453125, 0.2884979248046875, 1.4912109375
15225, 0.07450614869594574, 0.04458737373352051, -0.09003054350614548, -0.00916734617203474, -0.012955834157764912, -0.6415262222290039, -0.012487051077187061, -0.01883935183286667, -0.09012314677238464, -0.3173322379589081, -0.9070913791656494, 0.06623287498950958, -1.1924908239509713, 1.4210517637217208, -1.7337937748237386, 9362.0, 30146.0, 35388.0, 9362.0, 7.933885097503662, 0.024830849841237068, -0.7207531929016113, 0.43955427408218384, 0.008208812214434147, -0.009998432360589504, 1.0027410984039307, -0.16235603392124176, -0.03959846496582031, 1.49267578125, 1.5439453125, 0.2884979248046875, 1.4912109375
15235, 0.07547111809253693, 0.05164625868201256, -0.0852123275399208, -0.00916734617203474, -0.012955834157764912, -0.6415262222290039, -0.012487051077187061, -0.01883935183286667, -0.09012314677238464, -0.3173273205757141, -0.9070861339569092, 0.0662284791469574, -1.1882337833101861, 1.4121533631728767, -1.7380653892053626, 9362.0, 30146.0, 35388.0, 9362.0, 7.933885097503662, 0.024830849841237068, -0.7207531929016113, 0.43955427408218384, 0.010546390898525715, -0.00918449554592371, 0.9994694590568542, -0.16235603392124176, -0.03959846496582031, 1.49267578125, 1.5439453125, 0.2884979248046875, 1.49267578125
15305, 0.0788719654083252, 0.10168449580669403, -0.06355984508991241, -0.010195817798376083, -0.014504087157547474, -0.6487610340118408, -0.013369225896894932, -0.019869636744260788, -0.09089275449514389, -0.3173271119594574, -0.9070895910263062, 0.06624673306941986, -1.1891283006258198, 1.4017286050604696, -1.7435396217246861, 9362.0, 30146.0, 35388.0, 9362.0, 7.933885097503662, 0.056620147079229355, -0.5169618725776672, 0.17075498402118683, 0.01724945567548275, -0.008508707396686077, 1.00029718875885, -0.10784914344549179, -0.01271820068359375, 1.494873046875, 1.210693359375, 0.326202392578125, 1.49267578125
15325, 0.07884708046913147, 0.10260849446058273, -0.06136602535843849, -0.010330346412956715, -0.014703446067869663, -0.6496695876121521, -0.013536496087908745, -0.020002147182822227, -0.09081848710775375, -0.31731218099594116, -0.9070942401885986, 0.06627483665943146, -1.1755737691034356, 1.3958603431580627, -1.7439214730631472, 9362.0, 30146.0, 35388.0, 9362.0, 7.933885097503662, -0.08436249941587448, -0.003988061100244522, -0.3488751947879791, 0.01664098910987377, -0.008662799373269081, 0.9994276165962219, -0.05819430947303772, -0.03959846496582031, 1.49267578125, 1.210693359375, 0.326202392578125, 1.49267578125
15355, 0.07672172039747238, 0.0903770923614502, -0.06624580174684525, -0.010604566894471645, -0.015106189996004105, -0.6514876484870911, -0.013886220753192902, -0.020272858440876007, -0.09105125814676285, -0.317294716835022, -0.907122015953064, 0.06630932539701462, -1.1727033794215682, 1.3800685234562309, -1.7570188095105415, 9362.0, 30146.0, 35388.0, 9362.0, 7.933885097503662, 0.08232716470956802, 0.6331647634506226, -0.6069549322128296, 0.01561774592846632, -0.009438157081604004, 1.0007725954055786, -0.05892869457602501, -0.2546367645263672, 1.47509765625, 1.51318359375, 0.2224273681640625, 1.496337890625
15375, 0.07482534646987915, 0.08075270056724548, -0.07398843765258789, -0.011028929613530636, -0.015720413997769356, -0.6542181968688965, -0.014397300779819489, -0.02067376673221588, -0.09097160398960114, -0.31729865074157715, -0.9071322083473206, 0.06628765165805817, -1.170709528695828, 1.369279636913177, -1.7623091788187246, 9362.0, 30146.0, 35388.0, 9362.0, 7.933885097503662, -0.06161806732416153, 0.4776439666748047, -0.31928640604019165, 0.013847820460796356, -0.010233239270746708, 0.9985283613204956, -0.05441579222679138, -0.14711761474609375, 1.48388671875, 1.51318359375, 0.2224273681640625, 1.494873046875
15405, 0.07302920520305634, 0.06429978460073471, -0.08881410211324692, -0.011616642586886883, -0.016557717695832253, -0.6578655242919922, -0.014965987764298916, -0.021189188584685326, -0.09129522740840912, -0.31733569502830505, -0.90716552734375, 0.06634966284036636, -1.1637833721823683, 1.3553532210276842, -1.7574663336991667, 9362.0, 30146.0, 35388.0, 9362.0, 7.933885097503662, -0.05842721462249756, 0.5678669214248657, -0.18215163052082062, 0.01114241499453783, -0.008592382073402405, 1.0004583597183228, -0.05554774031043053, -0.1291980743408203, 1.4853515625, 1.622314453125, 0.470672607421875, 1.50146484375
15425, 0.0721544399857521, 0.05856689438223839, -0.10283465683460236, -0.011616642586886883, -0.016557717695832253, -0.6578655242919922, -0.014965987764298916, -0.021189188584685326, -0.09129522740840912, -0.3173390328884125, -0.9071811437606812, 0.06633590161800385, -1.164289215264615, 1.355155810263767, -1.7619559264275606, 9362.0, 30146.0, 35388.0, 9362.0, 7.933885097503662, 0.18746386468410492, -0.008928941562771797, -0.6795700788497925, 0.009111064486205578, -0.00809329841285944, 0.9975537061691284, -0.05554774031043053, -0.1291980743408203, 1.4853515625, 1.622314453125, 0.470672607421875, 1.494140625
15455, 0.07219492644071579, 0.0556570328772068, -0.11912281811237335, -0.012070794589817524, -0.01719900220632553, -0.6606051921844482, -0.015301352366805077, -0.021561188623309135, -0.091545969247818, -0.31733882427215576, -0.9071825742721558, 0.06636593490839005, -1.1606535778318094, 1.3653540045831392, -1.7645943894885503, 9362.0, 30146.0, 35388.0, 9362.0, 7.933885097503662, 0.15988755226135254, -0.20520715415477753, -0.551899254322052, 0.008695347234606743, -0.009546642191708088, 0.9979448318481445, -0.06357887387275696, 0.07688140869140625, 1.502197265625, 1.622314453125, 0.470672607421875, 1.494140625
15475, 0.0723942443728447, 0.05966811627149582, -0.13296103477478027, -0.012690742500126362, -0.018071290105581284, -0.6642768383026123, -0.015692265704274178, -0.022053200751543045, -0.09183401614427567, -0.3173671066761017, -0.9071795344352722, 0.06636802107095718, -1.161118677667705, 1.3849459728757267, -1.7579020301053918, 9362.0, 30146.0, 35388.0, 9362.0, 7.933885097503662, -0.03913489729166031, -0.7553229928016663, -0.8677990436553955, 0.008695347234606743, -0.009546642191708088, 0.9979448318481445, -0.06201735883951187, -0.23671722412109375, 1.4765625, 1.622314453125, 0.470672607421875, 1.494140625
15505, 0.07285712659358978, 0.06851640343666077, -0.1582140326499939, -0.01316604670137167, -0.018738403916358948, -0.6670390367507935, -0.01600111834704876, -0.022421617060899734, -0.09226878732442856, -0.31737929582595825, -0.9071751832962036, 0.06636054813861847, -1.1738237852556503, 1.400805331453654, -1.7515228452726754, 9362.0, 30146.0, 35388.0, 9362.0, 7.933885097503662, 0.10403666645288467, -0.21877776086330414, -0.4626016914844513, 0.008695347234606743, -0.009546642191708088, 0.9979448318481445, -0.05806145817041397, 0.06792068481445312, 1.50146484375, 1.622314453125, 0.470672607421875, 1.4912109375
15535, 0.07046972215175629, 0.07059363275766373, -0.17935810983181, -0.013651340268552303, -0.01941663585603237, -0.6698063015937805, -0.01635526865720749, -0.022793598473072052, -0.09227187186479568, -0.3173786699771881, -0.9071664214134216, 0.06634879857301712, -1.1816486620409654, 1.4138812828236667, -1.73420829813422, 9362.0, 30146.0, 35388.0, 9362.0, 7.933885097503662, -0.013770468533039093, 0.03208163008093834, -0.6555605530738831, 0.014206095598638058, -0.009969772771000862, 0.999365508556366, -0.05578672140836716, -0.06647872924804688, 1.490478515625, 1.622314453125, 0.470672607421875, 1.491943359375
15545, 0.07101401686668396, 0.06865525990724564, -0.18591159582138062, -0.013651340268552303, -0.01941663585603237, -0.6698063015937805, -0.01635526865720749, -0.022793598473072052, -0.09227187186479568, -0.31738200783729553, -0.9071627855300903, 0.06634382903575897, -1.1841715252901213, 1.4194942642850776, -1.7337877944463211, 9362.0, 30146.0, 35388.0, 9362.0, 7.933885097503662, -0.013770468533039093, 0.03208163008093834, -0.6555605530738831, 0.013047554530203342, -0.010999685153365135, 1.0003514289855957, -0.05578672140836716, -0.06647872924804688, 1.490478515625, 1.622314453125, 0.470672607421875, 1.491943359375
15585, 0.06798388808965683, 0.056726280599832535, -0.24123471975326538, -0.014147485606372356, -0.020105870440602303, -0.6725791692733765, -0.01671767793595791, -0.023155784234404564, -0.09244385361671448, -0.3173627555370331, -0.9071409106254578, 0.06633912771940231, -1.198729769859737, 1.4197524906327033, -1.726010743144365, 9362.0, 30146.0, 35388.0, 9362.0, 7.933885097503662, -0.1609775274991989, 0.7412299513816833, -1.5744271278381348, 0.01869651861488819, -0.007991482503712177, 1.0009047985076904, -0.05010967701673508, -0.1739978790283203, 1.481689453125, 1.622314453125, 0.470672607421875, 1.493408203125
15595, 0.06892839819192886, 0.04587986692786217, -0.25234976410865784, -0.014654009602963924, -0.020805969834327698, -0.6753464341163635, -0.01704809069633484, -0.02351447567343712, -0.09208675473928452, -0.31735897064208984, -0.9071396589279175, 0.0663602277636528, -1.200551188220304, 1.4209098296841205, -1.7207537848934793, 9362.0, 30146.0, 35388.0, 9362.0, 7.933885097503662, 0.09087708592414856, 0.9716278910636902, -0.8987413048744202, 0.013623095117509365, -0.011186011135578156, 1.0013506412506104, -0.05010967701673508, -0.1739978790283203, 1.481689453125, 1.622314453125, 0.470672607421875, 1.493408203125
15615, 0.06780634075403214, 0.034669794142246246, -0.27442604303359985, -0.014996832236647606, -0.021278589963912964, -0.6771862506866455, -0.017224924638867378, -0.023748259991407394, -0.09195432811975479, -0.3173575699329376, -0.9071552753448486, 0.06635891646146774, -1.1968374149948755, 1.4136113298814905, -1.7272225498597693, 9362.0, 30146.0, 35388.0, 9362.0, 7.933885097503662, -0.05658068507909775, 0.3105029761791229, -1.1363276243209839, 0.013623095117509365, -0.011186011135578156, 1.0013506412506104, -0.0483538992702961, -0.04855918884277344, 1.491943359375, 1.622314453125, 0.470672607421875, 1.493408203125
15645, 0.07168205082416534, 0.025173842906951904, -0.3103078305721283, -0.015516423620283604, -0.021996239200234413, -0.6799536347389221, -0.017403503879904747, -0.02409614995121956, -0.09256971627473831, -0.3173678517341614, -0.90716153383255, 0.0663461983203888, -1.193894626040784, 1.40665630295166, -1.7263376576795124, 9362.0, 30146.0, 35388.0, 9362.0, 7.933885097503662, 0.21357595920562744, 0.006304677575826645, -0.9094055891036987, 0.010932392440736294, -0.006856406107544899, 1.0008341073989868, -0.043369460850954056, 0.06792068481445312, 1.50146484375, 1.622314453125, 0.470672607421875, 1.493408203125
15655, 0.07354548573493958, 0.020347759127616882, -0.31775903701782227, -0.01569068245589733, -0.022237803786993027, -0.6808794736862183, -0.017448341473937035, -0.024216722697019577, -0.09259333461523056, -0.31736090779304504, -0.9071575999259949, 0.06635777652263641, -1.1848077751328636, 1.4116686048412816, -1.732233601961251, 9362.0, 30146.0, 35388.0, 9362.0, 7.933885097503662, 0.21813225746154785, 0.6840870976448059, -0.6056085228919983, 0.009349272586405277, -0.007939999923110008, 0.9982843995094299, -0.043369460850954056, 0.06792068481445312, 1.50146484375, 1.622314453125, 0.470672607421875, 1.493408203125
15675, 0.07881410419940948, 0.023867378011345863, -0.3338656425476074, -0.01569068245589733, -0.022237803786993027, -0.6808794736862183, -0.017448341473937035, -0.024216722697019577, -0.09259333461523056, -0.31737932562828064, -0.9071723222732544, 0.06634452193975449, -1.1769806056567376, 1.4173110762478416, -1.738408304900897, 9362.0, 30146.0, 35388.0, 9362.0, 7.933885097503662, 0.28066781163215637, -0.4781562089920044, -0.34845590591430664, 0.009349272586405277, -0.007939999923110008, 0.9982843995094299, -0.04802021011710167, 0.014162063598632812, 1.4970703125, 1.622314453125, 0.470672607421875, 1.49267578125
15685, 0.08299639821052551, 0.02792380377650261, -0.3365134000778198, -0.01569068245589733, -0.022237803786993027, -0.6808794736862183, -0.017448341473937035, -0.024216722697019577, -0.09259333461523056, -0.3173777461051941, -0.9071715474128723, 0.06636618077754974, -1.1791923342657484, 1.4154839426475405, -1.7404044601734272, 9362.0, 30146.0, 35388.0, 9362.0, 7.933885097503662, 0.307221382856369, -0.48235759139060974, -0.29127219319343567, 0.011407018639147282, -0.008558942936360836, 0.9985007047653198, -0.04802021011710167, 0.014162063598632812, 1.4970703125, 1.622314453125, 0.470672607421875, 1.49267578125
15715, 0.09217611700296402, 0.041272714734077454, -0.3248901665210724, -0.016568034887313843, -0.023464510217308998, -0.6855217218399048, -0.017652008682489395, -0.024870341643691063, -0.09324478358030319, -0.3173970580101013, -0.9071823954582214, 0.06634572893381119, -1.174522181478934, 1.4253125265405515, -1.7421640005011187, 9362.0, 30146.0, 35388.0, 9362.0, 7.933885097503662, 0.4565718472003937, -0.5782030820846558, 0.7194233536720276, 0.011243407614529133, -0.009846976958215237, 0.996702253818512, -0.04775844141840935, -0.0037593841552734375, 1.49560546875, 1.622314453125, 0.470672607421875, 1.494873046875
15745, 0.0998886302113533, 0.06599313765764236, -0.29150843620300293, -0.017279265448451042, -0.024471376091241837, -0.6892667412757874, -0.017932021990418434, -0.025487162172794342, -0.09394564479589462, -0.31740641593933105, -0.90716552734375, 0.06636297702789307, -1.1824205287837428, 1.4305545753987303, -1.7372827072500696, 9362.0, 30146.0, 35388.0, 9362.0, 7.933885097503662, 0.25946545600891113, -1.0223604440689087, 1.1631808280944824, 0.013671997003257275, -0.008990470319986343, 1.0010035037994385, -0.04952166602015495, -0.10231781005859375, 1.487548828125, 1.622314453125, 0.470672607421875, 1.4912109375
15755, 0.1009187325835228, 0.07447686046361923, -0.27730172872543335, -0.017279265448451042, -0.024471376091241837, -0.6892667412757874, -0.017932021990418434, -0.025487162172794342, -0.09394564479589462, -0.3174132704734802, -0.9071653485298157, 0.06636893004179001, -1.1788846975464484, 1.4331938705467735, -1.7412175536566834, 9362.0, 30146.0, 35388.0, 9362.0, 7.933885097503662, 0.03698401153087616, -0.8339475393295288, 1.4347935914993286, 0.013671997003257275, -0.008990470319986343, 1.0010035037994385, -0.04952166602015495, -0.10231781005859375, 1.487548828125, 1.622314453125, 0.470672607421875, 1.4912109375
15815, 0.08870729058980942, 0.09354357421398163, -0.16194254159927368, -0.017822038382291794, -0.025243576616048813, -0.6920825839042664, -0.018272563815116882, -0.02599634975194931, -0.09393095225095749, -0.3173918128013611, -0.9071473479270935, 0.06636499613523483, -1.199062065510758, 1.4238907379735792, -1.7207174015079436, 9362.0, 30146.0, 35388.0, 9362.0, 7.933885097503662, -0.536641538143158, -0.011628536507487297, 2.063605308532715, 0.015842493623495102, -0.005496398080140352, 1.0013025999069214, -0.035258807241916656, -0.030637741088867188, 1.493408203125, 1.622314453125, 0.470672607421875, 1.48974609375
15835, 0.07970401644706726, 0.09342946857213974, -0.1198199987411499, -0.01875426061451435, -0.026564525440335274, -0.696776270866394, -0.019037332385778427, -0.02682618796825409, -0.09388989210128784, -0.31737563014030457, -0.9071558117866516, 0.06635084748268127, -1.197462476648297, 1.425369568549172, -1.724550731891423, 9362.0, 30146.0, 35388.0, 9362.0, 7.933885097503662, -0.5847264528274536, 0.13288536667823792, 2.088580846786499, 0.013512715697288513, -0.008213061839342117, 1.0019288063049316, -0.035258807241916656, -0.030637741088867188, 1.493408203125, 1.622314453125, 0.470672607421875, 1.48974609375
