timeTick, roll, pitch, yaw, stateX, stateY, stateZ, stateVX, stateVY, stateVZ, otX0, otY0, otZ0, otRoll0, otPitch0, otYaw0, left wing, pitch motor, yaw motor, right wing, voltage, roll rate, pitch rate, yaw rate, A_x, A_y, A_z, current, i_raw, v_raw, airflow_voltage, airflow_speed, pot_Pitch
52619, 0.46678295731544495, -2.3066301345825195, 2.2919318675994873, 0, 0, 0, 0, 0, 0, -0.41645416617393494, -0.8973756432533264, 0.06774557381868362, -1.233399441238768, 0.7845001507852203, 5.541164779572831, 0, 0, 0, 0, 0, 0, 0, 0, 0, 0, 0, 0, 0, 0, 0, 0, 0
52629, 0.46740901470184326, -2.3053171634674072, 2.292978525161743, 0.0003078841255046427, -4.980960511602461e-05, 7.188249588012695, 0.01937091536819935, -0.003132210811600089, 0.281565397977829, -0.41645705699920654, -0.8973751664161682, 0.06775136291980743, -1.2367779279362696, 0.7844437356079652, 5.541835085871074, 9362.0, 30146.0, 35388.0, 9362.0, 7.9140496253967285, -0.2030402272939682, -0.2664947211742401, 0.1679408997297287, -0.0027582161128520966, -0.010144980624318123, 0.9985405206680298, -0.05130256339907646, -0.03959846496582031, 1.49267578125, 0, 0, 0
52639, 0.4661482274532318, -2.3047478199005127, 2.293487310409546, 0.0005214492557570338, -8.433044422417879e-05, 7.191064357757568, 0.023342128843069077, -0.0037718825042247772, 0.2813413739204407, -0.4164635241031647, -0.8973737359046936, 0.06779494136571884, -1.2241687216253898, 0.78892556727439, 5.548323587528141, 9362.0, 30146.0, 35388.0, 9362.0, 7.9140496253967285, 0.1308513581752777, 0.05681144818663597, 0.057582445442676544, -0.0019116472685709596, -0.01006814744323492, 0.9988502264022827, -0.05153152719140053, 0.10376167297363281, 1.50439453125, 0.697265625, 17.1298828125, 1.493408203125
52649, 0.46626752614974976, -2.3049018383026123, 2.2949256896972656, 0.0007747134659439325, -0.00012525307829491794, 7.19387674331665, 0.027310719713568687, -0.004412611480802298, 0.2811067998409271, -0.4164595305919647, -0.8973843455314636, 0.06777282059192657, -1.2184207072058069, 0.7938474496704089, 5.558147906828087, 9362.0, 30146.0, 35388.0, 9362.0, 7.9140496253967285, -0.16846288740634918, 0.07591858506202698, 0.16429738700389862, -0.0027672541327774525, -0.011263970285654068, 1.0003693103790283, -0.045016154646873474, 0.08584022521972656, 1.5029296875, 0.556640625, 30.97845458984375, 1.4912109375
52659, 0.46590834856033325, -2.3046185970306396, 2.294198513031006, 0.0010676669189706445, -0.00017257363651879132, 7.196686744689941, 0.03127998858690262, -0.0050514014437794685, 0.28091463446617126, -0.4164508581161499, -0.8973730206489563, 0.06775279343128204, -1.2073006454448254, 0.7861772602375652, 5.554815687872237, 9362.0, 30146.0, 35388.0, 9362.0, 7.9140496253967285, 0.07058097422122955, 0.22655154764652252, 0.0851481556892395, -0.0036123814061284065, -0.011385966092348099, 1.0007144212722778, -0.049517273902893066, -0.1739978790283203, 1.481689453125, 0.9462890625, 4.3686370849609375, 1.4912109375
52669, 0.46574410796165466, -2.3050549030303955, 2.293415069580078, 0.0014003574615344405, -0.00022628949955105782, 7.199495792388916, 0.03525811806321144, -0.005691818427294493, 0.280934602022171, -0.41644877195358276, -0.8973625898361206, 0.06775829195976257, -1.2098410846937016, 0.7849364313103706, 5.55639876619192, 9362.0, 30146.0, 35388.0, 9362.0, 7.9140496253967285, 0.011737996712327003, 0.260743647813797, 0.028126997873187065, -0.004334179684519768, -0.011889512650668621, 0.9983001351356506, -0.04990715906023979, 0.06792068481445312, 1.50146484375, 1.767333984375, 0.8634033203125, 1.48974609375
52679, 0.4657302498817444, -2.3054521083831787, 2.2925949096679688, 0.001772801042534411, -0.0002864026464521885, 7.202304840087891, 0.039230577647686005, -0.006330865900963545, 0.28082752227783203, -0.4164506793022156, -0.8973774313926697, 0.06776729971170425, -1.2182033477161591, 0.781553450307797, 5.557178540745592, 9362.0, 30146.0, 35388.0, 9362.0, 7.9140496253967285, -0.023704389110207558, -0.032952845096588135, 0.08685693889856339, -0.004274246748536825, -0.01293761096894741, 0.9994376301765442, -0.05699719861149788, 0.08584022521972656, 1.5029296875, 1.058349609375, 1.8621978759765625, 1.48828125
52689, 0.46788734197616577, -2.305722236633301, 2.293271064758301, 0.002184956567361951, -0.0003529023961164057, 7.205111980438232, 0.0432005301117897, -0.006969140842556953, 0.2806406319141388, -0.4164506196975708, -0.8973770141601562, 0.06775391846895218, -1.217612290638562, 0.7865436949253137, 5.562733189652796, 9362.0, 30146.0, 35388.0, 9362.0, 7.9140496253967285, 0.1357566863298416, 0.048262808471918106, -0.15025122463703156, -0.0032754235435277224, -0.012928149662911892, 1.000302791595459, -0.06363469362258911, -0.1650371551513672, 1.482421875, 1.54833984375, 0.298126220703125, 1.4912109375
52699, 0.46824145317077637, -2.3045454025268555, 2.2925140857696533, 0.0026368265971541405, -0.0004257867985870689, 7.2079176902771, 0.047173500061035156, -0.007607694715261459, 0.28051134943962097, -0.41643765568733215, -0.8973774909973145, 0.06773862987756729, -1.2143307208297203, 0.7802289410147978, 5.560825630334463, 9362.0, 30146.0, 35388.0, 9362.0, 7.9140496253967285, -0.029324673116207123, 0.00803320948034525, -0.18870851397514343, -0.0036195768043398857, -0.013428407721221447, 0.9995290040969849, -0.06400750577449799, -0.15607833862304688, 1.483154296875, 1.7373046875, 0.7721710205078125, 1.493408203125
52709, 0.4683404564857483, -2.302225112915039, 2.2918169498443604, 0.0031284387223422527, -0.0005050763138569891, 7.21072244644165, 0.051148898899555206, -0.008250264450907707, 0.28042685985565186, -0.4164360761642456, -0.8973658084869385, 0.06776794046163559, -1.2165069770165096, 0.7819976431406133, 5.570925272316843, 9362.0, 30146.0, 35388.0, 9362.0, 7.933885097503662, 0.060380563139915466, -0.22687222063541412, 0.3174605965614319, -0.0019105839310213923, -0.013227609917521477, 1.00053071975708, -0.045957643538713455, 0.0052013397216796875, 1.496337890625, 1.390869140625, 0.0319671630859375, 1.490478515625
52719, 0.46823638677597046, -2.3020238876342773, 2.2925145626068115, 0.0036597978323698044, -0.000590795767493546, 7.213526248931885, 0.055122945457696915, -0.008893672376871109, 0.28035852313041687, -0.4164479374885559, -0.8973718881607056, 0.06774090975522995, -1.2102026677288977, 0.7877469335846001, 5.570597898184684, 9362.0, 30146.0, 35388.0, 9362.0, 7.9140496253967285, -0.26526939868927, -0.3585086762905121, 0.1393677443265915, -0.002036179881542921, -0.011657260358333588, 0.9997496604919434, -0.05584091320633888, 0.12168121337890625, 1.505859375, 1.544677734375, 0.2900543212890625, 1.49267578125
52729, 0.46696677803993225, -2.3016791343688965, 2.2934324741363525, 0.004230888560414314, -0.0006829529302194715, 7.216329574584961, 0.05909518152475357, -0.009537708014249802, 0.28034329414367676, -0.41643327474594116, -0.8973678350448608, 0.06776010990142822, -1.212160010359249, 0.7843457490200763, 5.565436895491908, 9362.0, 30146.0, 35388.0, 9362.0, 7.933885097503662, 0.026675421744585037, 0.22978973388671875, -0.1426248997449875, -0.0026535207871347666, -0.011471975594758987, 1.0000159740447998, -0.04727086424827576, -0.08439826965332031, 1.489013671875, 1.757080078125, 0.8313140869140625, 1.494140625
52739, 0.46774840354919434, -2.301910400390625, 2.2932708263397217, 0.004841676913201809, -0.0007815457065589726, 7.219132423400879, 0.06306254118680954, -0.010180781595408916, 0.2802160382270813, -0.4164418578147888, -0.8973690867424011, 0.0677461326122284, -1.214590316762751, 0.7845832166806304, 5.56520894115203, 9362.0, 30146.0, 35388.0, 9362.0, 7.9140496253967285, 0.14424559473991394, 0.2297344207763672, 0.10565260052680969, -0.0035158763639628887, -0.01157844252884388, 1.0001482963562012, -0.05058351531624794, -0.13815879821777344, 1.484619140625, 1.100830078125, 1.2566680908203125, 1.49267578125
52749, 0.468447208404541, -2.3031063079833984, 2.2936248779296875, 0.005492150783538818, -0.0008865605923347175, 7.2219343185424805, 0.06703226268291473, -0.010822209529578686, 0.2801639437675476, -0.41645118594169617, -0.8973694443702698, 0.06775186210870743, -1.2143915694672824, 0.7907889365249048, 5.564760994352494, 9362.0, 30146.0, 35388.0, 9362.0, 7.9140496253967285, 0.02603049762547016, -0.20941261947155, -0.335627019405365, -0.0032221912406384945, -0.01238088309764862, 0.9988927245140076, -0.06073758378624916, -0.10231781005859375, 1.487548828125, 1.41650390625, 0.0577545166015625, 1.494873046875
52759, 0.46956321597099304, -2.3029537200927734, 2.2907376289367676, 0.006182312034070492, -0.0009979944443330169, 7.224735260009766, 0.07099995017051697, -0.01146453246474266, 0.28005024790763855, -0.4164447486400604, -0.8973456025123596, 0.0678635835647583, -1.1796271753416032, 0.809093451533812, 5.586269228788915, 9362.0, 30146.0, 35388.0, 9362.0, 7.9140496253967285, 0.06944484263658524, -0.08171643316745758, -0.29493004083633423, -0.0011047126026824117, -0.013187465257942677, 0.9992305040359497, -0.06340520828962326, -0.06647872924804688, 1.490478515625, 1.6259765625, 0.4795989990234375, 1.4853515625
52769, 0.4700200855731964, -2.300832748413086, 2.291682481765747, 0.00691213458776474, -0.0011158527340739965, 7.227534770965576, 0.0749645084142685, -0.012107324786484241, 0.27980849146842957, -0.4164299964904785, -0.897345781326294, 0.06782036274671555, -1.16887375389834, 0.8165274349697427, 5.584487511955489, 9362.0, 30146.0, 35388.0, 9362.0, 7.9140496253967285, 0.14935588836669922, 0.06113477423787117, 0.2071531116962433, -0.0023916044738143682, -0.012773682363331318, 0.9997900724411011, -0.05439160391688347, 0.05000114440917969, 1.5, 1.048095703125, 2.033538818359375, 1.4912109375
52779, 0.4702344834804535, -2.30112624168396, 2.292304754257202, 0.0076816268265247345, -0.0012401535641402006, 7.230332374572754, 0.07893393188714981, -0.01275278627872467, 0.2796907126903534, -0.4164668023586273, -0.89740389585495, 0.06768491119146347, -1.2231282853492533, 0.7653658746859549, 5.544659456872883, 9362.0, 30146.0, 35388.0, 9362.0, 7.9140496253967285, -0.06709041446447372, -0.20529937744140625, -0.029744820669293404, -0.002352227922528982, -0.01487577985972166, 1.0005789995193481, -0.054989758878946304, 0.12168121337890625, 1.505859375, 1.3857421875, 0.0280914306640625, 1.493408203125
52789, 0.47061794996261597, -2.298553705215454, 2.2933685779571533, 0.008490788750350475, -0.001370912417769432, 7.233128547668457, 0.08289851248264313, -0.013398929499089718, 0.27954235672950745, -0.41643068194389343, -0.8973615765571594, 0.06772241741418839, -1.197168789667371, 0.7927746726995792, 5.567641854034814, 9362.0, 30146.0, 35388.0, 9362.0, 7.9140496253967285, 0.0030649977270513773, -0.191985622048378, -0.09247016161680222, -0.004169461317360401, -0.012378251180052757, 1.0007460117340088, -0.0507475845515728, -0.20087814331054688, 1.4794921875, 0.851806640625, 7.817718505859375, 1.496337890625
52799, 0.4703965485095978, -2.2988533973693848, 2.293508529663086, 0.009339634329080582, -0.0015081398887559772, 7.235924243927002, 0.08687058836221695, -0.014046483673155308, 0.27956652641296387, -0.4164174199104309, -0.8973707556724548, 0.06773121654987335, -1.2015755062893902, 0.7944057161273577, 5.563795315215097, 9362.0, 30146.0, 35388.0, 9362.0, 7.9140496253967285, -0.06402916461229324, 0.19319653511047363, 0.40102994441986084, -0.0023787864483892918, -0.012094552628695965, 0.9993146657943726, -0.05220654979348183, 0.014162063598632812, 1.4970703125, 1.515380859375, 0.2270050048828125, 1.48681640625
52809, 0.46950504183769226, -2.2997725009918213, 2.296351909637451, 0.010228165425360203, -0.0016518444754183292, 7.238719463348389, 0.09083561599254608, -0.01469442155212164, 0.2795242369174957, -0.41642695665359497, -0.8973619937896729, 0.06773332506418228, -1.1950001533373025, 0.7863513807639606, 5.561984750332763, 9362.0, 30146.0, 35388.0, 9362.0, 7.9140496253967285, -0.048086412250995636, -0.11430704593658447, 0.14148329198360443, -0.002907451940700412, -0.01273368764668703, 0.999636173248291, -0.056603655219078064, -0.01271820068359375, 1.494873046875, 1.683837890625, 0.625091552734375, 1.48974609375
52819, 0.4696093499660492, -2.2997090816497803, 2.29862117767334, 0.011156321503221989, -0.0018020218703895807, 7.241513729095459, 0.09479562193155289, -0.01534085813909769, 0.2793445587158203, -0.4164162278175354, -0.8973649740219116, 0.06770185381174088, -1.1969623862112246, 0.7856920010472663, 5.573155071464912, 9362.0, 30146.0, 35388.0, 9362.0, 7.9140496253967285, -0.013415493071079254, 0.4717669188976288, 0.296405553817749, -0.0037879841402173042, -0.012055694125592709, 0.9984245300292969, -0.05892850458621979, -0.05751800537109375, 1.4912109375, 1.17333984375, 0.554962158203125, 1.48974609375
52829, 0.4698847532272339, -2.302539825439453, 2.2996585369110107, 0.012124099768698215, -0.001958657056093216, 7.244306564331055, 0.09876003116369247, -0.015986017882823944, 0.27923598885536194, -0.41640418767929077, -0.8973609805107117, 0.06768380850553513, -1.2072215374182886, 0.7825134411541512, 5.563835031034026, 9362.0, 30146.0, 35388.0, 9362.0, 7.9140496253967285, -0.013094591908156872, 0.034490689635276794, 0.21503406763076782, -0.0026914661284536123, -0.012916424311697483, 0.9993330836296082, -0.06285666674375534, -0.15607833862304688, 1.483154296875, 1.5703125, 0.34783935546875, 1.48974609375
52839, 0.46931928396224976, -2.305410385131836, 2.303309679031372, 0.013131501153111458, -0.0021217407193034887, 7.247097969055176, 0.10272028297185898, -0.0166306309401989, 0.27902713418006897, -0.4164106249809265, -0.8973831534385681, 0.0676867812871933, -1.2071316385452173, 0.7856748723671387, 5.554881838682673, 9362.0, 30146.0, 35388.0, 9362.0, 7.9140496253967285, -0.025290265679359436, 0.12168676406145096, 0.24877117574214935, -0.002260252833366394, -0.013391688466072083, 1.002171516418457, -0.05055270716547966, 0.05896186828613281, 1.500732421875, 1.775390625, 0.88946533203125, 1.48974609375
52849, 0.4687938988208771, -2.306408643722534, 2.304217576980591, 0.014178556390106678, -0.0022912758868187666, 7.249887943267822, 0.10669081658124924, -0.017276139929890633, 0.27895039319992065, -0.4163947105407715, -0.89739590883255, 0.06767420470714569, -1.219324419517834, 0.7752621870040741, 5.541948273385632, 9362.0, 30146.0, 35388.0, 9362.0, 7.9140496253967285, -0.04091467335820198, -0.2260982096195221, -0.24755169451236725, -0.0025094531010836363, -0.014233683235943317, 1.0006920099258423, -0.056395795196294785, -0.07543754577636719, 1.48974609375, 1.65087890625, 0.5408935546875, 1.490478515625
52859, 0.46903738379478455, -2.306715726852417, 2.305936098098755, 0.015376245602965355, -0.0024852179922163486, 7.252956867218018, 0.1110709011554718, -0.01798599772155285, 0.27904170751571655, -0.4163877069950104, -0.8973814845085144, 0.06763578951358795, -1.229497406838872, 0.7727464880612729, 5.538693790815463, 9362.0, 30146.0, 35388.0, 9362.0, 7.9140496253967285, 0.007262223865836859, -0.06686655431985855, 0.24282871186733246, -0.0013008610112592578, -0.012421778403222561, 1.0005874633789062, -0.058734700083732605, 0.03208160400390625, 1.49853515625, 1.6552734375, 0.5520477294921875, 1.489013671875
52869, 0.469196617603302, -2.305882453918457, 2.3071508407592773, 0.0165068618953228, -0.0026682978495955467, 7.255747318267822, 0.11505217850208282, -0.01862986944615841, 0.2790679931640625, -0.4163960814476013, -0.8973580002784729, 0.06768172234296799, -1.2167381198814937, 0.773475837909217, 5.549691004583086, 9362.0, 30146.0, 35388.0, 9362.0, 7.9140496253967285, -0.06414545327425003, 0.08494530618190765, 0.23844705522060394, -0.0027144162449985743, -0.013859144411981106, 1.0009185075759888, -0.054690007120370865, -0.2546367645263672, 1.47509765625, 1.7900390625, 0.938507080078125, 1.494873046875
52889, 0.4688899517059326, -2.3055410385131836, 2.3138039112091064, 0.01767728477716446, -0.0028578166384249926, 7.258537769317627, 0.11903240531682968, -0.01927378959953785, 0.2790552079677582, -0.4163985252380371, -0.8973448276519775, 0.06763384491205215, -1.250390455115908, 0.7662020227103028, 5.545992728850747, 9362.0, 30146.0, 35388.0, 9362.0, 7.9140496253967285, -0.09426496922969818, 0.2022620141506195, 0.30359649658203125, -0.003969716839492321, -0.013583446852862835, 1.001747965812683, -0.054690007120370865, -0.2546367645263672, 1.47509765625, 0.83642578125, 8.521484375, 1.4970703125
52899, 0.46845361590385437, -2.3040554523468018, 2.3166801929473877, 0.01767728477716446, -0.0028578166384249926, 7.258537769317627, 0.11903240531682968, -0.01927378959953785, 0.2790552079677582, -0.41640475392341614, -0.897343635559082, 0.06762474775314331, -1.2550366982675933, 0.760915250050175, 5.542627263362696, 9362.0, 30146.0, 35388.0, 9362.0, 7.9140496253967285, 0.07983586937189102, -0.3189987540245056, 0.3089939057826996, -0.003969716839492321, -0.013583446852862835, 1.001747965812683, -0.054690007120370865, -0.2546367645263672, 1.47509765625, 1.257568359375, 0.1398162841796875, 1.4970703125
52909, 0.4695354998111725, -2.3053481578826904, 2.318568706512451, 0.01767728477716446, -0.0028578166384249926, 7.258537769317627, 0.11903240531682968, -0.01927378959953785, 0.2790552079677582, -0.41639894247055054, -0.8973492383956909, 0.0676363930106163, -1.2492110313174487, 0.7586453900259755, 5.546832933863978, 9362.0, 30146.0, 35388.0, 9362.0, 7.9140496253967285, 0.07983586937189102, -0.3189987540245056, 0.3089939057826996, -0.002192613435909152, -0.01341620646417141, 0.9990199208259583, -0.054690007120370865, -0.2546367645263672, 1.47509765625, 1.171875, 0.5655364990234375, 1.4970703125
52919, 0.4694141745567322, -2.3054237365722656, 2.3220129013061523, 0.01767728477716446, -0.0028578166384249926, 7.258537769317627, 0.11903240531682968, -0.01927378959953785, 0.2790552079677582, -0.41641008853912354, -0.8973545432090759, 0.06763070076704025, -1.2444744620122146, 0.7578681046033466, 5.546588843967901, 9362.0, 30146.0, 35388.0, 9362.0, 7.9140496253967285, 0.07983586937189102, -0.3189987540245056, 0.3089939057826996, -0.0028691443149000406, -0.012568450532853603, 1.0005311965942383, -0.054690007120370865, -0.2546367645263672, 1.47509765625, 1.171875, 0.5655364990234375, 1.487548828125
52949, 0.4701908826828003, -2.3098785877227783, 2.3333370685577393, 0.01767728477716446, -0.0028578166384249926, 7.258537769317627, 0.11903240531682968, -0.01927378959953785, 0.2790552079677582, -0.41636258363723755, -0.8973796367645264, 0.0675889328122139, -1.228866337526164, 0.7409638913731271, 5.545993470223996, 9362.0, 30146.0, 35388.0, 9362.0, 7.933885097503662, -0.04468759149312973, 0.010264500975608826, -0.0638497844338417, -0.003306165337562561, -0.013508397154510021, 0.997833788394928, -0.05881257355213165, -0.14711761474609375, 1.48388671875, 1.0576171875, 1.874114990234375, 1.487548828125
52959, 0.47117748856544495, -2.308732509613037, 2.3334925174713135, 0.01767728477716446, -0.0028578166384249926, 7.258537769317627, 0.11903240531682968, -0.01927378959953785, 0.2790552079677582, -0.416375070810318, -0.8973649144172668, 0.06758091598749161, -1.2391131536491937, 0.7309914535642008, 5.5345552350279705, 9362.0, 30146.0, 35388.0, 9362.0, 7.9140496253967285, -0.06570840626955032, 0.23443451523780823, 0.16177253425121307, -0.0026552898343652487, -0.012565585784614086, 1.0000168085098267, -0.05881257355213165, -0.14711761474609375, 1.48388671875, 1.0576171875, 1.874114990234375, 1.487548828125
52989, 0.4688219726085663, -2.310647487640381, 2.3323171138763428, 0.03156862407922745, -0.005106705240905285, 7.286411285400391, 0.15879061818122864, -0.025704417377710342, 0.2780219614505768, -0.41638699173927307, -0.8972917199134827, 0.06749778985977173, -1.2690276770235371, 0.7306462172444981, 5.5684976056226185, 9362.0, 30146.0, 35388.0, 9362.0, 7.933885097503662, -0.04262872412800789, -0.03765632212162018, -0.46610257029533386, -0.0026552898343652487, -0.012565585784614086, 1.0000168085098267, -0.06473785638809204, -0.08439826965332031, 1.489013671875, 1.3505859375, 0.0153045654296875, 1.487548828125
53059, 0.4658081531524658, -2.3167755603790283, 2.335271120071411, 0.04554642364382744, -0.007367944810539484, 7.308610439300537, 0.1906648427248001, -0.030819671228528023, 0.2770051658153534, -0.41643041372299194, -0.8972938656806946, 0.06751775741577148, -1.2541011522752423, 0.7323673379520415, 5.584216737224823, 9362.0, 30146.0, 35388.0, 9362.0, 7.933885097503662, 0.17331145703792572, 0.12815746665000916, 0.19557492434978485, -0.003268241649493575, -0.011166861280798912, 1.0000882148742676, -0.054573941975831985, -0.12023735046386719, 1.486083984375, 1.338134765625, 0.01727294921875, 1.493408203125
53079, 0.46560490131378174, -2.318941116333008, 2.338585138320923, 0.049439601600170135, -0.0079970583319664, 7.314148426055908, 0.19865214824676514, -0.03209087252616882, 0.27677205204963684, -0.41640499234199524, -0.8972808718681335, 0.06754985451698303, -1.2514629234490102, 0.7380587381386761, 5.5855158400308325, 9362.0, 30146.0, 35388.0, 9362.0, 7.9140496253967285, 0.04215521365404129, 0.07911865413188934, 0.212413489818573, -0.0021111872047185898, -0.012065352872014046, 0.9987261295318604, -0.027948826551437378, 0.05000114440917969, 1.5, 1.338134765625, 0.01727294921875, 1.487548828125
53089, 0.46523430943489075, -2.316519260406494, 2.3392932415008545, 0.049439601600170135, -0.0079970583319664, 7.314148426055908, 0.19865214824676514, -0.03209087252616882, 0.27677205204963684, -0.41640281677246094, -0.8972868919372559, 0.06752593070268631, -1.2498512708722942, 0.7398129513969423, 5.582884379854597, 9362.0, 30146.0, 35388.0, 9362.0, 7.9140496253967285, 0.00732248043641448, 0.10569760948419571, -0.1943356841802597, -0.0021111872047185898, -0.012065352872014046, 0.9987261295318604, -0.02994849719107151, -0.0037593841552734375, 1.49560546875, 1.338134765625, 0.01727294921875, 1.49267578125
53099, 0.4653359651565552, -2.3159384727478027, 2.339277744293213, 0.049439601600170135, -0.0079970583319664, 7.314148426055908, 0.19865214824676514, -0.03209087252616882, 0.27677205204963684, -0.4164465665817261, -0.8972905874252319, 0.06752198189496994, -1.2522926561151755, 0.7303567588662645, 5.586930342478316, 9362.0, 30146.0, 35388.0, 9362.0, 7.933885097503662, -0.07094921171665192, 0.028374724090099335, 0.2923568785190582, -0.0021111872047185898, -0.012065352872014046, 0.9987261295318604, -0.02994849719107151, -0.0037593841552734375, 1.49560546875, 1.338134765625, 0.01727294921875, 1.491943359375
53109, 0.46665140986442566, -2.3178517818450928, 2.3404388427734375, 0.049439601600170135, -0.0079970583319664, 7.314148426055908, 0.19865214824676514, -0.03209087252616882, 0.27677205204963684, -0.41643473505973816, -0.8972910642623901, 0.06754249334335327, -1.2543648708551267, 0.7387516643759682, 5.581220938915925, 9362.0, 30146.0, 35388.0, 9362.0, 7.9140496253967285, 0.30509841442108154, 0.3751901388168335, 0.012306942604482174, -0.0023296361323446035, -0.012399965897202492, 1.0019721984863281, -0.02994849719107151, -0.0037593841552734375, 1.49560546875, 1.3037109375, 0.04412841796875, 1.491943359375
53159, 0.46982458233833313, -2.3268237113952637, 2.34660005569458, 0.06661029160022736, -0.010767539963126183, 7.33625602722168, 0.23063327372074127, -0.03718038648366928, 0.27594783902168274, -0.41637304425239563, -0.8973832130432129, 0.06773511320352554, -1.2379658238354514, 0.78629411104734, 5.544565409975098, 9362.0, 30146.0, 35388.0, 9362.0, 7.9140496253967285, 0.24308983981609344, 0.06258489191532135, -0.013710006140172482, -0.0023296361323446035, -0.012399965897202492, 1.0019721984863281, -0.025195684283971786, -0.0037593841552734375, 1.49560546875, 0.714111328125, 15.8486328125, 1.49560546875
53179, 0.46934249997138977, -2.330395460128784, 2.3505053520202637, 0.07130316644906998, -0.01152396947145462, 7.341773986816406, 0.23865412175655365, -0.038461845368146896, 0.2757717967033386, -0.4163220524787903, -0.8974320888519287, 0.06783632934093475, -1.2166719621297204, 0.8051851781959272, 5.507845178096767, 9362.0, 30146.0, 35388.0, 9362.0, 7.9140496253967285, -0.019684066995978355, 0.15132279694080353, 0.08474134653806686, -0.0032804713118821383, -0.012258175760507584, 0.9995071291923523, -0.025195684283971786, -0.0037593841552734375, 1.49560546875, 0.89794921875, 5.9557647705078125, 1.49560546875
53189, 0.4698183834552765, -2.3305814266204834, 2.353178024291992, 0.07130316644906998, -0.01152396947145462, 7.341773986816406, 0.23865412175655365, -0.038461845368146896, 0.2757717967033386, -0.4163157641887665, -0.8974289894104004, 0.0678272545337677, -1.2161807753528764, 0.8033951077009647, 5.512620964595458, 9362.0, 30146.0, 35388.0, 9362.0, 7.933885097503662, 0.03458009660243988, -0.202276349067688, -0.005169321782886982, -0.002312930766493082, -0.011464431881904602, 1.0013999938964844, -0.025195684283971786, -0.0037593841552734375, 1.49560546875, 0.76171875, 12.60418701171875, 1.49560546875
53219, 0.47065111994743347, -2.3355352878570557, 2.359795093536377, 0.07864350080490112, -0.012706644833087921, 7.350042343139648, 0.2507096230983734, -0.04038287326693535, 0.2755775451660156, -0.4163561463356018, -0.8974013924598694, 0.06769450008869171, -1.2239783147164898, 0.7626419095027757, 5.545421905626511, 9362.0, 30146.0, 35388.0, 9362.0, 7.9140496253967285, -0.126547172665596, 0.48805299401283264, -0.03215145319700241, -0.0035383664071559906, -0.011724254116415977, 0.9980968832969666, -0.025195684283971786, -0.0037593841552734375, 1.49560546875, 1.30224609375, 0.0460052490234375, 1.49560546875
53229, 0.47038641571998596, -2.336459159851074, 2.358762502670288, 0.08373817801475525, -0.013527154922485352, 7.355555534362793, 0.2587538957595825, -0.04166680946946144, 0.2756146788597107, -0.41637060046195984, -0.8974074721336365, 0.06770731508731842, -1.2253070764781766, 0.7516422034290429, 5.549791168680659, 9362.0, 30146.0, 35388.0, 9362.0, 7.9140496253967285, -0.05643172562122345, 0.08430507034063339, -0.30364179611206055, -0.0035383664071559906, -0.011724254116415977, 0.9980968832969666, -0.025195684283971786, -0.0037593841552734375, 1.49560546875, 1.30224609375, 0.0460052490234375, 1.49560546875
53309, 0.4655090570449829, -2.343076229095459, 2.321976661682129, 0.10572770237922668, -0.017065178602933884, 7.377575397491455, 0.2909972667694092, -0.046775732189416885, 0.27482596039772034, -0.4163510203361511, -0.8974973559379578, 0.0679289847612381, -1.2243929660933948, 0.7820635510761917, 5.520692252060157, 9362.0, 30146.0, 35388.0, 9362.0, 7.9140496253967285, 0.004087318666279316, -0.058206118643283844, -0.6798592805862427, -0.003257279982790351, -0.014272735454142094, 1.000347375869751, -0.06165390834212303, -0.05751800537109375, 1.4912109375, 1.330810546875, 0.0203399658203125, 1.493408203125
53329, 0.46558457612991333, -2.3479082584381104, 2.3144357204437256, 0.11162836104631424, -0.01801336370408535, 7.383068084716797, 0.2990702986717224, -0.0480433851480484, 0.27451038360595703, -0.416361004114151, -0.8974985480308533, 0.06794539093971252, -1.2157394204425567, 0.7913836000215895, 5.525284519498515, 9362.0, 30146.0, 35388.0, 9362.0, 7.933885097503662, -0.02964005246758461, 0.4026598334312439, -0.16088460385799408, -0.003203541273251176, -0.015294956043362617, 0.9972012042999268, -0.04550088196992874, 0.2381610870361328, 1.515380859375, 0.774169921875, 11.842208862304688, 1.493408203125
53339, 0.46520233154296875, -2.3509480953216553, 2.312098503112793, 0.11162836104631424, -0.01801336370408535, 7.383068084716797, 0.2990702986717224, -0.0480433851480484, 0.27451038360595703, -0.41635677218437195, -0.8974894285202026, 0.06793364137411118, -1.2212232011744262, 0.7954378035078946, 5.52406662711139, 9362.0, 30146.0, 35388.0, 9362.0, 7.9140496253967285, -0.08562503755092621, -0.08859962224960327, -0.2937960624694824, -0.003203541273251176, -0.015294956043362617, 0.9972012042999268, -0.04436734691262245, -0.20087814331054688, 1.4794921875, 1.17919921875, 0.513763427734375, 1.493408203125
53379, 0.4664534330368042, -2.3465471267700195, 2.308326005935669, 0.12391446530818939, -0.01998572051525116, 7.3940300941467285, 0.3152494430541992, -0.05057583004236221, 0.27374014258384705, -0.4163537621498108, -0.8974894285202026, 0.06793264299631119, -1.2295042670324974, 0.7806731338715451, 5.521302325145853, 9362.0, 30146.0, 35388.0, 9362.0, 7.9140496253967285, -0.07762496918439865, -0.21413181722164154, 0.5291592478752136, -0.0028768754564225674, -0.012910035438835621, 1.0008810758590698, -0.04309225454926491, -0.10231781005859375, 1.487548828125, 0.9521484375, 4.1992034912109375, 1.496337890625
53389, 0.46676304936408997, -2.3449912071228027, 2.309009552001953, 0.12391446530818939, -0.01998572051525116, 7.3940300941467285, 0.3152494430541992, -0.05057583004236221, 0.27374014258384705, -0.4163983464241028, -0.8974597454071045, 0.06780838221311569, -1.2332411913853838, 0.7472497953739321, 5.55567506839199, 9362.0, 30146.0, 35388.0, 9362.0, 7.9140496253967285, -0.07762496918439865, -0.21413181722164154, 0.5291592478752136, -0.0017028811853379011, -0.014180801808834076, 1.0009539127349854, -0.04309225454926491, -0.10231781005859375, 1.487548828125, 0.9521484375, 4.1992034912109375, 1.489013671875
53399, 0.46762657165527344, -2.3441219329833984, 2.310493230819702, 0.12391446530818939, -0.01998572051525116, 7.3940300941467285, 0.3152494430541992, -0.05057583004236221, 0.27374014258384705, -0.41640031337738037, -0.8974610567092896, 0.06782284379005432, -1.2360065000933478, 0.7494096762772813, 5.559884261103428, 9362.0, 30146.0, 35388.0, 9362.0, 7.9140496253967285, -0.013663788326084614, 0.06735897064208984, 0.38731518387794495, -0.0015214839950203896, -0.011807503178715706, 0.999499499797821, -0.04309225454926491, -0.10231781005859375, 1.487548828125, 1.130126953125, 0.9273529052734375, 1.489013671875
53409, 0.4692545533180237, -2.347285032272339, 2.3119735717773438, 0.12391446530818939, -0.01998572051525116, 7.3940300941467285, 0.3152494430541992, -0.05057583004236221, 0.27374014258384705, -0.4164204001426697, -0.897435188293457, 0.06779128313064575, -1.234310893278946, 0.7302147763029154, 5.5720417889304, 9362.0, 30146.0, 35388.0, 9362.0, 7.933885097503662, -0.016360808163881302, 0.263033002614975, -0.15569055080413818, -0.0015214839950203896, -0.011807503178715706, 0.999499499797821, -0.03556208685040474, -0.04855918884277344, 1.491943359375, 1.24658203125, 0.1746063232421875, 1.489013671875
53419, 0.46612825989723206, -2.3522655963897705, 2.3146893978118896, 0.12391446530818939, -0.01998572051525116, 7.3940300941467285, 0.3152494430541992, -0.05057583004236221, 0.27374014258384705, -0.41639500856399536, -0.8974353671073914, 0.06778007745742798, -1.2282971664865003, 0.7163225366800248, 5.57692433563859, 9362.0, 30146.0, 35388.0, 9362.0, 7.9140496253967285, -0.016360808163881302, 0.263033002614975, -0.15569055080413818, -0.0010353194084018469, -0.014417148195207119, 1.0024651288986206, -0.03556208685040474, -0.04855918884277344, 1.491943359375, 1.24658203125, 0.1746063232421875, 1.493408203125
53429, 0.46530991792678833, -2.3519442081451416, 2.309783458709717, 0.12391446530818939, -0.01998572051525116, 7.3940300941467285, 0.3152494430541992, -0.05057583004236221, 0.27374014258384705, -0.4164116084575653, -0.8974176645278931, 0.06775500625371933, -1.237323690057381, 0.7240053583408894, 5.569458650045936, 9362.0, 30146.0, 35388.0, 9362.0, 7.9140496253967285, 0.041939083486795425, -0.381105899810791, 1.0034633874893188, -0.0011146982433274388, -0.008549969643354416, 1.0017000436782837, -0.03556208685040474, -0.04855918884277344, 1.491943359375, 1.24658203125, 0.1746063232421875, 1.493408203125
53449, 0.466699481010437, -2.3546302318573, 2.313307523727417, 0.12391446530818939, -0.01998572051525116, 7.3940300941467285, 0.3152494430541992, -0.05057583004236221, 0.27374014258384705, -0.416361927986145, -0.8974044919013977, 0.06768354773521423, -1.2423368714154304, 0.7383914511176215, 5.554022563921765, 9362.0, 30146.0, 35388.0, 9362.0, 7.933885097503662, 0.041939083486795425, -0.381105899810791, 1.0034633874893188, -0.004929293878376484, -0.017871355637907982, 0.9991220831871033, -0.04110077768564224, -0.14711761474609375, 1.48388671875, 0.807861328125, 9.9476318359375, 1.493408203125
53489, 0.46599507331848145, -2.3639023303985596, 2.298585891723633, 0.16104274988174438, -0.02593430131673813, 7.424131870269775, 0.3598223626613617, -0.05757458135485649, 0.27313342690467834, -0.4163660407066345, -0.897373616695404, 0.06766079366207123, -1.225059469657, 0.7491368713583029, 5.556047350280218, 9362.0, 30146.0, 35388.0, 9362.0, 7.9140496253967285, -0.047447461634874344, 0.13105005025863647, -0.38930177688598633, -0.004929293878376484, -0.017871355637907982, 0.9991220831871033, -0.05629052221775055, -0.11127853393554688, 1.48681640625, 0.807861328125, 9.9476318359375, 1.4912109375
53499, 0.4658263027667999, -2.3674440383911133, 2.2943661212921143, 0.1683204621076584, -0.027098502963781357, 7.429593086242676, 0.36795058846473694, -0.05884576588869095, 0.27291733026504517, -0.4163838028907776, -0.8973848223686218, 0.06762614101171494, -1.2264229933336266, 0.7383081318928078, 5.555086735544656, 9362.0, 30146.0, 35388.0, 9362.0, 7.933885097503662, -0.047447461634874344, 0.13105005025863647, -0.38930177688598633, -0.004929293878376484, -0.017871355637907982, 0.9991220831871033, -0.04832196235656738, -0.2187976837158203, 1.47802734375, 0.807861328125, 9.9476318359375, 1.490478515625
53509, 0.4653705358505249, -2.370060682296753, 2.291320562362671, 0.1683204621076584, -0.027098502963781357, 7.429593086242676, 0.36795058846473694, -0.05884576588869095, 0.27291733026504517, -0.4163724184036255, -0.8973608613014221, 0.06760761886835098, -1.2239125213119095, 0.7455113805690701, 5.558430054724979, 9362.0, 30146.0, 35388.0, 9362.0, 7.933885097503662, -0.047447461634874344, 0.13105005025863647, -0.38930177688598633, -0.004929293878376484, -0.017871355637907982, 0.9991220831871033, -0.0584556944668293, -0.01271820068359375, 1.494873046875, 0.807861328125, 9.9476318359375, 1.491943359375
53539, 0.46456387639045715, -2.3632442951202393, 2.2828381061553955, 0.17954234778881073, -0.028892425820231438, 7.43777322769165, 0.38018426299095154, -0.06074897572398186, 0.2724863290786743, -0.4163821041584015, -0.8973544836044312, 0.06761690229177475, -1.2210762997115432, 0.7523638082392949, 5.553975906078123, 9362.0, 30146.0, 35388.0, 9362.0, 7.9140496253967285, -0.11065265536308289, 0.10540641099214554, -0.22530870139598846, -0.004929293878376484, -0.017871355637907982, 0.9991220831871033, -0.07280095666646957, -0.23671722412109375, 1.4765625, 1.04150390625, 2.1491851806640625, 1.493408203125
53549, 0.4656883478164673, -2.3633179664611816, 2.2776620388031006, 0.17954234778881073, -0.028892425820231438, 7.43777322769165, 0.38018426299095154, -0.06074897572398186, 0.2724863290786743, -0.4163855016231537, -0.8973626494407654, 0.06761334836483002, -1.2210243306077446, 0.749093440747771, 5.5528119675500385, 9362.0, 30146.0, 35388.0, 9362.0, 7.933885097503662, -0.11065265536308289, 0.10540641099214554, -0.22530870139598846, -0.004929293878376484, -0.017871355637907982, 0.9991220831871033, -0.07280095666646957, -0.23671722412109375, 1.4765625, 1.04736328125, 2.0461883544921875, 1.493408203125
53559, 0.4665062725543976, -2.3601388931274414, 2.2767467498779297, 0.17954234778881073, -0.028892425820231438, 7.43777322769165, 0.38018426299095154, -0.06074897572398186, 0.2724863290786743, -0.41638821363449097, -0.8973637223243713, 0.06760618835687637, -1.2244843531839744, 0.7496551174221224, 5.557235275140407, 9362.0, 30146.0, 35388.0, 9362.0, 7.9140496253967285, -0.12307554483413696, -0.14739979803562164, -0.1680036038160324, -0.004929293878376484, -0.017871355637907982, 0.9991220831871033, -0.07280095666646957, -0.23671722412109375, 1.4765625, 1.23046875, 0.235137939453125, 1.493408203125
53579, 0.46507135033607483, -2.356015682220459, 2.271092653274536, 0.19906120002269745, -0.03200921788811684, 7.451382160186768, 0.40055492520332336, -0.06392573565244675, 0.2718675434589386, -0.4164055287837982, -0.897379994392395, 0.06764635443687439, -1.2267197286187765, 0.7570109524318411, 5.553843940271956, 9362.0, 30146.0, 35388.0, 9362.0, 7.933885097503662, -0.23448798060417175, -0.4296768605709076, -0.2909928560256958, -0.0030950591899454594, -0.012407546862959862, 0.9980881214141846, -0.07280095666646957, -0.23671722412109375, 1.4765625, 1.382080078125, 0.0256195068359375, 1.49267578125
53589, 0.46465641260147095, -2.353917121887207, 2.2721240520477295, 0.19906120002269745, -0.03200921788811684, 7.451382160186768, 0.40055492520332336, -0.06392573565244675, 0.2718675434589386, -0.41636255383491516, -0.8973166346549988, 0.0675513967871666, -1.2041300286435634, 0.8058625846122993, 5.547782543017743, 9362.0, 30146.0, 35388.0, 9362.0, 7.9140496253967285, -0.06546546518802643, -0.2841796875, 0.18843889236450195, -0.0030950591899454594, -0.012407546862959862, 0.9980881214141846, -0.07280095666646957, -0.23671722412109375, 1.4765625, 1.382080078125, 0.0256195068359375, 1.49267578125
53619, 0.46642228960990906, -2.3459577560424805, 2.276700258255005, 0.215408056974411, -0.03461713716387749, 7.462242126464844, 0.4167799949645996, -0.06646818667650223, 0.2712284326553345, -0.41635727882385254, -0.8973132371902466, 0.06754736602306366, -1.2080870188418507, 0.8008878889229436, 5.54047069664261, 9362.0, 30146.0, 35388.0, 9362.0, 7.9140496253967285, -0.11519336700439453, -0.3357066512107849, 0.02941654622554779, -0.0030950591899454594, -0.012407546862959862, 0.9980881214141846, -0.04347936436533928, -0.11127853393554688, 1.48681640625, 1.06640625, 1.734771728515625, 1.490478515625
53669, 0.4676794707775116, -2.340364933013916, 2.2904860973358154, 0.2367517203092575, -0.038020193576812744, 7.475774765014648, 0.4369546175003052, -0.0696570947766304, 0.27015113830566406, -0.41638970375061035, -0.8973811268806458, 0.06766325980424881, -1.2264240962951165, 0.7654496029294933, 5.549386213714925, 9362.0, 30146.0, 35388.0, 9362.0, 7.933885097503662, -0.03448070213198662, -0.039880555123090744, 0.2843645513057709, -0.0007236070814542472, -0.010612613521516323, 0.9993410110473633, -0.050222091376781464, -0.0037593841552734375, 1.49560546875, 1.188720703125, 0.4511871337890625, 1.494873046875
53679, 0.46820953488349915, -2.3392999172210693, 2.2926409244537354, 0.2367517203092575, -0.038020193576812744, 7.475774765014648, 0.4369546175003052, -0.0696570947766304, 0.27015113830566406, -0.4163859784603119, -0.8973851203918457, 0.06765544414520264, -1.23274873971582, 0.7612971162996018, 5.552580082512252, 9362.0, 30146.0, 35388.0, 9362.0, 7.933885097503662, -0.06328270584344864, 0.10365545004606247, 0.10052521526813507, -0.0007236070814542472, -0.010612613521516323, 0.9993410110473633, -0.050222091376781464, -0.0037593841552734375, 1.49560546875, 0.8671875, 7.1566314697265625, 1.494873046875
53699, 0.4663889706134796, -2.3444411754608154, 2.2979934215545654, 0.2500419616699219, -0.04013875871896744, 7.483875274658203, 0.4490583837032318, -0.07157957553863525, 0.2698982357978821, -0.4163942337036133, -0.8973739743232727, 0.06765541434288025, -1.227364962522394, 0.7558162353741125, 5.556247848901164, 9362.0, 30146.0, 35388.0, 9362.0, 7.9140496253967285, -0.16145505011081696, 0.3316430151462555, 0.2299668937921524, -0.0003551432164385915, -0.01227788906544447, 0.9988692998886108, -0.04247240349650383, -0.030637741088867188, 1.493408203125, 0.8671875, 7.1566314697265625, 1.491943359375
53729, 0.4638824164867401, -2.3516855239868164, 2.3001904487609863, 0.26369529962539673, -0.042314838618040085, 7.491964340209961, 0.4611580967903137, -0.07348791509866714, 0.2690906524658203, -0.41637757420539856, -0.8973685503005981, 0.0676557794213295, -1.2307320874119714, 0.7492886840029769, 5.547450676782751, 9362.0, 30146.0, 35388.0, 9362.0, 7.933885097503662, -0.044229570776224136, 0.5224785208702087, 0.06153674051165581, -0.0003551432164385915, -0.01227788906544447, 0.9988692998886108, -0.043922364711761475, 0.07688140869140625, 1.502197265625, 1.1923828125, 0.4285125732421875, 1.491943359375
53759, 0.46432435512542725, -2.363213300704956, 2.2976157665252686, 0.27771204710006714, -0.04454793035984039, 7.500024795532227, 0.47330018877983093, -0.07538436353206635, 0.26830896735191345, -0.4163772463798523, -0.8973771333694458, 0.06766235828399658, -1.2276114965654819, 0.7594452785492649, 5.549160797447703, 9362.0, 30146.0, 35388.0, 9362.0, 7.9140496253967285, -0.2700320780277252, 0.15552878379821777, -0.00621600029990077, -0.0051245675422251225, -0.012873569503426552, 1.0017791986465454, -0.06351371109485626, 0.07688140869140625, 1.502197265625, 0.756591796875, 12.928024291992188, 1.491943359375
53779, 0.4622505307197571, -2.367093801498413, 2.2944133281707764, 0.28725939989089966, -0.046068280935287476, 7.505390167236328, 0.4814434349536896, -0.07665068656206131, 0.26826587319374084, -0.4163970649242401, -0.8973607420921326, 0.06759696453809738, -1.2203372180534868, 0.752782564817295, 5.552180801401277, 9362.0, 30146.0, 35388.0, 9362.0, 7.9140496253967285, -0.060097794979810715, 0.28876373171806335, -0.33222755789756775, -0.0051245675422251225, -0.012873569503426552, 1.0017791986465454, -0.05037796124815941, -0.19191741943359375, 1.480224609375, 0.756591796875, 12.928024291992188, 1.493408203125
53789, 0.4631674289703369, -2.366926908493042, 2.2925894260406494, 0.28725939989089966, -0.046068280935287476, 7.505390167236328, 0.4814434349536896, -0.07665068656206131, 0.26826587319374084, -0.4163888692855835, -0.8973625302314758, 0.06763370335102081, -1.2216468892845003, 0.7599609161449905, 5.553988476926482, 9362.0, 30146.0, 35388.0, 9362.0, 7.9140496253967285, 0.08397265523672104, -0.46517056226730347, -0.2701474726200104, -0.0051245675422251225, -0.012873569503426552, 1.0017791986465454, -0.050587911158800125, -0.2546367645263672, 1.47509765625, 0.756591796875, 12.928024291992188, 1.49267578125
53799, 0.4629330039024353, -2.364736557006836, 2.292668342590332, 0.28725939989089966, -0.046068280935287476, 7.505390167236328, 0.4814434349536896, -0.07665068656206131, 0.26826587319374084, -0.41638800501823425, -0.8973506093025208, 0.06761676073074341, -1.2335085736644988, 0.7448261002867866, 5.56566250900195, 9362.0, 30146.0, 35388.0, 9362.0, 7.9140496253967285, -0.04326823353767395, -0.3844678997993469, -0.10945184528827667, -0.004185177385807037, -0.012370762415230274, 0.998750627040863, -0.050587911158800125, -0.2546367645263672, 1.47509765625, 0.898681640625, 5.929046630859375, 1.49267578125
53809, 0.4635862708091736, -2.363422155380249, 2.2905328273773193, 0.28725939989089966, -0.046068280935287476, 7.505390167236328, 0.4814434349536896, -0.07665068656206131, 0.26826587319374084, -0.4163903594017029, -0.8973419070243835, 0.06761311739683151, -1.2311477623427542, 0.7531664422761821, 5.56273754984138, 9362.0, 30146.0, 35388.0, 9362.0, 7.9140496253967285, 0.11245191097259521, -0.0035748847294598818, -0.07177729159593582, -0.004185177385807037, -0.012370762415230274, 0.998750627040863, -0.06989666819572449, -0.22775840759277344, 1.477294921875, 0.898681640625, 5.929046630859375, 1.49267578125
53819, 0.4640474021434784, -2.3605432510375977, 2.290334701538086, 0.28725939989089966, -0.046068280935287476, 7.505390167236328, 0.4814434349536896, -0.07665068656206131, 0.26826587319374084, -0.41638144850730896, -0.8973444104194641, 0.06760768592357635, -1.227079338168604, 0.7493895163267155, 5.553388743035071, 9362.0, 30146.0, 35388.0, 9362.0, 7.9140496253967285, 0.11245191097259521, -0.0035748847294598818, -0.07177729159593582, -0.004185177385807037, -0.012370762415230274, 0.998750627040863, -0.06660015881061554, 0.0052013397216796875, 1.496337890625, 0.898681640625, 5.929046630859375, 1.4912109375
53839, 0.4647097587585449, -2.3569984436035156, 2.2896928787231445, 0.3168797194957733, -0.05078054219484329, 7.521463871002197, 0.5059075355529785, -0.08043289184570312, 0.26796525716781616, -0.41638389229774475, -0.8973207473754883, 0.06756192445755005, -1.238015188783116, 0.768884881020881, 5.5518475916915335, 9362.0, 30146.0, 35388.0, 9362.0, 7.933885097503662, 0.06890132278203964, -0.5062599182128906, 0.00037081961636431515, -0.0035114239435642958, -0.012978736311197281, 0.9978300929069519, -0.06660015881061554, 0.0052013397216796875, 1.496337890625, 1.64794921875, 0.533660888671875, 1.4912109375
53849, 0.46623584628105164, -2.353527784347534, 2.2905831336975098, 0.3168797194957733, -0.05078054219484329, 7.521463871002197, 0.5059075355529785, -0.08043289184570312, 0.26796525716781616, -0.4163765609264374, -0.8973187804222107, 0.0675661638379097, -1.2354487153261895, 0.7736694001161766, 5.552375719150931, 9362.0, 30146.0, 35388.0, 9362.0, 7.933885097503662, 0.06890132278203964, -0.5062599182128906, 0.00037081961636431515, -0.004077086225152016, -0.013162118382751942, 1.0009554624557495, -0.06660015881061554, 0.0052013397216796875, 1.496337890625, 1.658203125, 0.5592803955078125, 1.4912109375
53929, 0.4662741422653198, -2.3500771522521973, 2.297619104385376, 0.3640535771846771, -0.05827679485082626, 7.545543193817139, 0.542350172996521, -0.08615416288375854, 0.26706981658935547, -0.4163101613521576, -0.8972799777984619, 0.06749328970909119, -1.2054406119370944, 0.7898144718755873, 5.558469738357984, 9362.0, 30146.0, 35388.0, 9362.0, 7.933885097503662, 0.11134625226259232, 0.49217918515205383, 0.0620618611574173, -0.002800952410325408, -0.012214603833854198, 1.0002721548080444, -0.06627065688371658, -0.2187976837158203, 1.47802734375, 1.33154296875, 0.0198516845703125, 1.4912109375
53949, 0.4635158181190491, -2.352829933166504, 2.2963709831237793, 0.3640535771846771, -0.05827679485082626, 7.545543193817139, 0.542350172996521, -0.08615416288375854, 0.26706981658935547, -0.41634467244148254, -0.8972896337509155, 0.06751269847154617, -1.214869283629151, 0.7824878336050176, 5.552517606679591, 9362.0, 30146.0, 35388.0, 9362.0, 7.9140496253967285, 0.11134625226259232, 0.49217918515205383, 0.0620618611574173, -0.0025301012210547924, -0.01401121448725462, 1.0007520914077759, -0.06674901396036148, -0.0037593841552734375, 1.49560546875, 0.73828125, 14.134048461914062, 1.48974609375
53959, 0.4633074402809143, -2.355449914932251, 2.297424554824829, 0.3640535771846771, -0.05827679485082626, 7.545543193817139, 0.542350172996521, -0.08615416288375854, 0.26706981658935547, -0.41630905866622925, -0.8972806334495544, 0.06754329800605774, -1.2115017814868305, 0.7906376444240095, 5.555724296394155, 9362.0, 30146.0, 35388.0, 9362.0, 7.9140496253967285, -0.04977642744779587, 0.23542726039886475, 0.07615528255701065, -0.0025301012210547924, -0.01401121448725462, 1.0007520914077759, -0.06674901396036148, -0.0037593841552734375, 1.49560546875, 0.99462890625, 3.105987548828125, 1.48974609375
54059, 0.46346747875213623, -2.3556690216064453, 2.2942397594451904, 0.43798837065696716, -0.07001084089279175, 7.580204486846924, 0.5951621532440186, -0.09435408562421799, 0.2662322223186493, -0.4163673222064972, -0.897323727607727, 0.06753914058208466, -1.2113187392343165, 0.7994748475867937, 5.545096068396103, 9362.0, 30146.0, 35388.0, 9362.0, 7.9140496253967285, 0.12676936388015747, -0.2261636108160019, 0.15051423013210297, -0.005559026729315519, -0.012427893467247486, 1.0007809400558472, -0.04573352262377739, 0.023120880126953125, 1.497802734375, 0.3984375, 54.86000061035156, 1.49267578125
54079, 0.46513137221336365, -2.357121229171753, 2.29434871673584, 0.44997289776802063, -0.0719105452299118, 7.585529327392578, 0.6032924652099609, -0.09561701118946075, 0.26625633239746094, -0.41636380553245544, -0.8973224759101868, 0.06754826009273529, -1.209019641976307, 0.8019141684217459, 5.549012920150281, 9362.0, 30146.0, 35388.0, 9362.0, 7.933885097503662, 0.12676936388015747, -0.2261636108160019, 0.15051423013210297, -0.004989630077034235, -0.012652527540922165, 0.9989250302314758, -0.045969996601343155, -0.01271820068359375, 1.494873046875, 1.250244140625, 0.162445068359375, 1.49267578125
54089, 0.46578770875930786, -2.3558011054992676, 2.292616367340088, 0.44997289776802063, -0.0719105452299118, 7.585529327392578, 0.6032924652099609, -0.09561701118946075, 0.26625633239746094, -0.41636112332344055, -0.8973250985145569, 0.06755434721708298, -1.2160479884746203, 0.8046434095051893, 5.547406617625103, 9362.0, 30146.0, 35388.0, 9362.0, 7.9140496253967285, -0.04121968895196915, 0.008066168986260891, -0.15205462276935577, -0.004989630077034235, -0.012652527540922165, 0.9989250302314758, -0.045969996601343155, -0.01271820068359375, 1.494873046875, 1.250244140625, 0.162445068359375, 1.48828125
54139, 0.4678038954734802, -2.3472559452056885, 2.2895007133483887, 0.48064497113227844, -0.07677065581083298, 7.598825931549072, 0.6235861778259277, -0.09879392385482788, 0.26571401953697205, -0.41639047861099243, -0.8973602056503296, 0.06758569180965424, -1.2361755681322184, 0.779842784171251, 5.533320597428067, 9362.0, 30146.0, 35388.0, 9362.0, 7.9140496253967285, -0.03239671140909195, 0.044134192168712616, 0.13576477766036987, -0.0012013487285003066, -0.012920702807605267, 0.9987300634384155, -0.06273461133241653, -0.09335899353027344, 1.48828125, 1.040771484375, 2.162322998046875, 1.494140625
54149, 0.46827998757362366, -2.347677707672119, 2.290266990661621, 0.48064497113227844, -0.07677065581083298, 7.598825931549072, 0.6235861778259277, -0.09879392385482788, 0.26571401953697205, -0.41636812686920166, -0.8973605632781982, 0.06760085374116898, -1.234905937424547, 0.7858685324509338, 5.536923526570475, 9362.0, 30146.0, 35388.0, 9362.0, 7.9140496253967285, -0.03239671140909195, 0.044134192168712616, 0.13576477766036987, -0.0012013487285003066, -0.012920702807605267, 0.9987300634384155, -0.06273461133241653, -0.09335899353027344, 1.48828125, 1.040771484375, 2.162322998046875, 1.491943359375
54169, 0.4683033525943756, -2.3517568111419678, 2.290210008621216, 0.505912184715271, -0.08077351748943329, 7.609447956085205, 0.6397626399993896, -0.10134976357221603, 0.2651124894618988, -0.4163850247859955, -0.8973484635353088, 0.06760375946760178, -1.2329160680379405, 0.7784809605997509, 5.528559013521603, 9362.0, 30146.0, 35388.0, 9362.0, 7.9140496253967285, -0.03239671140909195, 0.044134192168712616, 0.13576477766036987, -0.0031185373663902283, -0.014230393804609776, 0.998989999294281, -0.06273461133241653, -0.09335899353027344, 1.48828125, 1.040771484375, 2.162322998046875, 1.49267578125
54179, 0.4687892198562622, -2.353025436401367, 2.2900092601776123, 0.505912184715271, -0.08077351748943329, 7.609447956085205, 0.6397626399993896, -0.10134976357221603, 0.2651124894618988, -0.4163840115070343, -0.8973543643951416, 0.06761512160301208, -1.2357123815478828, 0.7791565139194745, 5.533964952558888, 9362.0, 30146.0, 35388.0, 9362.0, 7.9140496253967285, -0.0650588870048523, 0.008221323601901531, 0.15020018815994263, -0.0025270688347518444, -0.016545666381716728, 0.9988314509391785, -0.06273461133241653, -0.09335899353027344, 1.48828125, 1.23486328125, 0.2174835205078125, 1.49267578125
54219, 0.46783676743507385, -2.359252452850342, 2.2942121028900146, 0.5384063124656677, -0.08592098951339722, 7.622673988342285, 0.6600151658058167, -0.10454700142145157, 0.263989120721817, -0.416372686624527, -0.897355318069458, 0.06756769865751266, -1.238150665876004, 0.7725657800066585, 5.538451591517835, 9362.0, 30146.0, 35388.0, 9362.0, 7.9140496253967285, 0.09982036054134369, -0.12582805752754211, 0.096816286444664, -0.0025270688347518444, -0.016545666381716728, 0.9988314509391785, -0.055840156972408295, -0.08439826965332031, 1.489013671875, 1.5322265625, 0.2628021240234375, 1.491943359375
54239, 0.4666414260864258, -2.3601951599121094, 2.2944624423980713, 0.5516878962516785, -0.08802467584609985, 7.627950191497803, 0.6681433916091919, -0.10582270473241806, 0.26367002725601196, -0.4164024293422699, -0.897388219833374, 0.06765029579401016, -1.2288626436254824, 0.7560348290345758, 5.567156261494537, 9362.0, 30146.0, 35388.0, 9362.0, 7.9140496253967285, -0.009223229251801968, 0.07879535108804703, 0.13979731500148773, -0.004045795649290085, -0.012476857751607895, 0.9998432397842407, -0.04983564838767052, -0.09335899353027344, 1.48828125, 1.03564453125, 2.2557220458984375, 1.48828125
54249, 0.4671391248703003, -2.3610823154449463, 2.29716420173645, 0.5516878962516785, -0.08802467584609985, 7.627950191497803, 0.6681433916091919, -0.10582270473241806, 0.26367002725601196, -0.41639456152915955, -0.897374153137207, 0.06764154136180878, -1.2325915249751807, 0.7548370841186056, 5.5649661673475865, 9362.0, 30146.0, 35388.0, 9362.0, 7.9140496253967285, -0.046572890132665634, -0.4379899501800537, 0.0959341749548912, -0.0012786220759153366, -0.012334531173110008, 1.0007745027542114, -0.04983564838767052, -0.09335899353027344, 1.48828125, 1.03564453125, 2.2557220458984375, 1.497802734375
54259, 0.4670257866382599, -2.35750675201416, 2.2962117195129395, 0.5516878962516785, -0.08802467584609985, 7.627950191497803, 0.6681433916091919, -0.10582270473241806, 0.26367002725601196, -0.4163922071456909, -0.8973782658576965, 0.0676305890083313, -1.2316078360498934, 0.7592869454991558, 5.562537261490082, 9362.0, 30146.0, 35388.0, 9362.0, 7.9140496253967285, -0.19361628592014313, -0.30886849761009216, 0.10746094584465027, -0.0039504035376012325, -0.01295853964984417, 1.0004591941833496, -0.04983564838767052, -0.09335899353027344, 1.48828125, 1.16455078125, 0.620697021484375, 1.497802734375
54269, 0.4660891592502594, -2.3550543785095215, 2.2972631454467773, 0.5516878962516785, -0.08802467584609985, 7.627950191497803, 0.6681433916091919, -0.10582270473241806, 0.26367002725601196, -0.41639643907546997, -0.8973747491836548, 0.06765342503786087, -1.2327818880874517, 0.7578185144116674, 5.558535772657487, 9362.0, 30146.0, 35388.0, 9362.0, 7.9140496253967285, -0.000336665369104594, 0.1617770791053772, 0.2676752209663391, -0.004761686082929373, -0.014064962975680828, 1.001114010810852, -0.04983564838767052, -0.09335899353027344, 1.48828125, 0.876708984375, 6.7680511474609375, 1.497802734375
54279, 0.4659827947616577, -2.3552448749542236, 2.2987101078033447, 0.5516878962516785, -0.08802467584609985, 7.627950191497803, 0.6681433916091919, -0.10582270473241806, 0.26367002725601196, -0.416385680437088, -0.8973827958106995, 0.0676669105887413, -1.2325859179304859, 0.7616214568727742, 5.551952690092435, 9362.0, 30146.0, 35388.0, 9362.0, 7.9140496253967285, -0.08321494609117508, -0.26899006962776184, 0.17181479930877686, -0.004677769728004932, -0.01225498877465725, 1.0000417232513428, -0.04983564838767052, -0.09335899353027344, 1.48828125, 1.11181640625, 1.125274658203125, 1.497802734375
54289, 0.46617186069488525, -2.3543334007263184, 2.299124002456665, 0.5856034755706787, -0.09339548647403717, 7.641119003295898, 0.6884790658950806, -0.10900882631540298, 0.2633207440376282, -0.4163898825645447, -0.897376298904419, 0.0676509290933609, -1.2296130251311013, 0.7637792891488004, 5.553259344745831, 9362.0, 30146.0, 35388.0, 9362.0, 7.9140496253967285, 0.021582968533039093, -0.2812313437461853, -0.15143896639347076, -0.004677769728004932, -0.01225498877465725, 1.0000417232513428, -0.04983564838767052, -0.09335899353027344, 1.48828125, 1.11181640625, 1.125274658203125, 1.48974609375
54309, 0.46703246235847473, -2.3537847995758057, 2.2995858192443848, 0.5925085544586182, -0.09448874741792679, 7.64375114440918, 0.6925355195999146, -0.10964371263980865, 0.2631447911262512, -0.41639310121536255, -0.8973801136016846, 0.06766502559185028, -1.2276077362412612, 0.7612283890972265, 5.551608446547823, 9362.0, 30146.0, 35388.0, 9362.0, 7.9140496253967285, 0.1376451700925827, -0.12368731945753098, 0.02679729461669922, -0.004677769728004932, -0.01225498877465725, 1.0000417232513428, -0.07177945226430893, -0.1291980743408203, 1.4853515625, 0.695068359375, 17.302413940429688, 1.49267578125
54339, 0.46950018405914307, -2.3468892574310303, 2.301368474960327, 0.6205348968505859, -0.09892542660236359, 7.654276371002197, 0.7087660431861877, -0.11219089478254318, 0.2628520727157593, -0.41638362407684326, -0.8973821997642517, 0.06767246872186661, -1.228488368197519, 0.7697595614749844, 5.551586601760425, 9362.0, 30146.0, 35388.0, 9362.0, 7.9140496253967285, 0.02401377074420452, -0.2577676773071289, -0.05702049285173416, -0.0008739983895793557, -0.014133205637335777, 1.0001901388168335, -0.05590766668319702, 0.09480094909667969, 1.503662109375, 0.856201171875, 7.624542236328125, 1.494140625
54349, 0.47019973397254944, -2.3442599773406982, 2.2995498180389404, 0.6205348968505859, -0.09892542660236359, 7.654276371002197, 0.7087660431861877, -0.11219089478254318, 0.2628520727157593, -0.41639244556427, -0.8973869681358337, 0.06765283644199371, -1.2240003281073608, 0.7664528297856918, 5.5499334770190245, 9362.0, 30146.0, 35388.0, 9362.0, 7.9140496253967285, -0.05804842337965965, -0.07353701442480087, -0.004369795322418213, -0.0008739983895793557, -0.014133205637335777, 1.0001901388168335, -0.05590766668319702, 0.09480094909667969, 1.503662109375, 0.856201171875, 7.624542236328125, 1.49560546875
54359, 0.4709327220916748, -2.3432159423828125, 2.2992472648620605, 0.6347911953926086, -0.10118208080530167, 7.659531116485596, 0.7168607115745544, -0.11347473412752151, 0.2626747786998749, -0.4163978695869446, -0.8973807692527771, 0.06765179336071014, -1.2300303183533134, 0.7635987511394831, 5.5489542923698885, 9362.0, 30146.0, 35388.0, 9362.0, 7.9140496253967285, 0.026091940701007843, -0.14337636530399323, -0.19900429248809814, 0.0002974073286168277, -0.013006564229726791, 1.001264214515686, -0.05590766668319702, 0.09480094909667969, 1.503662109375, 0.856201171875, 7.624542236328125, 1.49560546875
54369, 0.472291499376297, -2.3417699337005615, 2.298111915588379, 0.6347911953926086, -0.10118208080530167, 7.659531116485596, 0.7168607115745544, -0.11347473412752151, 0.2626747786998749, -0.41639232635498047, -0.8973826169967651, 0.0676787942647934, -1.2260187834932084, 0.7653480449189374, 5.553045777964713, 9362.0, 30146.0, 35388.0, 9362.0, 7.9140496253967285, 0.026091940701007843, -0.14337636530399323, -0.19900429248809814, -0.0004560481756925583, -0.011331607587635517, 1.0007095336914062, -0.05590766668319702, 0.09480094909667969, 1.503662109375, 1.305908203125, 0.0413360595703125, 1.494873046875
54389, 0.4724307656288147, -2.339493751525879, 2.2961392402648926, 0.6347911953926086, -0.10118208080530167, 7.659531116485596, 0.7168607115745544, -0.11347473412752151, 0.2626747786998749, -0.4163954257965088, -0.8973852396011353, 0.06764402240514755, -1.228318051486942, 0.763301063537682, 5.546899303066585, 9362.0, 30146.0, 35388.0, 9362.0, 7.933885097503662, -0.10498612374067307, 0.09501724690198898, -0.4707459509372711, -0.0044783842749893665, -0.013362213969230652, 1.002802848815918, -0.05420814827084541, -0.15607833862304688, 1.483154296875, 0.951416015625, 4.2201385498046875, 1.494873046875
54419, 0.47349220514297485, -2.3435423374176025, 2.291825294494629, 0.6785304546356201, -0.10810690373182297, 7.675292491912842, 0.7410959601402283, -0.1173572763800621, 0.26256316900253296, -0.4163833558559418, -0.8973747491836548, 0.06766077131032944, -1.225698820439655, 0.7591269530757359, 5.547227634701507, 9362.0, 30146.0, 35388.0, 9362.0, 7.9140496253967285, 0.1534644514322281, 0.26320669054985046, -0.05513335391879082, -0.0044783842749893665, -0.013362213969230652, 1.002802848815918, -0.03993994742631912, 0.023120880126953125, 1.497802734375, 1.399658203125, 0.0396575927734375, 1.493408203125
