timeTick, roll, pitch, yaw, stateX, stateY, stateZ, stateVX, stateVY, stateVZ, otX0, otY0, otZ0, otRoll0, otPitch0, otYaw0, left wing, pitch motor, yaw motor, right wing, voltage, roll rate, pitch rate, yaw rate, A_x, A_y, A_z, current, i_raw, v_raw, airflow_voltage, airflow_speed, pot_Pitch
16419, 0.68503338098526, 3.2579431533813477, -0.35121724009513855, 0, 0, 0, 0, 0, 0, -0.16589830815792084, -1.0546623468399048, 0.06343934684991837, -1.2194142451517043, 0.9231775319550763, -0.41175358836935533, 0, 0, 0, 0, 0, 0, 0, 0, 0, 0, 0, 0, 0, 0, 0, 0, 0
16429, 0.6869757771492004, 3.258911371231079, -0.3521157205104828, 6.29980640951544e-05, 1.282684115722077e-05, -1.1355122327804565, -0.002434914465993643, -0.0004968501743860543, -0.15348564088344574, -0.165898397564888, -1.0546543598175049, 0.06346669793128967, -1.2191919564906655, 0.9248181453108089, -0.4163352833872107, 9362.0, 30146.0, 35388.0, 9362.0, 7.8942155838012695, 0.07617390900850296, -0.15386593341827393, 0.05126486346125603, 0.005655032582581043, -0.008542897179722786, 0.9980709552764893, -0.05673059821128845, 0.17543983459472656, 1.51025390625, 0, 0, 0
16439, 0.6876242160797119, 3.258230447769165, -0.3526882231235504, 1.077639899449423e-05, 2.1724699763581157e-06, -1.137048602104187, -0.008009429089725018, -0.0016339373541995883, -0.15377962589263916, -0.16589421033859253, -1.0546561479568481, 0.06347675621509552, -1.2200015162593711, 0.9255725202481244, -0.40864561675763883, 9362.0, 30146.0, 35388.0, 9362.0, 7.8942155838012695, 0.006162826903164387, -0.49123233556747437, -0.26725152134895325, 0.00482920790091157, -0.010404669679701328, 0.9975303411483765, -0.052063073962926865, -0.15607833862304688, 1.483154296875, 1.41796875, 0.05950927734375, 1.496337890625
16449, 0.688289225101471, 3.2586610317230225, -0.3534395098686218, -9.716743807075545e-05, -1.9862463886965998e-05, -1.1385884284973145, -0.013579357415437698, -0.0027729934081435204, -0.15418370068073273, -0.16589945554733276, -1.0546624660491943, 0.06344827264547348, -1.2162805696810863, 0.9314371030114899, -0.4163796361038807, 9362.0, 30146.0, 35388.0, 9362.0, 7.8942155838012695, -0.19622869789600372, -0.030508466064929962, 0.03989843279123306, 0.005950875114649534, -0.012178397737443447, 1.000331997871399, -0.04753747582435608, -0.030637741088867188, 1.493408203125, 1.598876953125, 0.414520263671875, 1.4912109375
16459, 0.6878880262374878, 3.259214401245117, -0.35499030351638794, -0.0002608356880955398, -5.329956184141338e-05, -1.1401317119598389, -0.019154304638504982, -0.003914354834705591, -0.15447968244552612, -0.16588957607746124, -1.0546566247940063, 0.06346802413463593, -1.2159987191604897, 0.9298166318154699, -0.4173951134795306, 9362.0, 30146.0, 35388.0, 9362.0, 7.8942155838012695, 0.003687990363687277, -0.020774081349372864, -0.08401069045066833, 0.006389707792550325, -0.01188539806753397, 0.9990755915641785, -0.046953730285167694, 0.04104042053222656, 1.499267578125, 1.89697265625, 1.403839111328125, 1.493408203125
16469, 0.6884323358535767, 3.2595877647399902, -0.35502246022224426, -0.0004803002520930022, -9.816439705900848e-05, -1.1416772603988647, -0.02473863959312439, -0.005058459937572479, -0.15462464094161987, -0.1658976674079895, -1.054663062095642, 0.06346917152404785, -1.2172871601607862, 0.930233391367949, -0.41268351394268515, 9362.0, 30146.0, 35388.0, 9362.0, 7.8942155838012695, 0.23428425192832947, 0.175489142537117, -0.0011354299494996667, 0.005846244283020496, -0.010945994406938553, 0.999687910079956, -0.05253402888774872, -0.2904777526855469, 1.47216796875, 1.66845703125, 0.5852813720703125, 1.494873046875
16479, 0.6883795857429504, 3.2594614028930664, -0.3543509542942047, -0.0007555887568742037, -0.00015446110046468675, -1.1432247161865234, -0.030319053679704666, -0.006200877949595451, -0.15485477447509766, -0.1659068912267685, -1.0546602010726929, 0.063471220433712, -1.2205675658359871, 0.9300477447752371, -0.41251540081024785, 9362.0, 30146.0, 35388.0, 9362.0, 7.8942155838012695, -0.039617154747247696, 0.03912251442670822, 0.21066610515117645, 0.006876188330352306, -0.009970057755708694, 1.0000123977661133, -0.043051108717918396, -0.20087814331054688, 1.4794921875, 1.12353515625, 0.9957122802734375, 1.49560546875
16489, 0.6881603598594666, 3.261181592941284, -0.35099849104881287, -0.001086701056919992, -0.000222189977648668, -1.144774079322815, -0.03590339794754982, -0.007344960700720549, -0.15502725541591644, -0.16591644287109375, -1.054660439491272, 0.06346721947193146, -1.2202884984428495, 0.9289358627925139, -0.4166163723514868, 9362.0, 30146.0, 35388.0, 9362.0, 7.8942155838012695, 0.011151810176670551, -0.5751366019248962, 0.1697477251291275, 0.005753129255026579, -0.010132960043847561, 1.0000706911087036, -0.0474865660071373, -0.030637741088867188, 1.493408203125, 1.528564453125, 0.2548828125, 1.491943359375
16499, 0.6883049607276917, 3.2593414783477783, -0.3502941429615021, -0.0014736634911969304, -0.00030136117129586637, -1.1463251113891602, -0.04148901626467705, -0.008489604108035564, -0.15517236292362213, -0.16590768098831177, -1.0546605587005615, 0.06344454735517502, -1.219717416919663, 0.9269002436550409, -0.4204061756793834, 9362.0, 30146.0, 35388.0, 9362.0, 7.8942155838012695, -0.05908827856183052, 0.6829556822776794, 0.08104519546031952, 0.006395244039595127, -0.010966327972710133, 1.0011661052703857, -0.05343231186270714, -0.1739978790283203, 1.481689453125, 1.762939453125, 0.8495025634765625, 1.49267578125
16509, 0.6885332465171814, 3.2586488723754883, -0.3515080213546753, -0.0019165168050676584, -0.00039198261220008135, -1.1478772163391113, -0.04708163067698479, -0.009634753689169884, -0.1552460938692093, -0.16594386100769043, -1.0546889305114746, 0.06344778835773468, -1.2205069675928841, 0.9158069664771347, -0.42346623561765545, 9362.0, 30146.0, 35388.0, 9362.0, 7.8942155838012695, -0.04780834913253784, -0.21808882057666779, -0.07179801911115646, 0.006207759957760572, -0.01102963462471962, 1.0000475645065308, -0.05997708439826965, -0.11127853393554688, 1.48681640625, 1.864013671875, 1.2351837158203125, 1.4912109375
16519, 0.6889406442642212, 3.2613468170166016, -0.35307776927948, -0.002415270544588566, -0.0004940552171319723, -1.149430274963379, -0.05266914516687393, -0.010779648087918758, -0.15535438060760498, -0.16595333814620972, -1.0546927452087402, 0.06353287398815155, -1.215590526379409, 0.9347329070579065, -0.40477333207960703, 9362.0, 30146.0, 35388.0, 9362.0, 7.8942155838012695, 0.25917792320251465, 0.05385923758149147, -0.08818608522415161, 0.004800356458872557, -0.013036379590630531, 1.000062346458435, -0.06560688465833664, 0.0052013397216796875, 1.496337890625, 1.020263671875, 2.552642822265625, 1.491943359375
16529, 0.6890596151351929, 3.258809804916382, -0.352996289730072, -0.0029698763974010944, -0.0006075746496208012, -1.1509846448898315, -0.05825207382440567, -0.011924086138606071, -0.15552324056625366, -0.16596636176109314, -1.0546917915344238, 0.06355300545692444, -1.2162309458998415, 0.9344841789325642, -0.4015787268551864, 9362.0, 30146.0, 35388.0, 9362.0, 7.8942155838012695, -0.07474499195814133, 0.28163260221481323, 0.37794971466064453, 0.004441647790372372, -0.012318363413214684, 1.001133918762207, -0.06534016132354736, 0.1396007537841797, 1.50732421875, 1.74169921875, 0.78497314453125, 1.496337890625
16539, 0.6893861889839172, 3.259612798690796, -0.35318633913993835, -0.0035803518258035183, -0.0007325445185415447, -1.1525404453277588, -0.0638430118560791, -0.01306989137083292, -0.1556323617696762, -0.16596075892448425, -1.0546880960464478, 0.06352286040782928, -1.2187055518075165, 0.9334127929329838, -0.405847144652552, 9362.0, 30146.0, 35388.0, 9362.0, 7.8942155838012695, -0.038402412086725235, -0.0754031389951706, 0.11408047378063202, 0.00417618453502655, -0.014419515617191792, 0.9991902112960815, -0.06215744838118553, 0.03208160400390625, 1.49853515625, 1.755615234375, 0.8267822265625, 1.493408203125
16549, 0.6904906034469604, 3.259465456008911, -0.35203123092651367, -0.004246709868311882, -0.0008689725073054433, -1.1540974378585815, -0.06942857056856155, -0.014215699397027493, -0.15575990080833435, -0.16596923768520355, -1.0546928644180298, 0.06354832649230957, -1.22304561943503, 0.938163649709054, -0.4023796600582464, 9362.0, 30146.0, 35388.0, 9362.0, 7.8942155838012695, 0.03485802561044693, 0.19084879755973816, 0.009583727456629276, 0.006520588416606188, -0.01113072782754898, 0.9984871745109558, -0.0652669295668602, -0.03959846496582031, 1.49267578125, 1.790771484375, 0.9409332275390625, 1.4912109375
16559, 0.6895003318786621, 3.26138973236084, -0.3537023961544037, -0.004968886263668537, -0.0010168522130697966, -1.1556564569473267, -0.0750066339969635, -0.015360355377197266, -0.15604247152805328, -0.16595840454101562, -1.0546817779541016, 0.06357993930578232, -1.2305374286846906, 0.9288607929641159, -0.41136142979270257, 9362.0, 30146.0, 35388.0, 9362.0, 7.8942155838012695, 0.02103009819984436, -0.20510543882846832, -0.17133808135986328, 0.007996072061359882, -0.009964950382709503, 0.9994559288024902, -0.06118901073932648, -0.05751800537109375, 1.4912109375, 1.604736328125, 0.428436279296875, 1.489013671875
16569, 0.6906772255897522, 3.2608909606933594, -0.35457563400268555, -0.005746839568018913, -0.001176188001409173, -1.157218337059021, -0.0805840790271759, -0.016506651416420937, -0.1563325971364975, -0.16590794920921326, -1.0546743869781494, 0.06363807618618011, -1.235012346058841, 0.9553102852421773, -0.36272000716805125, 9362.0, 30146.0, 35388.0, 9362.0, 7.8942155838012695, 0.04500933736562729, -0.04223311319947243, 0.015735819935798645, 0.006617704872041941, -0.010212362743914127, 0.9991763234138489, -0.0448932982981205, 0.10376167297363281, 1.50439453125, 1.903564453125, 1.4410400390625, 1.4970703125
16579, 0.691003680229187, 3.2624735832214355, -0.35612213611602783, -0.006580614019185305, -0.001346983597613871, -1.1587826013565063, -0.08617082983255386, -0.01765238679945469, -0.1565171331167221, -0.16587722301483154, -1.0546114444732666, 0.06372745335102081, -1.2716569187251507, 0.9383277510857511, -0.37803126892999456, 9362.0, 30146.0, 35388.0, 9362.0, 7.8942155838012695, 0.0048361606895923615, -0.2602967917919159, -0.02608589641749859, 0.004939322359859943, -0.011140157468616962, 0.9990501999855042, -0.0407601073384285, 0.04104042053222656, 1.499267578125, 1.399658203125, 0.0396575927734375, 1.49267578125
16589, 0.6908678412437439, 3.2614192962646484, -0.35504966974258423, -0.00747022544965148, -0.0015292407479137182, -1.1603491306304932, -0.09175145626068115, -0.01879889704287052, -0.15679477155208588, -0.1658743917942047, -1.0544836521148682, 0.06384919583797455, -1.3613940456031717, 0.9165948631796823, -0.38702326055776415, 9362.0, 30146.0, 35388.0, 9362.0, 7.8942155838012695, -0.022263024002313614, 0.13764658570289612, 0.03523023799061775, 0.0047607989981770515, -0.011643531732261181, 0.9993341565132141, -0.04076191410422325, 0.04104042053222656, 1.499267578125, 1.318359375, 0.028656005859375, 1.49267578125
16599, 0.6921394467353821, 3.259965658187866, -0.3552314341068268, -0.008415666408836842, -0.0017229669028893113, -1.16191828250885, -0.09733667969703674, -0.019946442916989326, -0.1570391207933426, -0.1658424288034439, -1.054323434829712, 0.0639495700597763, -1.453037404880608, 0.9017093250827486, -0.37085752520767346, 9362.0, 30146.0, 35388.0, 9362.0, 7.8942155838012695, 0.10835567116737366, 0.08581410348415375, 0.06164407730102539, 0.00718142744153738, -0.01313006691634655, 1.0013421773910522, -0.05919121950864792, -0.2635974884033203, 1.474365234375, 1.16455078125, 0.620697021484375, 1.494873046875
16609, 0.6931096315383911, 3.2615036964416504, -0.3572024703025818, -0.009416971355676651, -0.0019281721906736493, -1.163489580154419, -0.10292425006628036, -0.021094607189297676, -0.15721073746681213, -0.16580922901630402, -1.0541900396347046, 0.06391680240631104, -1.593516957475148, 0.8794271240759599, -0.3620332178500027, 9362.0, 30146.0, 35388.0, 9362.0, 7.8942155838012695, 0.23369476199150085, -0.004976237192749977, -0.3085566461086273, 0.006649854592978954, -0.013142340816557407, 1.0005115270614624, -0.07471242547035217, 0.08584022521972656, 1.5029296875, 1.79736328125, 0.9638671875, 1.491943359375
16619, 0.6937518119812012, 3.2605698108673096, -0.3583345413208008, -0.010474181734025478, -0.0021448787301778793, -1.1650618314743042, -0.10851789265871048, -0.022246524691581726, -0.15723320841789246, -0.16581960022449493, -1.0538467168807983, 0.06353786587715149, -1.8012605298583813, 1.0115450036365132, -0.45835289570860144, 9362.0, 30146.0, 35388.0, 9362.0, 7.8942155838012695, 0.1145743802189827, 0.03653125837445259, -0.22834838926792145, 0.006980244070291519, -0.013315371237695217, 1.000220775604248, -0.08968308568000793, -0.1291980743408203, 1.4853515625, 1.11474609375, 1.0919036865234375, 1.491943359375
16629, 0.6933112144470215, 3.258333683013916, -0.35699930787086487, -0.011587309651076794, -0.0023731051478534937, -1.1666347980499268, -0.11410768330097198, -0.02339863032102585, -0.15737006068229675, -0.16539514064788818, -1.0544580221176147, 0.06412383913993835, -1.3500407888489483, 0.5499169797317052, -0.405292368504686, 9362.0, 30146.0, 35388.0, 9362.0, 7.8942155838012695, -0.03171870484948158, 0.25185275077819824, 0.6155347228050232, 0.007131417281925678, -0.013547945767641068, 0.9982593655586243, -0.07437435537576675, 0.07688140869140625, 1.502197265625, 1.6875, 0.634674072265625, 1.494140625
16639, 0.6916236281394958, 3.259596824645996, -0.3558652400970459, -0.012756315991282463, -0.0026128552854061127, -1.168209433555603, -0.1196935623884201, -0.024551499634981155, -0.1575467735528946, -0.1654333919286728, -1.0544836521148682, 0.06411920487880707, -1.32745268107482, 0.5954351211332494, -0.4094060854813561, 9362.0, 30146.0, 35388.0, 9362.0, 7.8942155838012695, -0.3965204358100891, 0.05076140910387039, 0.0398034043610096, 0.005360180977731943, -0.014920627698302269, 0.9977142214775085, -0.08041626960039139, -0.20087814331054688, 1.4794921875, 1.505859375, 0.2073974609375, 1.4912109375
16649, 0.6906400322914124, 3.260420322418213, -0.3609120845794678, -0.013981117866933346, -0.002864121925085783, -1.1697865724563599, -0.12526684999465942, -0.025701947510242462, -0.1578768491744995, -0.16581904888153076, -1.0539394617080688, 0.06329666078090668, -1.7011736663067119, 1.0211169287501036, -0.48210972942297126, 9362.0, 30146.0, 35388.0, 9362.0, 7.8942155838012695, 0.21380501985549927, -0.33390122652053833, -0.3470713794231415, 0.009078911505639553, -0.011744840070605278, 0.9997462034225464, -0.0697842538356781, -0.04855918884277344, 1.491943359375, 1.159423828125, 0.66131591796875, 1.494873046875
16659, 0.6912395358085632, 3.2596476078033447, -0.3603413999080658, -0.015261659398674965, -0.0031268782913684845, -1.1713670492172241, -0.13084153831005096, -0.026848837733268738, -0.1582213193178177, -0.1658199429512024, -1.054322361946106, 0.06368555873632431, -1.4563973048021486, 0.8876398465765476, -0.38758114694351536, 9362.0, 30146.0, 35388.0, 9362.0, 7.8942155838012695, -0.015070369467139244, 0.22830051183700562, -0.7568560838699341, 0.005584675818681717, -0.012584340758621693, 1.0028260946273804, -0.07066375762224197, 0.05000114440917969, 1.5, 1.568115234375, 0.3428955078125, 1.4912109375
16669, 0.6892326474189758, 3.260300874710083, -0.3591858744621277, -0.016598064452409744, -0.003401115071028471, -1.1729490756988525, -0.13643939793109894, -0.027998561039566994, -0.15818479657173157, -0.1658533364534378, -1.0545271635055542, 0.0636061578989029, -1.3158801444226447, 0.9027203145303702, -0.3877508091483567, 9362.0, 30146.0, 35388.0, 9362.0, 7.8942155838012695, 0.264445960521698, -0.34877094626426697, -2.111647605895996, 0.010720438323915005, -0.014498434029519558, 1.0004616975784302, -0.07399606704711914, 0.05000114440917969, 1.5, 1.670654296875, 0.59100341796875, 1.493408203125
16679, 0.690072238445282, 3.2587528228759766, -0.36007174849510193, -0.01799040287733078, -0.003686846699565649, -1.1745314598083496, -0.142028346657753, -0.02914787456393242, -0.15828031301498413, -0.16586555540561676, -1.0546568632125854, 0.06358995288610458, -1.210530565533403, 0.9148243105653364, -0.38488470234297556, 9362.0, 30146.0, 35388.0, 9362.0, 7.8942155838012695, 0.7309334874153137, -0.32207778096199036, -2.6677238941192627, 0.011797399260103703, -0.0019381893798708916, 1.0138179063796997, -0.08405347168445587, -0.20087814331054688, 1.4794921875, 1.853759765625, 1.1880645751953125, 1.493408203125
16689, 0.6946967840194702, 3.2601826190948486, -0.35543185472488403, -0.019438719376921654, -0.003984071779996157, -1.176113247871399, -0.14763490855693817, -0.0302970502525568, -0.15808674693107605, -0.1658765971660614, -1.0548317432403564, 0.06355015188455582, -1.1078629542805605, 0.9245460534984886, -0.3845659001926034, 9362.0, 30146.0, 35388.0, 9362.0, 7.8942155838012695, 0.644649863243103, 0.21612189710140228, -0.5368326306343079, 0.009686960838735104, 0.002726588863879442, 1.027722954750061, -0.09308242052793503, -0.2546367645263672, 1.47509765625, 0.872314453125, 6.9454803466796875, 1.490478515625
16699, 0.6970579624176025, 3.2568845748901367, -0.3542366623878479, -0.02094360440969467, -0.0042929016053676605, -1.1776840686798096, -0.15334194898605347, -0.03146951645612717, -0.1560833603143692, -0.16592085361480713, -1.0548585653305054, 0.06351795792579651, -1.067124024674845, 0.8995087273121669, -0.4176267672110145, 9362.0, 30146.0, 35388.0, 9362.0, 7.8942155838012695, -0.2104809284210205, 0.5613015294075012, 0.6353697776794434, 0.012397954240441322, -0.007832150906324387, 1.0117249488830566, -0.08130599558353424, 0.06792068481445312, 1.50146484375, 1.3798828125, 0.0243377685546875, 1.4912109375
16709, 0.6957408785820007, 3.2509939670562744, -0.3612901270389557, -0.022505594417452812, -0.004613503348082304, -1.179234504699707, -0.1590559482574463, -0.032651033252477646, -0.1539994776248932, -0.1659310907125473, -1.054880142211914, 0.06338325887918472, -1.0600065662271534, 0.9249724853806072, -0.41255316138993753, 9362.0, 30146.0, 35388.0, 9362.0, 7.8942155838012695, -0.27372631430625916, 0.3003208339214325, -0.7489464282989502, 0.0076988460496068, 0.004697953350841999, 0.9999298453330994, -0.0832328125834465, 0.014162063598632812, 1.4970703125, 1.8076171875, 1.0009613037109375, 1.494873046875
16719, 0.6880601644515991, 3.2432963848114014, -0.3642827868461609, -0.024124162271618843, -0.004945830907672644, -1.180773377418518, -0.16465789079666138, -0.033813800662755966, -0.1537845879793167, -0.16592460870742798, -1.0548639297485352, 0.06334780156612396, -1.059299054410967, 0.8947633465849094, -0.4321509108754094, 9362.0, 30146.0, 35388.0, 9362.0, 7.8942155838012695, -1.2167810201644897, 0.7105732560157776, -0.6925957202911377, 0.01284073293209076, 0.01355758123099804, 1.0050690174102783, -0.0832328125834465, 0.014162063598632812, 1.4970703125, 1.8076171875, 1.0009613037109375, 1.494873046875
16739, 0.64162677526474, 3.2226662635803223, -0.38177263736724854, -0.024124162271618843, -0.004945830907672644, -1.180773377418518, -0.16465789079666138, -0.033813800662755966, -0.1537845879793167, -0.1659402698278427, -1.0547369718551636, 0.06341319531202316, -1.1376893697070087, 0.9433690043643708, -0.4371403675341641, 9362.0, 30146.0, 35388.0, 9362.0, 7.8942155838012695, -3.6924283504486084, 0.9966785311698914, -0.6722190380096436, 0.004286347422748804, 0.012013781815767288, 1.0129609107971191, -0.0752139538526535, 0.10376167297363281, 1.50439453125, 1.8076171875, 1.0009613037109375, 1.494873046875
16789, 0.27000290155410767, 3.1675913333892822, -0.3888130486011505, -0.0370037816464901, -0.007578400894999504, -1.1916553974151611, -0.20278732478618622, -0.040770940482616425, -0.1643812209367752, -0.16602611541748047, -1.0542902946472168, 0.06282944977283478, -1.390973082888088, 1.1575853086534948, -0.48401945185284356, 9362.0, 30146.0, 35388.0, 9362.0, 7.8942155838012695, -8.226701736450195, 1.0902503728866577, 0.813018798828125, 0.002790376078337431, -0.03532153740525246, 1.0233826637268066, -0.08404700458049774, -0.09335899353027344, 1.48828125, 1.8076171875, 1.0009613037109375, 1.494873046875
16809, 0.12851378321647644, 3.1484179496765137, -0.36937645077705383, -0.0370037816464901, -0.007578400894999504, -1.1916553974151611, -0.20278732478618622, -0.040770940482616425, -0.1643812209367752, -0.16604404151439667, -1.054205060005188, 0.06279034167528152, -1.4443457589622357, 1.1509637526355903, -0.4748425451929879, 9362.0, 30146.0, 35388.0, 9362.0, 7.8942155838012695, -5.435203552246094, 0.9833093881607056, 1.489236831665039, 0.0031135634053498507, -0.043376676738262177, 1.0214204788208008, -0.0800832062959671, 0.07688140869140625, 1.502197265625, 1.8076171875, 1.0009613037109375, 1.494873046875
16819, 0.08308256417512894, 3.145050287246704, -0.35033896565437317, -0.0370037816464901, -0.007578400894999504, -1.1916553974151611, -0.20278732478618622, -0.040770940482616425, -0.1643812209367752, -0.1660187989473343, -1.054187297821045, 0.06278501451015472, -1.4386448652799917, 1.1262553104560027, -0.49491322442263835, 9362.0, 30146.0, 35388.0, 9362.0, 7.8942155838012695, -3.5027472972869873, -0.18765462934970856, 1.7416307926177979, 0.0031135634053498507, -0.043376676738262177, 1.0214204788208008, -0.08140987157821655, 0.03208160400390625, 1.49853515625, 1.8076171875, 1.0009613037109375, 1.494873046875
16829, 0.05612235516309738, 3.1463088989257812, -0.33079782128334045, -0.0370037816464901, -0.007578400894999504, -1.1916553974151611, -0.20278732478618622, -0.040770940482616425, -0.1643812209367752, -0.16596649587154388, -1.054215431213379, 0.062747061252594, -1.4274098976472698, 1.1174912784973117, -0.46511045271225704, 9362.0, 30146.0, 35388.0, 9362.0, 7.8942155838012695, -1.6156697273254395, -0.07724618166685104, 2.014950752258301, 0.0031135634053498507, -0.043376676738262177, 1.0214204788208008, -0.07855720818042755, -0.19191741943359375, 1.480224609375, 1.8076171875, 1.0009613037109375, 1.494873046875
16839, 0.05216172710061073, 3.148144245147705, -0.31013044714927673, -0.0370037816464901, -0.007578400894999504, -1.1916553974151611, -0.20278732478618622, -0.040770940482616425, -0.1643812209367752, -0.1659378856420517, -1.0542917251586914, 0.06277570873498917, -1.402305293446766, 1.1099173828798143, -0.4463641383447342, 9362.0, 30146.0, 35388.0, 9362.0, 7.8942155838012695, 0.7955034971237183, -0.45010101795196533, 1.9886119365692139, 0.0031135634053498507, -0.043376676738262177, 1.0214204788208008, -0.06997475028038025, -0.20087814331054688, 1.4794921875, 1.8076171875, 1.0009613037109375, 1.494873046875
16869, 0.1823967844247818, 3.1726603507995605, -0.24164250493049622, -0.054964400827884674, -0.010942872613668442, -1.2047346830368042, -0.24598371982574463, -0.04259957745671272, -0.1658691167831421, -0.1658501923084259, -1.0546501874923706, 0.06334716081619263, -1.2339144255740822, 0.9318135193099977, -0.33757001862209834, 9362.0, 30146.0, 35388.0, 9362.0, 7.8942155838012695, 7.383177757263184, -1.0672473907470703, 2.0614304542541504, 0.0026993064675480127, -0.05515459552407265, 1.0105996131896973, -0.06884680688381195, -0.03959846496582031, 1.49267578125, 1.8076171875, 1.0009613037109375, 1.494873046875
16879, 0.26575300097465515, 3.18469500541687, -0.22160951793193817, -0.054964400827884674, -0.010942872613668442, -1.2047346830368042, -0.24598371982574463, -0.04259957745671272, -0.1658691167831421, -0.16579881310462952, -1.0547727346420288, 0.06338979303836823, -1.1802973591926975, 0.923204876328299, -0.3835281789189699, 9362.0, 30146.0, 35388.0, 9362.0, 7.8942155838012695, 9.248464584350586, -1.5519939661026, 1.7544875144958496, 0.003437524428591132, -0.046026233583688736, 0.9976835250854492, -0.06709631532430649, -0.08439826965332031, 1.489013671875, 1.8076171875, 1.0009613037109375, 1.494873046875
16899, 0.4590413570404053, 3.208740234375, -0.20208193361759186, -0.06258980184793472, -0.01223194133490324, -1.2096835374832153, -0.26233211159706116, -0.04350661858916283, -0.16532695293426514, -0.16582396626472473, -1.0548025369644165, 0.06342281401157379, -1.1083281384290993, 0.8924525757988135, -0.37987357717114795, 9362.0, 30146.0, 35388.0, 9362.0, 7.8942155838012695, 9.943446159362793, -0.8448447585105896, 0.7293418049812317, 0.004940591286867857, -0.022263946011662483, 0.9837928414344788, -0.09109173715114594, -0.030637741088867188, 1.493408203125, 1.8076171875, 1.0009613037109375, 1.494873046875
16919, 0.6474161148071289, 3.229360342025757, -0.20002125203609467, -0.06794439256191254, -0.013114655390381813, -1.213021993637085, -0.27314621210098267, -0.044848453253507614, -0.1683613657951355, -0.16581737995147705, -1.0548189878463745, 0.06338003277778625, -1.0988575844980037, 0.8930136268437252, -0.37644779675744616, 9362.0, 30146.0, 35388.0, 9362.0, 7.8942155838012695, 8.838277816772461, -1.0186562538146973, -0.5509699583053589, 0.009306586347520351, 0.0029726196080446243, 1.0044209957122803, -0.09432584047317505, -0.10231781005859375, 1.487548828125, 1.8076171875, 1.0009613037109375, 1.494873046875
16929, 0.7304213643074036, 3.2372965812683105, -0.2098238468170166, -0.06794439256191254, -0.013114655390381813, -1.213021993637085, -0.27314621210098267, -0.044848453253507614, -0.1683613657951355, -0.16580596566200256, -1.054823637008667, 0.06345316767692566, -1.1115037928429428, 0.9009022409976808, -0.35933651586276755, 9362.0, 30146.0, 35388.0, 9362.0, 7.8942155838012695, 7.717498779296875, -0.4966210424900055, -1.202181100845337, 0.009306586347520351, 0.0029726196080446243, 1.0044209957122803, -0.0840088352560997, 0.014162063598632812, 1.4970703125, 1.8076171875, 1.0009613037109375, 1.494873046875
16939, 0.7988629341125488, 3.237497091293335, -0.22246785461902618, -0.06794439256191254, -0.013114655390381813, -1.213021993637085, -0.27314621210098267, -0.044848453253507614, -0.1683613657951355, -0.16579577326774597, -1.054809331893921, 0.06339339166879654, -1.1111462408419577, 0.8690535403327431, -0.3882272658702098, 9362.0, 30146.0, 35388.0, 9362.0, 7.8942155838012695, 6.1764044761657715, 0.41814473271369934, -1.5151126384735107, 0.009306586347520351, 0.0029726196080446243, 1.0044209957122803, -0.07865288853645325, -0.04855918884277344, 1.491943359375, 1.8076171875, 1.0009613037109375, 1.494873046875
16969, 0.9004623293876648, 3.2278480529785156, -0.294327050447464, -0.08229436725378036, -0.015495534054934978, -1.2214336395263672, -0.3008074164390564, -0.050868816673755646, -0.1694655567407608, -0.1659267246723175, -1.0546947717666626, 0.06351104378700256, -1.2161727504040032, 0.9436747842959505, -0.41501756222608094, 9362.0, 30146.0, 35388.0, 9362.0, 7.8942155838012695, 0.5984379649162292, 0.303268700838089, -3.0269203186035156, 0.003329962957650423, 0.016443030908703804, 0.9861168265342712, -0.0805366113781929, 0.023120880126953125, 1.497802734375, 1.8076171875, 1.0009613037109375, 1.494873046875
16979, 0.9031847715377808, 3.229055881500244, -0.3312045931816101, -0.08532971143722534, -0.016011549159884453, -1.2231370210647583, -0.30626174807548523, -0.05233146250247955, -0.17121437191963196, -0.16595099866390228, -1.0546696186065674, 0.06359998136758804, -1.218732773808919, 0.9695360424083219, -0.4346942018728871, 9362.0, 30146.0, 35388.0, 9362.0, 7.8942155838012695, -0.2593577802181244, -0.5584130883216858, -3.6550133228302, 0.006239325273782015, 0.02891170047223568, 1.0210466384887695, -0.0805366113781929, 0.023120880126953125, 1.497802734375, 1.8076171875, 1.0009613037109375, 1.494873046875
16999, 0.8808497190475464, 3.239884853363037, -0.3811752498149872, -0.08532971143722534, -0.016011549159884453, -1.2231370210647583, -0.30626174807548523, -0.05233146250247955, -0.17121437191963196, -0.16597643494606018, -1.054646372795105, 0.06357934325933456, -1.2531260478385753, 0.9859128747908414, -0.4296677475528665, 9362.0, 30146.0, 35388.0, 9362.0, 7.8942155838012695, -2.524711847305298, -0.9037127494812012, -1.8962732553482056, 0.0033891366329044104, 0.026409612968564034, 1.0542112588882446, -0.08054078370332718, -0.1291980743408203, 1.4853515625, 1.8076171875, 1.0009613037109375, 1.494873046875
17029, 0.7695031762123108, 3.2582285404205322, -0.4153119921684265, -0.1013481393456459, -0.018819181248545647, -1.231489896774292, -0.33427903056144714, -0.05982371047139168, -0.16692474484443665, -0.1661148965358734, -1.0543957948684692, 0.06318540871143341, -1.3128787057023108, 1.0997207290032236, -0.6573433941395698, 9362.0, 30146.0, 35388.0, 9362.0, 7.8942155838012695, -4.027848243713379, -0.4718974232673645, -0.5146310925483704, 0.004385083448141813, -0.0021417734678834677, 0.9884480237960815, -0.04788314551115036, -0.2635974884033203, 1.474365234375, 1.8076171875, 1.0009613037109375, 1.494873046875
17049, 0.6717865467071533, 3.2699081897735596, -0.4057985842227936, -0.10814284533262253, -0.02004179172217846, -1.2348742485046387, -0.3452938497066498, -0.062421951442956924, -0.16979123651981354, -0.1660890281200409, -1.054394245147705, 0.06314420700073242, -1.3032818151025933, 1.0809589020634007, -0.667940504529615, 9362.0, 30146.0, 35388.0, 9362.0, 7.8942155838012695, -4.563088893890381, -0.6529321670532227, 0.6297453045845032, 0.004385083448141813, -0.0021417734678834677, 0.9884480237960815, -0.06667089462280273, -0.13815879821777344, 1.484619140625, 1.8076171875, 1.0009613037109375, 1.494873046875
17069, 0.5903841257095337, 3.2827789783477783, -0.3802236020565033, -0.10814284533262253, -0.02004179172217846, -1.2348742485046387, -0.3452938497066498, -0.062421951442956924, -0.16979123651981354, -0.16605740785598755, -1.0544668436050415, 0.06323385238647461, -1.2618677109475829, 1.047824824672432, -0.6525622377356166, 9362.0, 30146.0, 35388.0, 9362.0, 7.8942155838012695, -4.563088893890381, -0.6529321670532227, 0.6297453045845032, 0.01121973805129528, -0.031925518065690994, 0.9795509576797485, -0.0711916834115982, 0.04104042053222656, 1.499267578125, 1.8076171875, 1.0009613037109375, 1.494873046875
17079, 0.5619189739227295, 3.2826130390167236, -0.36252012848854065, -0.11875806003808975, -0.021967023611068726, -1.239898443222046, -0.36226600408554077, -0.0657992959022522, -0.16748301684856415, -0.1660493016242981, -1.0544686317443848, 0.06324068456888199, -1.254560630391979, 1.0471439933172064, -0.6522914491496523, 9362.0, 30146.0, 35388.0, 9362.0, 7.8942155838012695, -2.3525381088256836, 0.12587571144104004, 1.6396368741989136, 0.012481660582125187, -0.038798898458480835, 0.985105037689209, -0.0711916834115982, 0.04104042053222656, 1.499267578125, 1.8076171875, 1.0009613037109375, 1.494873046875
17119, 0.5577056407928467, 3.2605907917022705, -0.27317366003990173, -0.13369418680667877, -0.0246735829859972, -1.2466845512390137, -0.38467028737068176, -0.06948594003915787, -0.16933992505073547, -0.1659051775932312, -1.054620623588562, 0.06314527243375778, -1.1840232446674135, 1.0392615143089472, -0.5586788604868772, 9362.0, 30146.0, 35388.0, 9362.0, 7.8942155838012695, 1.9903947114944458, 0.799598753452301, 1.2535079717636108, 0.011469553224742413, -0.03377128764986992, 1.0108691453933716, -0.04963994771242142, -0.04855918884277344, 1.491943359375, 1.8076171875, 1.0009613037109375, 1.494873046875
17149, 0.6553057432174683, 3.234018564224243, -0.2588062286376953, -0.14548446238040924, -0.026799267157912254, -1.2517962455749512, -0.4013086259365082, -0.07227201759815216, -0.17177200317382812, -0.16588382422924042, -1.0546271800994873, 0.06318232417106628, -1.1562636267506445, 1.0372227590473528, -0.5404403031867897, 9362.0, 30146.0, 35388.0, 9362.0, 7.8942155838012695, 3.880762815475464, 0.7633492350578308, -0.833867609500885, 0.011469553224742413, -0.03377128764986992, 1.0108691453933716, -0.050573937594890594, -0.04855918884277344, 1.491943359375, 1.8076171875, 1.0009613037109375, 1.494873046875
17199, 0.8240923285484314, 3.1755471229553223, -0.30097338557243347, -0.16624265909194946, -0.030551938340067863, -1.260382890701294, -0.4288812577724457, -0.07808417826890945, -0.17266209423542023, -0.16599583625793457, -1.0544707775115967, 0.06312859803438187, -1.2384209324623896, 0.9834839781918561, -0.6167569950736909, 9362.0, 30146.0, 35388.0, 9362.0, 7.8942155838012695, 2.6980245113372803, 0.7559773921966553, -1.6966131925582886, -7.135367195587605e-05, 0.006757946684956551, 1.0054863691329956, -0.05809168145060539, 0.023120880126953125, 1.497802734375, 1.8076171875, 1.0009613037109375, 1.494873046875
17209, 0.8387840390205383, 3.1716036796569824, -0.3182835876941681, -0.16624265909194946, -0.030551938340067863, -1.260382890701294, -0.4288812577724457, -0.07808417826890945, -0.17266209423542023, -0.16589540243148804, -1.0544625520706177, 0.06296319514513016, -1.2882201354601888, 1.0819305136784862, -0.4889175060514921, 9362.0, 30146.0, 35388.0, 9362.0, 7.8942155838012695, 0.8954102993011475, 0.1010708212852478, -2.105921983718872, -7.135367195587605e-05, 0.006757946684956551, 1.0054863691329956, -0.06378204375505447, -0.10231781005859375, 1.487548828125, 1.8076171875, 1.0009613037109375, 1.494873046875
17219, 0.8433216214179993, 3.1702206134796143, -0.3397160768508911, -0.16624265909194946, -0.030551938340067863, -1.260382890701294, -0.4288812577724457, -0.07808417826890945, -0.17266209423542023, -0.16584911942481995, -1.054628849029541, 0.06342082470655441, -1.2349212056760688, 0.9589649800221025, -0.35969728361314063, 9362.0, 30146.0, 35388.0, 9362.0, 7.8942155838012695, 0.003571566427126527, -0.10514193773269653, -1.9456696510314941, -7.135367195587605e-05, 0.006757946684956551, 1.0054863691329956, -0.06511440128087997, 0.06792068481445312, 1.50146484375, 1.8076171875, 1.0009613037109375, 1.494873046875
17249, 0.7997740507125854, 3.187436580657959, -0.39023977518081665, -0.18836815655231476, -0.034628305584192276, -1.2690197229385376, -0.4560776650905609, -0.08501647412776947, -0.17355412244796753, -0.1659497171640396, -1.0545881986618042, 0.06345776468515396, -1.2690241214930549, 0.9521559490437426, -0.42255379938576226, 9362.0, 30146.0, 35388.0, 9362.0, 7.8942155838012695, -2.901205539703369, -1.0123542547225952, -0.8910845518112183, 0.002002996625378728, 0.003400614485144615, 1.0015230178833008, -0.06731114536523819, -0.01271820068359375, 1.494873046875, 1.8076171875, 1.0009613037109375, 1.494873046875
17269, 0.7365913391113281, 3.214364528656006, -0.402386337518692, -0.1975988745689392, -0.03635590896010399, -1.2724920511245728, -0.4670063853263855, -0.08772344887256622, -0.1736031025648117, -0.16595050692558289, -1.0545769929885864, 0.06344342976808548, -1.2694771339572948, 0.9578355613658971, -0.4216072496545813, 9362.0, 30146.0, 35388.0, 9362.0, 7.8942155838012695, -3.5040526390075684, -0.9862797856330872, -0.07805661857128143, 0.005714572034776211, -0.0006035450496710837, 1.0014406442642212, -0.07213038206100464, 0.023120880126953125, 1.497802734375, 1.8076171875, 1.0009613037109375, 1.494873046875
17279, 0.7029411792755127, 3.228125810623169, -0.4059527814388275, -0.1975988745689392, -0.03635590896010399, -1.2724920511245728, -0.4670063853263855, -0.08772344887256622, -0.1736031025648117, -0.16595682501792908, -1.054598093032837, 0.06344765424728394, -1.259473700870239, 0.9570078074143282, -0.42650498381602375, 9362.0, 30146.0, 35388.0, 9362.0, 7.8942155838012695, -3.180964231491089, -1.289028286933899, -0.07057103514671326, 0.006100598722696304, -0.011665597558021545, 0.9982438087463379, -0.07213038206100464, 0.023120880126953125, 1.497802734375, 1.8076171875, 1.0009613037109375, 1.494873046875
17289, 0.6697610020637512, 3.241318702697754, -0.4047167897224426, -0.1975988745689392, -0.03635590896010399, -1.2724920511245728, -0.4670063853263855, -0.08772344887256622, -0.1736031025648117, -0.16595442593097687, -1.054624080657959, 0.06343331933021545, -1.2444590904556905, 0.9406153625635909, -0.42624473561802123, 9362.0, 30146.0, 35388.0, 9362.0, 7.8942155838012695, -3.4290013313293457, -1.3415051698684692, 0.2075665444135666, 0.006100598722696304, -0.011665597558021545, 0.9982438087463379, -0.06827565282583237, -0.08439826965332031, 1.489013671875, 1.8076171875, 1.0009613037109375, 1.494873046875
17309, 0.6176694631576538, 3.264329195022583, -0.40424591302871704, -0.1975988745689392, -0.03635590896010399, -1.2724920511245728, -0.4670063853263855, -0.08772344887256622, -0.1736031025648117, -0.16595087945461273, -1.054673433303833, 0.06345254182815552, -1.211300705109803, 0.94649466229842, -0.4085964876341597, 9362.0, 30146.0, 35388.0, 9362.0, 7.8942155838012695, -1.9377245903015137, -0.9680123329162598, 0.22434595227241516, 0.011540866456925869, -0.02089460752904415, 1.0008478164672852, -0.06003347784280777, -0.15607833862304688, 1.483154296875, 1.74169921875, 0.78497314453125, 1.494873046875
17329, 0.5934850573539734, 3.277655601501465, -0.39319849014282227, -0.22661259770393372, -0.04183395579457283, -1.2829432487487793, -0.500251054763794, -0.094570592045784, -0.1746641844511032, -0.16587144136428833, -1.0547378063201904, 0.06341170519590378, -1.1659894200172016, 0.9649011827838194, -0.36378022377956953, 9362.0, 30146.0, 35388.0, 9362.0, 7.8942155838012695, -1.2008181810379028, -0.6739581823348999, 0.5402536988258362, 0.011847355403006077, -0.030618220567703247, 0.9970438480377197, -0.052844058722257614, 0.023120880126953125, 1.497802734375, 1.74169921875, 0.78497314453125, 1.494873046875
17349, 0.600885808467865, 3.2727012634277344, -0.3678610622882843, -0.2367294728755951, -0.04374505579471588, -1.2864452600479126, -0.5114408731460571, -0.09653440862894058, -0.17554596066474915, -0.1658979058265686, -1.054761290550232, 0.06339143216609955, -1.1470213798384363, 0.887329604721458, -0.4292423422663545, 9362.0, 30146.0, 35388.0, 9362.0, 7.8942155838012695, 1.2695732116699219, 0.731116771697998, 1.4770008325576782, 0.01063314825296402, -0.026069803163409233, 1.00010085105896, -0.06602451205253601, -0.08439826965332031, 1.489013671875, 1.74169921875, 0.78497314453125, 1.494873046875
17369, 0.6394165754318237, 3.257749557495117, -0.33840423822402954, -0.2367294728755951, -0.04374505579471588, -1.2864452600479126, -0.5114408731460571, -0.09653440862894058, -0.17554596066474915, -0.1659100502729416, -1.0547517538070679, 0.06346333026885986, -1.1550454205943026, 0.9022700081725361, -0.41749713522705784, 9362.0, 30146.0, 35388.0, 9362.0, 7.8942155838012695, 2.684905529022217, 1.0145926475524902, 1.2505279779434204, 0.009259553626179695, -0.025793561711907387, 1.0012035369873047, -0.06225217133760452, -0.14711761474609375, 1.48388671875, 1.74169921875, 0.78497314453125, 1.494873046875
17429, 0.7985240817070007, 3.2003872394561768, -0.3181512951850891, -0.2794325053691864, -0.05180209130048752, -1.300546407699585, -0.5559646487236023, -0.10533667355775833, -0.17685778439044952, -0.16591495275497437, -1.0545926094055176, 0.06338932365179062, -1.25577215035086, 0.9404879772665424, -0.4280816027969056, 9362.0, 30146.0, 35388.0, 9362.0, 7.8942155838012695, 1.2309677600860596, 0.25692132115364075, -0.135525643825531, 0.002288711490109563, -0.0011035758070647717, 1.001551628112793, -0.0618574395775795, -0.15607833862304688, 1.483154296875, 1.74169921875, 0.78497314453125, 1.494873046875
17439, 0.807759702205658, 3.1958563327789307, -0.3236616253852844, -0.2794325053691864, -0.05180209130048752, -1.300546407699585, -0.5559646487236023, -0.10533667355775833, -0.17685778439044952, -0.16592219471931458, -1.0545896291732788, 0.06339140981435776, -1.2594238955247625, 0.9550892353484528, -0.42583610909897096, 9362.0, 30146.0, 35388.0, 9362.0, 7.8942155838012695, 0.7813171744346619, 0.35717132687568665, -0.45437124371528625, 0.004712308757007122, 0.00801231898367405, 0.9996498823165894, -0.0618574395775795, -0.15607833862304688, 1.483154296875, 1.74169921875, 0.78497314453125, 1.494873046875
17449, 0.8128190636634827, 3.1945035457611084, -0.3262624442577362, -0.2794325053691864, -0.05180209130048752, -1.300546407699585, -0.5559646487236023, -0.10533667355775833, -0.17685778439044952, -0.1659436821937561, -1.0545718669891357, 0.06336095929145813, -1.2580435001725514, 0.9643577578267752, -0.43644424491252004, 9362.0, 30146.0, 35388.0, 9362.0, 7.8942155838012695, 0.058929603546857834, 0.12296518683433533, 0.19111716747283936, 0.004712308757007122, 0.00801231898367405, 0.9996498823165894, -0.07182389497756958, -0.13815879821777344, 1.484619140625, 1.74169921875, 0.78497314453125, 1.494873046875
17479, 0.7781534194946289, 3.2005550861358643, -0.33198294043540955, -0.30791589617729187, -0.057235416024923325, -1.3094124794006348, -0.583342969417572, -0.11204212158918381, -0.17799334228038788, -0.16596849262714386, -1.054571270942688, 0.0633402094244957, -1.2541395369185848, 0.9632051783516999, -0.4490266117918356, 9362.0, 30146.0, 35388.0, 9362.0, 7.8942155838012695, -1.9517500400543213, -0.8144754767417908, -0.44799110293388367, 0.0015097210416570306, -0.0006119847530499101, 0.9981898665428162, -0.06819804012775421, -0.08439826965332031, 1.489013671875, 1.74169921875, 0.78497314453125, 1.494873046875
17579, 0.6257322430610657, 3.2755465507507324, -0.3230609893798828, -0.3690064251422882, -0.06905168294906616, -1.3272855281829834, -0.6386789679527283, -0.12368284165859222, -0.17989113926887512, -0.16586308181285858, -1.0546996593475342, 0.06330956518650055, -1.1591706066420693, 0.9355065442542525, -0.4227030008571304, 9362.0, 30146.0, 35388.0, 9362.0, 7.8942155838012695, 0.6346638202667236, -0.8834945559501648, 0.03318537026643753, 0.0077207149006426334, -0.02720704674720764, 0.9985623955726624, -0.04888390377163887, 0.08584022521972656, 1.5029296875, 1.74169921875, 0.78497314453125, 1.494873046875
17599, 0.6548614501953125, 3.273425579071045, -0.31876641511917114, -0.38189202547073364, -0.07154595851898193, -1.3308887481689453, -0.6498884558677673, -0.12575072050094604, -0.18034043908119202, -0.16587887704372406, -1.054665446281433, 0.06334436684846878, -1.1792864719469438, 0.9626160043985976, -0.4115390790183011, 9362.0, 30146.0, 35388.0, 9362.0, 7.8942155838012695, 1.455942153930664, 0.38891661167144775, 0.13877859711647034, 0.01055457629263401, -0.018942926079034805, 1.0005173683166504, -0.04510769993066788, 0.08584022521972656, 1.5029296875, 1.74169921875, 0.78497314453125, 1.494873046875
17629, 0.7234460115432739, 3.25923228263855, -0.3123338520526886, -0.40164121985435486, -0.07536701112985611, -1.336305022239685, -0.6667174100875854, -0.12903031706809998, -0.18073670566082, -0.16587033867835999, -1.05463707447052, 0.06337358057498932, -1.2078397335677842, 0.9615638696633084, -0.40288542972858393, 9362.0, 30146.0, 35388.0, 9362.0, 7.8942155838012695, 2.5163631439208984, 0.82834792137146, 0.2567252218723297, 0.007848049513995647, -0.012335743755102158, 1.0005974769592285, -0.1339273303747177, -0.03959846496582031, 1.49267578125, 1.74169921875, 0.78497314453125, 1.494873046875
17639, 0.7455183863639832, 3.251908302307129, -0.31232669949531555, -0.40164121985435486, -0.07536701112985611, -1.336305022239685, -0.6667174100875854, -0.12903031706809998, -0.18073670566082, -0.16587777435779572, -1.0546261072158813, 0.0633549839258194, -1.2176434716455407, 0.9660169939926675, -0.4058989036527934, 9362.0, 30146.0, 35388.0, 9362.0, 7.8942155838012695, 2.0051748752593994, 0.8509316444396973, 0.11361613869667053, 0.007848049513995647, -0.012335743755102158, 1.0005974769592285, -0.1339273303747177, -0.03959846496582031, 1.49267578125, 1.74169921875, 0.78497314453125, 1.494873046875
17669, 0.7904501557350159, 3.2245659828186035, -0.31596362590789795, -0.4218941032886505, -0.07929141074419022, -1.3417357206344604, -0.6834568381309509, -0.13264894485473633, -0.18138495087623596, -0.16590380668640137, -1.0545604228973389, 0.06333111971616745, -1.2498064930193662, 0.9818642905351282, -0.40934279965592996, 9362.0, 30146.0, 35388.0, 9362.0, 7.8942155838012695, 0.6508340239524841, 0.47769102454185486, -0.7556995153427124, 0.0072212726809084415, -0.0045660873875021935, 1.00083589553833, -0.10937366634607315, -0.2187976837158203, 1.47802734375, 1.74169921875, 0.78497314453125, 1.494873046875
17679, 0.7951714396476746, 3.2184529304504395, -0.32160842418670654, -0.4218941032886505, -0.07929141074419022, -1.3417357206344604, -0.6834568381309509, -0.13264894485473633, -0.18138495087623596, -0.1658928096294403, -1.0545806884765625, 0.06335671991109848, -1.2443048697235097, 0.9868776116486231, -0.40028953972420367, 9362.0, 30146.0, 35388.0, 9362.0, 7.8942155838012695, -0.06606899946928024, 0.38776370882987976, -0.15605607628822327, 0.0072212726809084415, -0.0045660873875021935, 1.00083589553833, -0.10937366634607315, -0.2187976837158203, 1.47802734375, 1.74169921875, 0.78497314453125, 1.494873046875
17699, 0.7838398218154907, 3.2083728313446045, -0.33073970675468445, -0.44967594742774963, -0.08470132201910019, -1.3489978313446045, -0.7056102752685547, -0.1378902643918991, -0.1816285401582718, -0.16592413187026978, -1.0545605421066284, 0.06332746148109436, -1.2452345825063516, 0.9912025016782309, -0.4134753699750699, 9362.0, 30146.0, 35388.0, 9362.0, 7.8942155838012695, -1.1869418621063232, 0.44461774826049805, -0.5306009650230408, 0.0026224632747471333, -1.2973186130693648e-05, 0.9997655153274536, -0.09481152147054672, -0.20087814331054688, 1.4794921875, 1.74169921875, 0.78497314453125, 1.494873046875
17769, 0.6653687953948975, 3.236950397491455, -0.35534292459487915, -0.49300214648246765, -0.0932074636220932, -1.3599374294281006, -0.738619327545166, -0.14549610018730164, -0.18280886113643646, -0.1658952385187149, -1.054666519165039, 0.06331559270620346, -1.1908885404281604, 0.9768709309757924, -0.400701286639881, 9362.0, 30146.0, 35388.0, 9362.0, 7.8942155838012695, -1.7127091884613037, -0.4767366945743561, 0.31941086053848267, 0.004323073197156191, -0.00931441131979227, 1.000439167022705, -0.07584690302610397, 0.06792068481445312, 1.50146484375, 1.74169921875, 0.78497314453125, 1.494873046875
17779, 0.6545723676681519, 3.2458906173706055, -0.3534888029098511, -0.49300214648246765, -0.0932074636220932, -1.3599374294281006, -0.738619327545166, -0.14549610018730164, -0.18280886113643646, -0.16589821875095367, -1.0546789169311523, 0.06332555413246155, -1.1916672036514016, 0.9747806547555626, -0.4087636928636335, 9362.0, 30146.0, 35388.0, 9362.0, 7.8942155838012695, -0.8687293529510498, -1.1554616689682007, 0.18123379349708557, 0.009045750834047794, -0.018529195338487625, 0.9979716539382935, -0.07584690302610397, 0.06792068481445312, 1.50146484375, 1.74169921875, 0.78497314453125, 1.494873046875
17799, 0.6504369974136353, 3.2567296028137207, -0.3470916152000427, -0.5229894518852234, -0.0991181954741478, -1.3672637939453125, -0.7607735395431519, -0.14997747540473938, -0.18361271917819977, -0.16589173674583435, -1.0546817779541016, 0.06335000693798065, -1.181262963655554, 0.9749688286460696, -0.4133038752310298, 9362.0, 30146.0, 35388.0, 9362.0, 7.8942155838012695, -0.45517581701278687, -0.2623215317726135, 0.11063230037689209, 0.007645283360034227, -0.021083930507302284, 0.9995701909065247, -0.05871381238102913, -0.06647872924804688, 1.490478515625, 1.74169921875, 0.78497314453125, 1.494873046875
17869, 0.7404131889343262, 3.24224591255188, -0.3119082450866699, -0.5696402788162231, -0.10831315815448761, -1.3783082962036133, -0.7942549586296082, -0.15660564601421356, -0.1847495287656784, -0.16593611240386963, -1.0546847581863403, 0.06340781599283218, -1.2156097551980767, 0.9255466812375914, -0.41874766818039433, 9362.0, 30146.0, 35388.0, 9362.0, 7.8942155838012695, 1.5919694900512695, 0.8318048715591431, 0.16807623207569122, 0.006269924808293581, -0.007655164692550898, 1.0001890659332275, -0.06492096185684204, -0.06647872924804688, 1.490478515625, 1.74169921875, 0.78497314453125, 1.494873046875
17889, 0.7685573101043701, 3.227570056915283, -0.3125317096710205, -0.5937185287475586, -0.11306516081094742, -1.383859634399414, -0.810951292514801, -0.16023433208465576, -0.1852710098028183, -0.16592949628829956, -1.0546571016311646, 0.06340993195772171, -1.2288052387925046, 0.9264923944465693, -0.4251564358107828, 9362.0, 30146.0, 35388.0, 9362.0, 7.8942155838012695, 0.9727557301521301, 0.7728296518325806, -0.16007493436336517, 0.006269924808293581, -0.007655164692550898, 1.0001890659332275, -0.0792313888669014, -0.22775840759277344, 1.477294921875, 1.74169921875, 0.78497314453125, 1.494873046875
17899, 0.7762631177902222, 3.2225348949432373, -0.31632933020591736, -0.5937185287475586, -0.11306516081094742, -1.383859634399414, -0.810951292514801, -0.16023433208465576, -0.1852710098028183, -0.1659344881772995, -1.0546566247940063, 0.06340877711772919, -1.236011615050808, 0.9379884141816603, -0.4203896780937144, 9362.0, 30146.0, 35388.0, 9362.0, 7.8942155838012695, 0.6148313879966736, 0.5435954928398132, -0.6665152907371521, 0.006269924808293581, -0.007655164692550898, 1.0001890659332275, -0.08666390925645828, -0.021678924560546875, 1.494140625, 1.74169921875, 0.78497314453125, 1.494873046875
17909, 0.7780504822731018, 3.215780735015869, -0.31873148679733276, -0.5937185287475586, -0.11306516081094742, -1.383859634399414, -0.810951292514801, -0.16023433208465576, -0.1852710098028183, -0.16592824459075928, -1.0546578168869019, 0.06339997053146362, -1.2386718514906032, 0.9353695174032453, -0.4157778215717874, 9362.0, 30146.0, 35388.0, 9362.0, 7.8942155838012695, -0.06582897901535034, 0.8130587339401245, -0.24742735922336578, 0.003901161951944232, -0.0034150758292526007, 0.9988832473754883, -0.08666390925645828, -0.021678924560546875, 1.494140625, 1.74169921875, 0.78497314453125, 1.494873046875
17919, 0.7777148485183716, 3.212850332260132, -0.323042631149292, -0.5937185287475586, -0.11306516081094742, -1.383859634399414, -0.810951292514801, -0.16023433208465576, -0.1852710098028183, -0.16595155000686646, -1.0546491146087646, 0.06343115866184235, -1.2393279437135578, 0.9351525748423342, -0.4238184216836855, 9362.0, 30146.0, 35388.0, 9362.0, 7.8942155838012695, -0.24202203750610352, 0.19753435254096985, -0.5013110637664795, 0.005840742029249668, -0.00394045514985919, 0.9997251629829407, -0.08666390925645828, -0.021678924560546875, 1.494140625, 1.74169921875, 0.78497314453125, 1.494873046875
17929, 0.7723594903945923, 3.207892656326294, -0.3307570219039917, -0.5937185287475586, -0.11306516081094742, -1.383859634399414, -0.810951292514801, -0.16023433208465576, -0.1852710098028183, -0.1659722775220871, -1.0546239614486694, 0.06340549886226654, -1.2353393574438116, 0.9491530226664224, -0.432576647086149, 9362.0, 30146.0, 35388.0, 9362.0, 7.8942155838012695, -0.7813892960548401, 0.49620115756988525, -0.8493222594261169, 0.005840742029249668, -0.00394045514985919, 0.9997251629829407, -0.07824395596981049, 0.014162063598632812, 1.4970703125, 1.74169921875, 0.78497314453125, 1.494873046875
17939, 0.7637643814086914, 3.2066915035247803, -0.3394094705581665, -0.5937185287475586, -0.11306516081094742, -1.383859634399414, -0.810951292514801, -0.16023433208465576, -0.1852710098028183, -0.16594251990318298, -1.0546597242355347, 0.06339879333972931, -1.2357849671259624, 0.9457569840419922, -0.4220578770724417, 9362.0, 30146.0, 35388.0, 9362.0, 7.8942155838012695, -1.091530203819275, 0.14806213974952698, -0.8678386807441711, 0.005840742029249668, -0.00394045514985919, 0.9997251629829407, -0.06362743675708771, -0.2098369598388672, 1.478759765625, 1.74169921875, 0.78497314453125, 1.494873046875
17969, 0.7246701121330261, 3.2122247219085693, -0.35790136456489563, -0.5937185287475586, -0.11306516081094742, -1.383859634399414, -0.810951292514801, -0.16023433208465576, -0.1852710098028183, -0.16595496237277985, -1.0546786785125732, 0.06343145668506622, -1.2213632326899702, 0.9489442871021936, -0.41889332328673756, 9362.0, 30146.0, 35388.0, 9362.0, 7.8942155838012695, -1.4805023670196533, -0.4117080569267273, -0.49468839168548584, 0.0024182205088436604, -0.00569984270259738, 0.998369574546814, -0.07980281859636307, 0.023120880126953125, 1.497802734375, 1.74169921875, 0.78497314453125, 1.494873046875
17979, 0.7088924646377563, 3.2175536155700684, -0.3639236092567444, -0.5937185287475586, -0.11306516081094742, -1.383859634399414, -0.810951292514801, -0.16023433208465576, -0.1852710098028183, -0.16595137119293213, -1.0546927452087402, 0.06339766830205917, -1.2107536388336648, 0.9474595002625676, -0.42157104197712614, 9362.0, 30146.0, 35388.0, 9362.0, 7.8942155838012695, -1.282225489616394, -0.3254503011703491, -0.3431814908981323, 0.006644115317612886, -0.011032373644411564, 1.0001496076583862, -0.07980281859636307, 0.023120880126953125, 1.497802734375, 1.74169921875, 0.78497314453125, 1.494873046875
17999, 0.6850823163986206, 3.225980281829834, -0.3658178150653839, -0.5937185287475586, -0.11306516081094742, -1.383859634399414, -0.810951292514801, -0.16023433208465576, -0.1852710098028183, -0.1659388542175293, -1.0546941757202148, 0.06341568380594254, -1.2119360534620822, 0.9404223605786228, -0.4078813247799186, 9362.0, 30146.0, 35388.0, 9362.0, 7.8942155838012695, -1.282225489616394, -0.3254503011703491, -0.3431814908981323, 0.005616378039121628, -0.013624342158436775, 0.9988625645637512, -0.06210274249315262, -0.030637741088867188, 1.493408203125, 1.74169921875, 0.78497314453125, 1.494873046875
18009, 0.6760311126708984, 3.2305619716644287, -0.36611616611480713, -0.5937185287475586, -0.11306516081094742, -1.383859634399414, -0.810951292514801, -0.16023433208465576, -0.1852710098028183, -0.1659509688615799, -1.0547049045562744, 0.06342043727636337, -1.2053844121504316, 0.939224860784833, -0.4178106301379373, 9362.0, 30146.0, 35388.0, 9362.0, 7.8942155838012695, -0.6717345118522644, -0.21920005977153778, 0.4428434371948242, 0.005616378039121628, -0.013624342158436775, 0.9988625645637512, -0.06210274249315262, -0.030637741088867188, 1.493408203125, 1.74169921875, 0.78497314453125, 1.494873046875
18029, 0.670866072177887, 3.236948013305664, -0.3586275279521942, -0.5937185287475586, -0.11306516081094742, -1.383859634399414, -0.810951292514801, -0.16023433208465576, -0.1852710098028183, -0.1659492552280426, -1.0547288656234741, 0.06340858340263367, -1.1978773522993944, 0.9383246923921433, -0.4150219062310994, 9362.0, 30146.0, 35388.0, 9362.0, 7.8942155838012695, -0.23512236773967743, -0.392455130815506, 0.2737233340740204, 0.005616378039121628, -0.013624342158436775, 0.9988625645637512, -0.05919457972049713, -0.03959846496582031, 1.49267578125, 1.74169921875, 0.78497314453125, 1.494873046875
18079, 0.7165363430976868, 3.2395236492156982, -0.3305121064186096, -0.7395462989807129, -0.14211533963680267, -1.4156631231307983, -0.9047425389289856, -0.18086838722229004, -0.18894119560718536, -0.16592571139335632, -1.0547165870666504, 0.0633813887834549, -1.1814780247334162, 0.9101456284734013, -0.43414261165595003, 9362.0, 30146.0, 35388.0, 9362.0, 7.8942155838012695, 1.3196849822998047, 0.12693066895008087, 0.5060763359069824, 0.008138406090438366, -0.01779925264418125, 0.9993667602539062, -0.07333099842071533, -0.07543754577636719, 1.48974609375, 1.83837890625, 1.1214599609375, 1.494873046875
18089, 0.7302703261375427, 3.239649772644043, -0.32730013132095337, -0.7395462989807129, -0.14211533963680267, -1.4156631231307983, -0.9047425389289856, -0.18086838722229004, -0.18894119560718536, -0.1659373641014099, -1.0547161102294922, 0.06340549886226654, -1.1930146179564762, 0.9327082685777839, -0.42023877914330793, 9362.0, 30146.0, 35388.0, 9362.0, 7.8942155838012695, 1.353489637374878, 0.3683795928955078, 0.37922602891921997, 0.008138406090438366, -0.01779925264418125, 0.9993667602539062, -0.06707632541656494, 0.08584022521972656, 1.5029296875, 1.83837890625, 1.1214599609375, 1.494873046875
18099, 0.743442952632904, 3.235867500305176, -0.3248090445995331, -0.7395462989807129, -0.14211533963680267, -1.4156631231307983, -0.9047425389289856, -0.18086838722229004, -0.18894119560718536, -0.1659320443868637, -1.0546962022781372, 0.06338711082935333, -1.2046794445789621, 0.9285622988408306, -0.41794063639303514, 9362.0, 30146.0, 35388.0, 9362.0, 7.8942155838012695, 1.3343712091445923, 0.23560340702533722, -0.14816366136074066, 0.008138406090438366, -0.01779925264418125, 0.9993667602539062, -0.06507629156112671, 0.023120880126953125, 1.497802734375, 1.83837890625, 1.1214599609375, 1.494873046875
18109, 0.7554783225059509, 3.2308895587921143, -0.32339784502983093, -0.7395462989807129, -0.14211533963680267, -1.4156631231307983, -0.9047425389289856, -0.18086838722229004, -0.18894119560718536, -0.16592973470687866, -1.0546852350234985, 0.06340400874614716, -1.2088711174973108, 0.9267770207261492, -0.41471694881779003, 9362.0, 30146.0, 35388.0, 9362.0, 7.8942155838012695, 0.9542273879051208, 0.6146084666252136, -0.1098073422908783, 0.005363285541534424, -0.005998051259666681, 0.9990083575248718, -0.06507629156112671, 0.023120880126953125, 1.497802734375, 1.83837890625, 1.1214599609375, 1.494873046875
18169, 0.7650406360626221, 3.2090866565704346, -0.34089377522468567, -0.8232199549674988, -0.15887323021888733, -1.4327448606491089, -0.9546325206756592, -0.19180913269519806, -0.19026440382003784, -0.16594482958316803, -1.0546584129333496, 0.06344924867153168, -1.2324253607237998, 0.9532774338288164, -0.413064393338712, 9362.0, 30146.0, 35388.0, 9362.0, 7.8942155838012695, -0.8097434043884277, 0.14134423434734344, -0.6245325803756714, 0.0043559689074754715, -0.004734816960990429, 0.9979146718978882, -0.0671246126294136, 0.07688140869140625, 1.502197265625, 1.83837890625, 1.1214599609375, 1.494873046875
18179, 0.7554792761802673, 3.2074697017669678, -0.3463822901248932, -0.8232199549674988, -0.15887323021888733, -1.4327448606491089, -0.9546325206756592, -0.19180913269519806, -0.19026440382003784, -0.16596601903438568, -1.0546410083770752, 0.0633828192949295, -1.2320067156905985, 0.944169729865223, -0.4388977951097808, 9362.0, 30146.0, 35388.0, 9362.0, 7.8942155838012695, -0.9211356043815613, -0.28301188349723816, -0.5614906549453735, 0.0043559689074754715, -0.004734816960990429, 0.9979146718978882, -0.0671246126294136, 0.07688140869140625, 1.502197265625, 1.83837890625, 1.1214599609375, 1.494873046875
18189, 0.7444571256637573, 3.210740566253662, -0.3523285388946533, -0.8232199549674988, -0.15887323021888733, -1.4327448606491089, -0.9546325206756592, -0.19180913269519806, -0.19026440382003784, -0.1659666746854782, -1.0546332597732544, 0.06337740272283554, -1.233971929559112, 0.9482092571794567, -0.42839023425920497, 9362.0, 30146.0, 35388.0, 9362.0, 7.8942155838012695, -1.2063990831375122, -0.7136791348457336, -0.5469186305999756, 0.0043559689074754715, -0.004734816960990429, 0.9979146718978882, -0.06530161201953888, 0.014162063598632812, 1.4970703125, 1.83837890625, 1.1214599609375, 1.494873046875
18199, 0.7342230081558228, 3.213662624359131, -0.3576991856098175, -0.8232199549674988, -0.15887323021888733, -1.4327448606491089, -0.9546325206756592, -0.19180913269519806, -0.19026440382003784, -0.16594035923480988, -1.0546481609344482, 0.06338537484407425, -1.2324203032380827, 0.9415167093995933, -0.420257265358754, 9362.0, 30146.0, 35388.0, 9362.0, 7.8942155838012695, -1.1617451906204224, -0.030148202553391457, -0.5990479588508606, 0.0043559689074754715, -0.004734816960990429, 0.9979146718978882, -0.0776313990354538, 0.014162063598632812, 1.4970703125, 1.83837890625, 1.1214599609375, 1.494873046875
18209, 0.7237981557846069, 3.214684009552002, -0.36316820979118347, -0.8232199549674988, -0.15887323021888733, -1.4327448606491089, -0.9546325206756592, -0.19180913269519806, -0.19026440382003784, -0.1659439355134964, -1.0546520948410034, 0.0633959099650383, -1.2341447926716163, 0.9484870936454399, -0.4172267540020246, 9362.0, 30146.0, 35388.0, 9362.0, 7.8942155838012695, -0.8360504508018494, -0.06488422304391861, -0.40711510181427, 0.005417332518845797, -0.012082822620868683, 1.001438856124878, -0.0776313990354538, 0.014162063598632812, 1.4970703125, 1.83837890625, 1.1214599609375, 1.494873046875
