timeTick, roll, pitch, yaw, stateX, stateY, stateZ, stateVX, stateVY, stateVZ, otX0, otY0, otZ0, otRoll0, otPitch0, otYaw0, left wing, pitch motor, yaw motor, right wing, voltage, roll rate, pitch rate, yaw rate, A_x, A_y, A_z, current, i_raw, v_raw, airflow_voltage, airflow_speed, pot_Pitch
19181, 1.3327542543411255, 1.8425006866455078, 1.4017391204833984, 0, 0, 0, 0, 0, 0, -0.4930793344974518, -0.9993603229522705, 0.06580356508493423, 0.9630571442989875, -1.6585165005334375, -0.3180681452638273, 0, 0, 0, 0, 0, 0, 0, 0, 0, 0, 0, 0, 0, 0, 0, 0, 0
19191, 1.3330512046813965, 1.8406306505203247, 1.403397798538208, 0.00011475077189970762, 8.74503020895645e-05, -3.622532367706299, 0.00992673635482788, 0.0075648147612810135, -0.41242578625679016, -0.49305328726768494, -0.9993501305580139, 0.06580345332622528, 0.9671739035252687, -1.653629480451798, -0.31583410285448266, 9362.0, 30146.0, 35388.0, 9362.0, 8.390083312988281, -0.2782175838947296, -0.43267667293548584, -0.12889525294303894, -0.04342930018901825, 0.0284698698669672, 0.9997866153717041, -0.033976104110479355, 0.09480094909667969, 1.503662109375, 0.985107421875, 3.3311920166015625, 0
19201, 1.332769751548767, 1.843437910079956, 1.404704213142395, 0.00019853943376801908, 0.00015131068357732147, -3.626657247543335, 0.006831062026321888, 0.00520717166364193, -0.4125272035598755, -0.49303606152534485, -0.9993355870246887, 0.0658230260014534, 0.9589017375278527, -1.6690073300255222, -0.324504972439912, 9362.0, 30146.0, 35388.0, 9362.0, 8.390083312988281, -0.11212319880723953, 0.019493771716952324, 0.08524248749017715, -0.042884260416030884, 0.026425471529364586, 0.9977434873580933, -0.04539991542696953, -0.030637741088867188, 1.493408203125, 1.140380859375, 0.8274688720703125, 1.4912109375
19211, 1.3323884010314941, 1.8421849012374878, 1.4069030284881592, 0.0002513921936042607, 0.00019159541989210993, -3.6307830810546875, 0.0037395511753857136, 0.0028497062157839537, -0.4126569926738739, -0.4930713176727295, -0.9993509650230408, 0.06579942256212234, 0.9470595914887178, -1.6738174800233594, -0.3358442007123589, 9362.0, 30146.0, 35388.0, 9362.0, 8.390083312988281, -0.10003013908863068, 0.15726396441459656, 0.3202315866947174, -0.04867277294397354, 0.025232262909412384, 0.995934784412384, -0.039830923080444336, 0.014162063598632812, 1.4970703125, 1.878662109375, 1.3068695068359375, 1.49267578125
19221, 1.3312764167785645, 1.8397672176361084, 1.4099799394607544, 0.00027334020705893636, 0.0002083329891320318, -3.634911298751831, 0.000650133821181953, 0.0004976839991286397, -0.4130029082298279, -0.49303677678108215, -0.9993388652801514, 0.06584260612726212, 0.9541549014258717, -1.6674246725368391, -0.32116676198744365, 9362.0, 30146.0, 35388.0, 9362.0, 8.390083312988281, 0.021701600402593613, -0.24689345061779022, 0.2469889223575592, -0.04585587605834007, 0.02639423869550228, 0.9987494945526123, -0.048390477895736694, -0.05751800537109375, 1.4912109375, 1.821533203125, 1.0536346435546875, 1.493408203125
19231, 1.3316481113433838, 1.8417457342147827, 1.411675214767456, 0.000264417176367715, 0.00020156241953372955, -3.6390433311462402, -0.002434635069221258, -0.0018519687000662088, -0.41342493891716003, -0.49308326840400696, -0.9993727803230286, 0.06579961627721786, 0.9648898635657313, -1.6606121156818858, -0.32059600988917164, 9362.0, 30146.0, 35388.0, 9362.0, 8.390083312988281, 0.03930361196398735, -0.22759713232517242, 0.2003583461046219, -0.044137854129076004, 0.02754894644021988, 1.000219702720642, -0.05342014878988266, -0.030637741088867188, 1.493408203125, 1.755615234375, 0.8267822265625, 1.496337890625
19241, 1.3318126201629639, 1.8426624536514282, 1.4142515659332275, 0.0002246277581434697, 0.00017127426690421999, -3.6431784629821777, -0.005523171741515398, -0.00420575262978673, -0.4135955274105072, -0.4930797815322876, -0.9993560314178467, 0.06581974774599075, 0.9578659293161981, -1.6624899791512746, -0.33294343094858697, 9362.0, 30146.0, 35388.0, 9362.0, 8.390083312988281, -0.002323227236047387, 0.05662320554256439, 0.15112410485744476, -0.04550715908408165, 0.028430845588445663, 0.9981905221939087, -0.03572330251336098, -0.10231781005859375, 1.487548828125, 1.723388671875, 0.7321929931640625, 1.497802734375
19251, 1.3317155838012695, 1.8435051441192627, 1.4160373210906982, 0.00015392227214761078, 0.00011743338836822659, -3.6473147869110107, -0.00861781183630228, -0.006562563590705395, -0.41367605328559875, -0.493051141500473, -0.999325156211853, 0.06584598124027252, 0.9633661652330198, -1.6534884185302872, -0.32116756038363675, 9362.0, 30146.0, 35388.0, 9362.0, 8.390083312988281, -0.1297132968902588, -0.2657119333744049, 0.2743377387523651, -0.04525914788246155, 0.026811864227056503, 0.9985886812210083, -0.035941898822784424, 0.10376167297363281, 1.50439453125, 1.32421875, 0.024139404296875, 1.49560546875
19261, 1.330147624015808, 1.847090721130371, 1.4192100763320923, 5.228960799286142e-05, 4.0042243199422956e-05, -3.6514527797698975, -0.011708647944033146, -0.008915756829082966, -0.41392427682876587, -0.49308574199676514, -0.9993539452552795, 0.06583826243877411, 0.9714756058522392, -1.6594191587664966, -0.3222546502254361, 9362.0, 30146.0, 35388.0, 9362.0, 8.390083312988281, 0.18342351913452148, -0.19955003261566162, 0.399033784866333, -0.04746728762984276, 0.025980163365602493, 0.996891438961029, -0.036696285009384155, -0.05751800537109375, 1.4912109375, 1.231201171875, 0.2321319580078125, 1.496337890625
19271, 1.3309890031814575, 1.8454201221466064, 1.4216054677963257, -8.025444549275562e-05, -6.087775545893237e-05, -3.6555933952331543, -0.01480001863092184, -0.011268414556980133, -0.4141969084739685, -0.4930923283100128, -0.9993585348129272, 0.06581537425518036, 0.9698593151273499, -1.6664390073992195, -0.32357904742769855, 9362.0, 30146.0, 35388.0, 9362.0, 8.390083312988281, 0.033375829458236694, 0.01476374827325344, 0.5019930005073547, -0.046008072793483734, 0.024644233286380768, 0.9991820454597473, -0.039153750985860825, -0.030637741088867188, 1.493408203125, 1.614990234375, 0.4530181884765625, 1.494140625
19281, 1.3305857181549072, 1.8445274829864502, 1.4253312349319458, -0.00024373389896936715, -0.0001853060384746641, -3.6597371101379395, -0.017895786091685295, -0.013617369346320629, -0.4145236611366272, -0.4930631220340729, -0.999349057674408, 0.06582579016685486, 0.9708320040854105, -1.6710465608232994, -0.30922002429704604, 9362.0, 30146.0, 35388.0, 9362.0, 8.390083312988281, -0.07804903388023376, 0.07137186080217361, 0.20216210186481476, -0.04513458535075188, 0.024944834411144257, 0.9983119368553162, -0.04048176109790802, -0.10231781005859375, 1.487548828125, 0.8203125, 9.306427001953125, 1.5
19291, 1.3305903673171997, 1.8451436758041382, 1.426177740097046, -0.0004381764738354832, -0.00033324677497148514, -3.6638834476470947, -0.020992575213313103, -0.015970982611179352, -0.4147215485572815, -0.4929836392402649, -0.9993487000465393, 0.06571882963180542, 0.9702007586016203, -1.689512659183805, -0.3174724798765466, 9362.0, 30146.0, 35388.0, 9362.0, 8.390083312988281, -0.058406807482242584, 0.33837151527404785, 0.4117785096168518, -0.04495733231306076, 0.02604956179857254, 0.9982900619506836, -0.026488428935408592, 0.11272048950195312, 1.505126953125, 1.294921875, 0.0565948486328125, 1.493408203125
19301, 1.3304076194763184, 1.843560814857483, 1.4297645092010498, -0.0006635762401856482, -0.000504719209857285, -3.668031692504883, -0.024087335914373398, -0.01832355000078678, -0.414934903383255, -0.49300336837768555, -0.999351978302002, 0.06570751219987869, 0.9707902348033479, -1.7118586986097455, -0.3206350049107018, 9362.0, 30146.0, 35388.0, 9362.0, 8.390083312988281, -0.08599879592657089, -0.02469508722424507, 0.44200319051742554, -0.04537553712725639, 0.02669287659227848, 0.9984158277511597, -0.02052667923271656, 0.05896186828613281, 1.500732421875, 1.282470703125, 0.0786590576171875, 1.4912109375
19311, 1.3299983739852905, 1.8427753448486328, 1.4334497451782227, -0.0009199214400723577, -0.0006997121963649988, -3.672182321548462, -0.02718156948685646, -0.02067524567246437, -0.4151937961578369, -0.49304574728012085, -0.9993594288825989, 0.06571213901042938, 0.9576252012916865, -1.7442956234530698, -0.355857974092894, 9362.0, 30146.0, 35388.0, 9362.0, 8.390083312988281, 0.21309469640254974, -0.16731378436088562, 0.35763174295425415, -0.0444466769695282, 0.027112117037177086, 0.9965135455131531, -0.04367249831557274, -0.31735801696777344, 1.469970703125, 1.65087890625, 0.5408935546875, 1.493408203125
19321, 1.330449104309082, 1.8433116674423218, 1.4371522665023804, -0.0012071944074705243, -0.0009182209032587707, -3.676335573196411, -0.030272874981164932, -0.02302670106291771, -0.4154551327228546, -0.49298515915870667, -0.9993458986282349, 0.06570260226726532, 0.9401828925396084, -1.7572570078065723, -0.36862503589650786, 9362.0, 30146.0, 35388.0, 9362.0, 8.390083312988281, -0.017852894961833954, 0.2841305434703827, 0.7050986886024475, -0.04301735758781433, 0.02833990566432476, 0.9954782128334045, -0.03930223360657692, 0.10376167297363281, 1.50439453125, 1.475830078125, 0.1492767333984375, 1.494873046875
19331, 1.3314566612243652, 1.8419729471206665, 1.4433720111846924, -0.0015253491001203656, -0.0011602232698351145, -3.6804921627044678, -0.033357907086610794, -0.025373978540301323, -0.4158681035041809, -0.4930327534675598, -0.9993723630905151, 0.06575614959001541, 0.9093945541170511, -1.7381516558171768, -0.4065221176826397, 9362.0, 30146.0, 35388.0, 9362.0, 8.390083312988281, 0.0813707783818245, 0.09742261469364166, 0.8068560361862183, -0.044496119022369385, 0.027678562328219414, 0.9973107576370239, -0.04548867419362068, -0.08439826965332031, 1.489013671875, 1.698486328125, 0.6639404296875, 1.4912109375
19341, 1.3318856954574585, 1.8396518230438232, 1.4515873193740845, -0.0018743539694696665, -0.0014257003786042333, -3.6846530437469482, -0.036442797631025314, -0.02772177755832672, -0.41630586981773376, -0.49308890104293823, -0.999363362789154, 0.06577451527118683, 0.9097283365334128, -1.745025973418791, -0.38084249406006404, 9362.0, 30146.0, 35388.0, 9362.0, 8.390083312988281, 0.14066892862319946, 0.2241368144750595, 0.8680131435394287, -0.04604146629571915, 0.025561047717928886, 0.9965790510177612, -0.049171317368745804, -0.04855918884277344, 1.491943359375, 1.056884765625, 1.886077880859375, 1.49560546875
19351, 1.332661747932434, 1.837402105331421, 1.459903597831726, -0.002254209481179714, -0.0017146766185760498, -3.6888177394866943, -0.03952796757221222, -0.03007391467690468, -0.4166511297225952, -0.49303779006004333, -0.9992391467094421, 0.065651074051857, 0.9464145876637426, -1.7565290672655465, -0.2988701735027209, 9362.0, 30146.0, 35388.0, 9362.0, 8.390083312988281, 0.18549151718616486, 0.24174760282039642, 0.4864794611930847, -0.04369629919528961, 0.025919366627931595, 0.9969417452812195, -0.04437566176056862, 0.07688140869140625, 1.502197265625, 1.404052734375, 0.04400634765625, 1.493408203125
19361, 1.3334232568740845, 1.8322538137435913, 1.4686394929885864, -0.0026648868806660175, -0.0020271732937544584, -3.692986249923706, -0.04260716214776039, -0.03242586553096771, -0.41704851388931274, -0.49305975437164307, -0.9992324709892273, 0.06564158201217651, 0.9247702652201154, -1.731304724966236, -0.29794337868795134, 9362.0, 30146.0, 35388.0, 9362.0, 8.390083312988281, -0.004049281124025583, 0.4375799298286438, 1.0904088020324707, -0.04440418258309364, 0.0266122967004776, 0.9956709742546082, -0.0717325210571289, -0.11127853393554688, 1.48681640625, 1.004150390625, 2.8916473388671875, 1.48974609375
19371, 1.3338804244995117, 1.8248991966247559, 1.4813213348388672, -0.0031063396017998457, -0.002363201230764389, -3.6971585750579834, -0.04568304866552353, -0.03478020429611206, -0.41741690039634705, -0.4930891692638397, -0.9992402195930481, 0.06570830941200256, 0.955214532502919, -1.7012892414929013, -0.27589267378007326, 9362.0, 30146.0, 35388.0, 9362.0, 8.390083312988281, -0.23407086730003357, 0.4837842285633087, 1.2012948989868164, -0.045924413949251175, 0.025380292907357216, 0.9962900876998901, -0.072390116751194, -0.030637741088867188, 1.493408203125, 1.779052734375, 0.9015045166015625, 1.4912109375
19381, 1.3345290422439575, 1.82010018825531, 1.4936565160751343, -0.003578486619517207, -0.0027227660175412893, -3.7013351917266846, -0.04874592646956444, -0.03713344410061836, -0.41790318489074707, -0.493113249540329, -0.9992736577987671, 0.06570497900247574, 0.9640980027655613, -1.7100707203484546, -0.28035594418067505, 9362.0, 30146.0, 35388.0, 9362.0, 8.390083312988281, -0.1281002014875412, 0.5587362051010132, 0.8733287453651428, -0.04639836400747299, 0.02563348598778248, 0.9969271421432495, -0.0550294890999794, -0.01271820068359375, 1.494873046875, 1.78271484375, 0.9137115478515625, 1.49267578125
19391, 1.3328077793121338, 1.813294529914856, 1.5051358938217163, -0.0040812077932059765, -0.0031058769673109055, -3.7055163383483887, -0.05179780721664429, -0.03948941454291344, -0.41832223534584045, -0.4930218458175659, -0.9992790818214417, 0.06571780145168304, 0.9821704700098791, -1.6876749029589462, -0.23583629873747022, 9362.0, 30146.0, 35388.0, 9362.0, 8.390083312988281, -0.19190937280654907, 0.9070702791213989, 1.2708547115325928, -0.04569247364997864, 0.026574408635497093, 0.9984486699104309, -0.04197360575199127, 0.08584022521972656, 1.5029296875, 1.85302734375, 1.1847991943359375, 1.489013671875
19401, 1.332239031791687, 1.8060951232910156, 1.5142061710357666, -0.004614411853253841, -0.0035125615540891886, -3.7097012996673584, -0.054842591285705566, -0.04184810072183609, -0.4186905324459076, -0.4929978847503662, -0.9992750287055969, 0.06567775458097458, 0.9710055482602239, -1.7211030674430674, -0.24134308824289222, 9362.0, 30146.0, 35388.0, 9362.0, 8.390083312988281, -0.12622128427028656, 0.6870234608650208, 0.8229313492774963, -0.04729762300848961, 0.02653411030769348, 0.996401309967041, -0.03358939290046692, -0.11127853393554688, 1.48681640625, 1.81201171875, 1.017120361328125, 1.49267578125
19411, 1.3318108320236206, 1.7993764877319336, 1.5192227363586426, -0.005178020801395178, -0.003942832816392183, -3.7138895988464355, -0.05787886679172516, -0.04420667141675949, -0.41894906759262085, -0.49286964535713196, -0.9993670582771301, 0.06581036001443863, 0.9492210202858681, -1.7404823230179431, -0.3181599208191244, 9362.0, 30146.0, 35388.0, 9362.0, 8.390083312988281, -0.1160551980137825, 0.4519112706184387, 0.09795030951499939, -0.046905048191547394, 0.027077144011855125, 0.997174084186554, -0.03912540152668953, -0.10231781005859375, 1.487548828125, 0.8056640625, 10.06402587890625, 1.493408203125
19421, 1.3302193880081177, 1.793015956878662, 1.522247552871704, -0.005771904718130827, -0.004396666772663593, -3.71808123588562, -0.06089773774147034, -0.04656035453081131, -0.41936713457107544, -0.4929923713207245, -0.999415934085846, 0.06575816869735718, 0.9678092353165937, -1.8450698181476923, -0.2444586279016246, 9362.0, 30146.0, 35388.0, 9362.0, 8.390083312988281, -0.15605826675891876, 0.6826646327972412, 0.08541540056467056, -0.04747316986322403, 0.028688708320260048, 0.9987930655479431, -0.05316026136279106, -0.12023735046386719, 1.486083984375, 1.78857421875, 0.9334259033203125, 1.493408203125
19431, 1.3285081386566162, 1.7856587171554565, 1.518621563911438, -0.006395940203219652, -0.00487405015155673, -3.722276210784912, -0.06390924006700516, -0.04891645163297653, -0.4196482300758362, -0.4929487407207489, -0.9994107484817505, 0.06577888131141663, 0.9710941969947164, -1.810193942807274, -0.2943972615361084, 9362.0, 30146.0, 35388.0, 9362.0, 8.390083312988281, -0.19234739243984222, 0.5961332321166992, -0.6889664530754089, -0.0470653660595417, 0.026791205629706383, 0.9954909086227417, -0.05894462764263153, -0.05751800537109375, 1.4912109375, 0.999755859375, 2.9892425537109375, 1.49267578125
19441, 1.3278437852859497, 1.7816393375396729, 1.5115669965744019, -0.007050034590065479, -0.005374979227781296, -3.7264740467071533, -0.06690983474254608, -0.051269132643938065, -0.4199381172657013, -0.49295419454574585, -0.9994330406188965, 0.06577267497777939, 0.9694378089072861, -1.8128336892012271, -0.326292702553576, 9362.0, 30146.0, 35388.0, 9362.0, 8.390083312988281, -0.014914398081600666, 0.41191017627716064, -0.7778729796409607, -0.04510730877518654, 0.028038356453180313, 0.9987205862998962, -0.06207019463181496, 0.0052013397216796875, 1.496337890625, 1.80908203125, 1.0062255859375, 1.494873046875
19451, 1.3265186548233032, 1.776995062828064, 1.5026861429214478, -0.0077340491116046906, -0.0058993985876441, -3.73067569732666, -0.06989337503910065, -0.05361437425017357, -0.42038679122924805, -0.492954283952713, -0.9994423389434814, 0.06583339720964432, 0.9515928067143369, -1.8087966734690042, -0.3117957736741469, 9362.0, 30146.0, 35388.0, 9362.0, 8.390083312988281, 0.07371726632118225, 0.680274486541748, -0.9384347796440125, -0.046681977808475494, 0.026256369426846504, 0.9972649216651917, -0.05215992406010628, 0.13064002990722656, 1.506591796875, 1.714599609375, 0.7078094482421875, 1.493408203125
19461, 1.3252849578857422, 1.7741001844406128, 1.4935662746429443, -0.008447898551821709, -0.006447287742048502, -3.7348806858062744, -0.07287696748971939, -0.05596296861767769, -0.4206218421459198, -0.4930264949798584, -0.9994754791259766, 0.06583130359649658, 0.9514213646403221, -1.7957032128065862, -0.31880258784705595, 9362.0, 30146.0, 35388.0, 9362.0, 8.390083312988281, 0.0030884200241416693, 0.11178480833768845, -1.1499522924423218, -0.04759455472230911, 0.025527242571115494, 0.9991089701652527, -0.05518701300024986, -0.01271820068359375, 1.494873046875, 1.292724609375, 0.060089111328125, 1.49267578125
19471, 1.3251243829727173, 1.770749568939209, 1.484384536743164, -0.009191532619297504, -0.007018637377768755, -3.739088535308838, -0.07585030794143677, -0.05830645188689232, -0.4209465980529785, -0.49295151233673096, -0.9994668364524841, 0.06596104800701141, 0.9640131753455358, -1.7306398715736577, -0.3327956148389476, 9362.0, 30146.0, 35388.0, 9362.0, 8.390083312988281, -0.05951819568872452, 0.3098430931568146, -0.5951710939407349, -0.049536045640707016, 0.02564237266778946, 0.998980700969696, -0.051265642046928406, -0.1291980743408203, 1.4853515625, 0.97412109375, 3.60498046875, 1.496337890625
19481, 1.3247309923171997, 1.7713581323623657, 1.4751662015914917, -0.009964902885258198, -0.007613427937030792, -3.7432987689971924, -0.07882418483495712, -0.06065119430422783, -0.42110562324523926, -0.4930478036403656, -0.9994829297065735, 0.06592965871095657, 0.9685250067399825, -1.708482843110204, -0.32735750531479574, 9362.0, 30146.0, 35388.0, 9362.0, 8.390083312988281, -0.05951819568872452, 0.3098430931568146, -0.5951710939407349, -0.04925265908241272, 0.02696509100496769, 1.0006556510925293, -0.05091780796647072, 0.05000114440917969, 1.5, 0.97412109375, 3.60498046875, 1.493408203125
19501, 1.323991060256958, 1.776674747467041, 1.4593254327774048, -0.009964902885258198, -0.007613427937030792, -3.7432987689971924, -0.07882418483495712, -0.06065119430422783, -0.42110562324523926, -0.49304911494255066, -0.9994643330574036, 0.0659504309296608, 0.957202419390084, -1.678154059286868, -0.33134681168726937, 9362.0, 30146.0, 35388.0, 9362.0, 8.390083312988281, 0.15295089781284332, -0.3149082362651825, -0.8585261106491089, -0.04891687259078026, 0.02559925988316536, 0.9988431334495544, -0.049621112644672394, -0.0037593841552734375, 1.49560546875, 1.544677734375, 0.2900543212890625, 1.493408203125
19511, 1.3264106512069702, 1.7812124490737915, 1.4524033069610596, -0.009964902885258198, -0.007613427937030792, -3.7432987689971924, -0.07882418483495712, -0.06065119430422783, -0.42110562324523926, -0.4930562674999237, -0.9994663000106812, 0.06596222519874573, 0.9523454093254418, -1.6776790960612686, -0.32430081207394995, 9362.0, 30146.0, 35388.0, 9362.0, 8.390083312988281, 0.3625183403491974, -0.5869768857955933, -0.4017055928707123, -0.048487529158592224, 0.026583179831504822, 0.9964336156845093, -0.049621112644672394, -0.0037593841552734375, 1.49560546875, 1.544677734375, 0.2900543212890625, 1.493408203125
19531, 1.331534743309021, 1.7922254800796509, 1.452710509300232, -0.009964902885258198, -0.007613427937030792, -3.7432987689971924, -0.07882418483495712, -0.06065119430422783, -0.42110562324523926, -0.49302393198013306, -0.9994317889213562, 0.06598576158285141, 0.9440192789740912, -1.6697898035116339, -0.3244443693605639, 9362.0, 30146.0, 35388.0, 9362.0, 8.390083312988281, 0.3625183403491974, -0.5869768857955933, -0.4017055928707123, -0.046193648129701614, 0.025826215744018555, 0.9994391202926636, -0.05125787481665611, 0.1933612823486328, 1.51171875, 1.544677734375, 0.2900543212890625, 1.493408203125
19541, 1.3346080780029297, 1.7953953742980957, 1.4569156169891357, -0.009964902885258198, -0.007613427937030792, -3.7432987689971924, -0.07882418483495712, -0.06065119430422783, -0.42110562324523926, -0.49302375316619873, -0.999435544013977, 0.06598919630050659, 0.955586410316503, -1.6748370419893206, -0.3094080536918688, 9362.0, 30146.0, 35388.0, 9362.0, 8.390083312988281, 0.35949164628982544, 0.15300990641117096, 0.3472464382648468, -0.04542781412601471, 0.025544991716742516, 1.0018683671951294, -0.05125787481665611, 0.1933612823486328, 1.51171875, 1.544677734375, 0.2900543212890625, 1.493408203125
19591, 1.3395520448684692, 1.7915973663330078, 1.4791532754898071, -0.020439645275473595, -0.01570424623787403, -3.78975510597229, -0.11172448843717575, -0.0865083858370781, -0.4239961802959442, -0.49295270442962646, -0.9993442296981812, 0.06584008783102036, 0.9362790185070511, -1.77179812183536, -0.27561203826514286, 9362.0, 30146.0, 35388.0, 9362.0, 8.390083312988281, 0.03346770629286766, 0.14502505958080292, 0.5135487914085388, -0.03923853114247322, 0.02938767708837986, 0.9995574355125427, -0.03916078433394432, 0.09480094909667969, 1.503662109375, 0.83056640625, 8.801162719726562, 1.493408203125
19601, 1.3374911546707153, 1.7812374830245972, 1.4819867610931396, -0.020439645275473595, -0.01570424623787403, -3.78975510597229, -0.11172448843717575, -0.0865083858370781, -0.4239961802959442, -0.49293389916419983, -0.999352216720581, 0.06579995900392532, 0.9306356880755461, -1.791430912244465, -0.27419936340003426, 9362.0, 30146.0, 35388.0, 9362.0, 8.390083312988281, 0.03346770629286766, 0.14502505958080292, 0.5135487914085388, -0.04126787185668945, 0.029334934428334236, 1.0009119510650635, -0.054640840739011765, -0.030637741088867188, 1.493408203125, 0.83056640625, 8.801162719726562, 1.493408203125
19611, 1.335436224937439, 1.7693816423416138, 1.4823036193847656, -0.020439645275473595, -0.01570424623787403, -3.78975510597229, -0.11172448843717575, -0.0865083858370781, -0.4239961802959442, -0.4929378628730774, -0.9993442296981812, 0.06579066812992096, 0.9337013093327997, -1.7959328068282616, -0.27031479764990973, 9362.0, 30146.0, 35388.0, 9362.0, 8.390083312988281, -0.45317143201828003, 0.9666500091552734, -0.5182139277458191, -0.045987993478775024, 0.02790786698460579, 0.9987671971321106, -0.054640840739011765, -0.030637741088867188, 1.493408203125, 0.83056640625, 8.801162719726562, 1.493408203125
19621, 1.3324207067489624, 1.7584775686264038, 1.476949691772461, -0.020439645275473595, -0.01570424623787403, -3.78975510597229, -0.11172448843717575, -0.0865083858370781, -0.4239961802959442, -0.4928991496562958, -0.9993289709091187, 0.06580870598554611, 0.9220444772382841, -1.815909252086243, -0.2758127087980489, 9362.0, 30146.0, 35388.0, 9362.0, 8.390083312988281, -0.45317143201828003, 0.9666500091552734, -0.5182139277458191, -0.045492734760046005, 0.028248924762010574, 0.9962131977081299, -0.05972464382648468, -0.01271820068359375, 1.494873046875, 0.83056640625, 8.801162719726562, 1.493408203125
19641, 1.323768973350525, 1.730819821357727, 1.4539625644683838, -0.02640029788017273, -0.020325643941760063, -3.8109781742095947, -0.12662944197654724, -0.09832591563463211, -0.4251100420951843, -0.49281802773475647, -0.9993131160736084, 0.0657862052321434, 0.9470994385377088, -1.791303289943329, -0.22264386625727664, 9362.0, 30146.0, 35388.0, 9362.0, 8.390083312988281, -0.45317143201828003, 0.9666500091552734, -0.5182139277458191, -0.05085115134716034, 0.026796936988830566, 0.9984201788902283, -0.05972464382648468, -0.01271820068359375, 1.494873046875, 1.0107421875, 2.7494049072265625, 1.493408203125
19671, 1.3157093524932861, 1.6977458000183105, 1.378561019897461, -0.027681205421686172, -0.021320628002285957, -3.81523060798645, -0.1295527070760727, -0.10067015141248703, -0.42538994550704956, -0.49288785457611084, -0.9992978572845459, 0.0656663253903389, 0.9567891761595132, -1.7523849280198078, -0.2956255302703839, 9362.0, 30146.0, 35388.0, 9362.0, 8.390083312988281, -0.09895804524421692, 1.0756425857543945, -3.0109498500823975, -0.050726890563964844, 0.026305045932531357, 0.9988393187522888, -0.048237401992082596, -0.10231781005859375, 1.487548828125, 1.244384765625, 0.18212890625, 1.493408203125
19681, 1.3152152299880981, 1.6895852088928223, 1.3467551469802856, -0.027681205421686172, -0.021320628002285957, -3.81523060798645, -0.1295527070760727, -0.10067015141248703, -0.42538994550704956, -0.4929063320159912, -0.9993160963058472, 0.06568197160959244, 0.9712172425067958, -1.7425362453017499, -0.3012942334429345, 9362.0, 30146.0, 35388.0, 9362.0, 8.390083312988281, -0.09895804524421692, 1.0756425857543945, -3.0109498500823975, -0.05462387949228287, 0.02477433905005455, 0.995510995388031, -0.04408052936196327, -0.2187976837158203, 1.47802734375, 1.244384765625, 0.18212890625, 1.493408203125
19691, 1.3144633769989014, 1.684025764465332, 1.3174583911895752, -0.027681205421686172, -0.021320628002285957, -3.81523060798645, -0.1295527070760727, -0.10067015141248703, -0.42538994550704956, -0.49295708537101746, -0.999346911907196, 0.06565602123737335, 0.9695266355482404, -1.7425179722125677, -0.3139883917609609, 9362.0, 30146.0, 35388.0, 9362.0, 8.390083312988281, -0.09895804524421692, 1.0756425857543945, -3.0109498500823975, -0.055109161883592606, 0.023718828335404396, 0.995972216129303, -0.028073366731405258, 0.21128082275390625, 1.51318359375, 1.244384765625, 0.18212890625, 1.493408203125
19701, 1.3152427673339844, 1.6844549179077148, 1.2945607900619507, -0.027681205421686172, -0.021320628002285957, -3.81523060798645, -0.1295527070760727, -0.10067015141248703, -0.42538994550704956, -0.4929385185241699, -0.9993521571159363, 0.06567733734846115, 0.9885251493426344, -1.7110882633211872, -0.3053693949225133, 9362.0, 30146.0, 35388.0, 9362.0, 8.390083312988281, -0.09895804524421692, 1.0756425857543945, -3.0109498500823975, -0.05634412169456482, 0.025562215596437454, 0.9990293979644775, -0.03727780282497406, -0.1739978790283203, 1.481689453125, 1.244384765625, 0.18212890625, 1.493408203125
19711, 1.317525863647461, 1.6859139204025269, 1.2792167663574219, -0.027681205421686172, -0.021320628002285957, -3.81523060798645, -0.1295527070760727, -0.10067015141248703, -0.42538994550704956, -0.4929533898830414, -0.99934983253479, 0.0656718835234642, 0.9896289620205615, -1.7061502865135196, -0.3094865862329416, 9362.0, 30146.0, 35388.0, 9362.0, 8.390083312988281, -0.09895804524421692, 1.0756425857543945, -3.0109498500823975, -0.05610205978155136, 0.024293003603816032, 1.001111388206482, -0.04800277575850487, -0.04855918884277344, 1.491943359375, 1.244384765625, 0.18212890625, 1.493408203125
19721, 1.3225202560424805, 1.6915208101272583, 1.2739527225494385, -0.03745255991816521, -0.02893715538084507, -3.845060348510742, -0.1495240032672882, -0.11690597236156464, -0.4271087944507599, -0.49295419454574585, -0.9993354082107544, 0.06570001691579819, 0.9874095779968176, -1.7025909238349755, -0.3093558843228998, 9362.0, 30146.0, 35388.0, 9362.0, 8.390083312988281, 0.31889188289642334, -1.2262098789215088, -0.07498291879892349, -0.05610205978155136, 0.024293003603816032, 1.001111388206482, -0.05282691493630409, 0.12168121337890625, 1.505859375, 1.244384765625, 0.18212890625, 1.493408203125
19731, 1.3266979455947876, 1.7029157876968384, 1.2751010656356812, -0.03745255991816521, -0.02893715538084507, -3.845060348510742, -0.1495240032672882, -0.11690597236156464, -0.4271087944507599, -0.492963582277298, -0.999320924282074, 0.06563955545425415, 1.0049273214884031, -1.6678836082035389, -0.3171191419900481, 9362.0, 30146.0, 35388.0, 9362.0, 8.390083312988281, 0.31889188289642334, -1.2262098789215088, -0.07498291879892349, -0.05611392855644226, 0.023929426446557045, 0.9984505772590637, -0.05282691493630409, 0.12168121337890625, 1.505859375, 1.244384765625, 0.18212890625, 1.493408203125
19741, 1.3320199251174927, 1.7181010246276855, 1.2888044118881226, -0.040499813854694366, -0.03132173418998718, -3.853602647781372, -0.15520437061786652, -0.12155487388372421, -0.4271783232688904, -0.4929361939430237, -0.9993010759353638, 0.06565003842115402, 1.0033771912432006, -1.6243962342558405, -0.3356401477830001, 9362.0, 30146.0, 35388.0, 9362.0, 8.390083312988281, 0.31889188289642334, -1.2262098789215088, -0.07498291879892349, -0.05447377264499664, 0.024682331830263138, 0.9992738366127014, -0.059745557606220245, -0.2904777526855469, 1.47216796875, 1.244384765625, 0.18212890625, 1.493408203125
19761, 1.3426207304000854, 1.759395956993103, 1.3319110870361328, -0.043661218136548996, -0.03379954770207405, -3.862149953842163, -0.1609480082988739, -0.12623277306556702, -0.42754313349723816, -0.49294859170913696, -0.9992915391921997, 0.06565286964178085, 0.9966769938432034, -1.6204834224679416, -0.33285870906299636, 9362.0, 30146.0, 35388.0, 9362.0, 8.390083312988281, 0.6737135648727417, -2.064746379852295, 3.092264175415039, -0.054803140461444855, 0.026488246396183968, 0.9978727102279663, -0.06190281733870506, 0.11272048950195312, 1.505126953125, 1.08544921875, 1.4573974609375, 1.493408203125
19781, 1.3500487804412842, 1.8029800653457642, 1.3925811052322388, -0.04693865403532982, -0.03637132793664932, -3.870706081390381, -0.1668129414319992, -0.13095292448997498, -0.42804476618766785, -0.4929368197917938, -0.999267041683197, 0.06564474105834961, 0.9863767266962068, -1.6296006740936377, -0.32654886957565427, 9362.0, 30146.0, 35388.0, 9362.0, 8.390083312988281, 0.6193761825561523, -1.979926347732544, 3.1193556785583496, -0.04211684688925743, 0.029592031612992287, 0.9976081252098083, -0.06190281733870506, 0.11272048950195312, 1.505126953125, 0.78369140625, 11.282455444335938, 1.493408203125
19831, 1.3448647260665894, 1.8643954992294312, 1.5289733409881592, -0.05385240912437439, -0.0417998731136322, -3.887852430343628, -0.1789487898349762, -0.14048847556114197, -0.4294371008872986, -0.49290335178375244, -0.9992734789848328, 0.06569245457649231, 0.9171045109273552, -1.6869682774062085, -0.339394001092178, 9362.0, 30146.0, 35388.0, 9362.0, 8.390083312988281, -0.3044690191745758, -1.3254637718200684, 2.5221095085144043, -0.032492745667696, 0.030595844611525536, 0.9979716539382935, -0.06196627393364906, -0.030637741088867188, 1.493408203125, 0.796875, 10.53936767578125, 1.493408203125
19841, 1.3380310535430908, 1.859303593635559, 1.5467615127563477, -0.05385240912437439, -0.0417998731136322, -3.887852430343628, -0.1789487898349762, -0.14048847556114197, -0.4294371008872986, -0.4929350018501282, -0.9992913603782654, 0.06568732857704163, 0.9229461833281106, -1.7155677204470408, -0.3043227964398615, 9362.0, 30146.0, 35388.0, 9362.0, 8.390083312988281, -0.7241765260696411, 0.918933093547821, 0.9944654703140259, -0.03426474332809448, 0.028712855651974678, 0.997382402420044, -0.06196627393364906, -0.030637741088867188, 1.493408203125, 0.796875, 10.53936767578125, 1.493408203125
19871, 1.3129069805145264, 1.8151427507400513, 1.5587323904037476, -0.06318865716457367, -0.04912271723151207, -3.9093616008758545, -0.19449009001255035, -0.15238484740257263, -0.43100500106811523, -0.49290135502815247, -0.9992960691452026, 0.06567291915416718, 0.9323777940455907, -1.7335567341363571, -0.3032227190775336, 9362.0, 30146.0, 35388.0, 9362.0, 8.390083312988281, -1.0115044116973877, 2.0219473838806152, -0.8952211737632751, -0.03992686793208122, 0.026811683550477028, 0.9977884292602539, -0.07027073204517365, 0.023120880126953125, 1.497802734375, 1.433349609375, 0.0797576904296875, 1.493408203125
19901, 1.289468765258789, 1.7545640468597412, 1.5198453664779663, -0.06713979691267014, -0.05221725255250931, -3.917985200881958, -0.2006106674671173, -0.1570623815059662, -0.4312397539615631, -0.4929015338420868, -0.9993094801902771, 0.06570404022932053, 0.9459620629014288, -1.7273685922739617, -0.30499219461111016, 9362.0, 30146.0, 35388.0, 9362.0, 8.390083312988281, -0.7319949865341187, 2.0096075534820557, -1.7782080173492432, -0.04968643561005592, 0.019821619614958763, 0.9979300498962402, -0.07027073204517365, 0.023120880126953125, 1.497802734375, 1.393798828125, 0.0344085693359375, 1.493408203125
19911, 1.285068154335022, 1.7403978109359741, 1.501932978630066, -0.06713979691267014, -0.05221725255250931, -3.917985200881958, -0.2006106674671173, -0.1570623815059662, -0.4312397539615631, -0.49291256070137024, -0.9993276000022888, 0.06569037586450577, 0.9548209187260688, -1.726065031541225, -0.31230362377402604, 9362.0, 30146.0, 35388.0, 9362.0, 8.390083312988281, -0.7319949865341187, 2.0096075534820557, -1.7782080173492432, -0.05352785065770149, 0.021614903584122658, 0.998513400554657, -0.06377025693655014, -0.05751800537109375, 1.4912109375, 1.393798828125, 0.0344085693359375, 1.493408203125
19921, 1.2836976051330566, 1.7282122373580933, 1.483224868774414, -0.06713979691267014, -0.05221725255250931, -3.917985200881958, -0.2006106674671173, -0.1570623815059662, -0.4312397539615631, -0.49291133880615234, -0.9993407130241394, 0.06568238884210587, 0.9650270923072636, -1.7176811290416367, -0.3077507729391927, 9362.0, 30146.0, 35388.0, 9362.0, 8.390083312988281, -0.7319949865341187, 2.0096075534820557, -1.7782080173492432, -0.05640323460102081, 0.021632950752973557, 0.9992229342460632, -0.06803786754608154, -0.11127853393554688, 1.48681640625, 1.393798828125, 0.0344085693359375, 1.493408203125
19961, 1.3023370504379272, 1.7236897945404053, 1.424452304840088, -0.07970955222845078, -0.06205364689230919, -3.9438869953155518, -0.21823137998580933, -0.17076663672924042, -0.43221428990364075, -0.49295926094055176, -0.9993770122528076, 0.06570470333099365, 0.997037581113059, -1.6881362721594257, -0.3115733239546291, 9362.0, 30146.0, 35388.0, 9362.0, 8.390083312988281, 0.7170823216438293, -0.7712017893791199, -0.6454023718833923, -0.05616692453622818, 0.023228321224451065, 0.9989237785339355, -0.05242897942662239, -0.03959846496582031, 1.49267578125, 0.84228515625, 8.248245239257812, 1.494873046875
19971, 1.3104115724563599, 1.7327089309692383, 1.417424201965332, -0.07970955222845078, -0.06205364689230919, -3.9438869953155518, -0.21823137998580933, -0.17076663672924042, -0.43221428990364075, -0.49296367168426514, -0.9993770122528076, 0.06571833789348602, 0.9977556061465482, -1.677394042506478, -0.31011711815152343, 9362.0, 30146.0, 35388.0, 9362.0, 8.390083312988281, 0.7170823216438293, -0.7712017893791199, -0.6454023718833923, -0.05363553762435913, 0.025952797383069992, 0.9966078400611877, -0.051088109612464905, 0.03208160400390625, 1.49853515625, 0.84228515625, 8.248245239257812, 1.494873046875
19981, 1.3214812278747559, 1.7417831420898438, 1.4123828411102295, -0.07970955222845078, -0.06205364689230919, -3.9438869953155518, -0.21823137998580933, -0.17076663672924042, -0.43221428990364075, -0.49296239018440247, -0.9993638396263123, 0.06572288274765015, 0.9888051391504525, -1.6799960874840565, -0.3252075836448615, 9362.0, 30146.0, 35388.0, 9362.0, 8.390083312988281, 1.0211291313171387, -1.4150711297988892, -0.11715080589056015, -0.051472242921590805, 0.02580476924777031, 0.9991564154624939, -0.051088109612464905, 0.03208160400390625, 1.49853515625, 0.84228515625, 8.248245239257812, 1.494873046875
20001, 1.341435432434082, 1.7682143449783325, 1.412115216255188, -0.09098170697689056, -0.07087817043066025, -3.9655230045318604, -0.23269937932491302, -0.18226785957813263, -0.4333231449127197, -0.4929453730583191, -0.9993043541908264, 0.06566012650728226, 0.9665628664469941, -1.6805405936826787, -0.31641649903702335, 9362.0, 30146.0, 35388.0, 9362.0, 8.390083312988281, 1.004699468612671, -1.4514071941375732, 0.7241615056991577, -0.0504501610994339, 0.027131713926792145, 1.0003273487091064, -0.051088109612464905, 0.03208160400390625, 1.49853515625, 1.283935546875, 0.075897216796875, 1.494873046875
20011, 1.3509116172790527, 1.7821135520935059, 1.4195853471755981, -0.09098170697689056, -0.07087817043066025, -3.9655230045318604, -0.23269937932491302, -0.18226785957813263, -0.4333231449127197, -0.4929483234882355, -0.9993005394935608, 0.06565087288618088, 0.9616187780837778, -1.6882847308047246, -0.3198178086151736, 9362.0, 30146.0, 35388.0, 9362.0, 8.390083312988281, 0.9428673386573792, -1.2699247598648071, 0.9160454273223877, -0.04500410705804825, 0.030170660465955734, 0.9977285861968994, -0.051088109612464905, 0.03208160400390625, 1.49853515625, 1.283935546875, 0.075897216796875, 1.494873046875
20021, 1.359666109085083, 1.7963511943817139, 1.4276255369186401, -0.09098170697689056, -0.07087817043066025, -3.9655230045318604, -0.23269937932491302, -0.18226785957813263, -0.4333231449127197, -0.4929971992969513, -0.9993265867233276, 0.06561613082885742, 0.9410033246690757, -1.71499803140901, -0.3059078658067445, 9362.0, 30146.0, 35388.0, 9362.0, 8.390083312988281, 0.9428673386573792, -1.2699247598648071, 0.9160454273223877, -0.04287400841712952, 0.031000642105937004, 0.9976954460144043, -0.047380231320858, 0.08584022521972656, 1.5029296875, 1.283935546875, 0.075897216796875, 1.494873046875
20051, 1.3643401861190796, 1.829068660736084, 1.4674781560897827, -0.102988101541996, -0.08028799295425415, -3.987210512161255, -0.24763834476470947, -0.19418081641197205, -0.4344239830970764, -0.49291571974754333, -0.9992616176605225, 0.06561041623353958, 0.9233238493771988, -1.7010739158229171, -0.330626552339982, 9362.0, 30146.0, 35388.0, 9362.0, 8.390083312988281, -0.06967820972204208, -0.7516273856163025, 1.239872694015503, -0.04057292267680168, 0.03181760013103485, 0.9980576634407043, -0.04075925052165985, 0.25608062744140625, 1.516845703125, 0.860595703125, 7.434844970703125, 1.494873046875
20071, 1.3535828590393066, 1.8362454175949097, 1.4891304969787598, -0.102988101541996, -0.08028799295425415, -3.987210512161255, -0.24763834476470947, -0.19418081641197205, -0.4344239830970764, -0.492899090051651, -0.9992459416389465, 0.06560526043176651, 0.9105501034986337, -1.7141234467177924, -0.3333987586716903, 9362.0, 30146.0, 35388.0, 9362.0, 8.390083312988281, -0.6833224892616272, -0.0110315578058362, 0.9075327515602112, -0.039270419627428055, 0.03092687577009201, 0.9975999593734741, -0.04322708025574684, 0.07688140869140625, 1.502197265625, 1.055419921875, 1.9101409912109375, 1.494873046875
20081, 1.3458716869354248, 1.8341883420944214, 1.4975489377975464, -0.102988101541996, -0.08028799295425415, -3.987210512161255, -0.24763834476470947, -0.19418081641197205, -0.4344239830970764, -0.4928925633430481, -0.9992397427558899, 0.06561395525932312, 0.9101205049087232, -1.7236531296310886, -0.33151816003139384, 9362.0, 30146.0, 35388.0, 9362.0, 8.390083312988281, -1.1119633913040161, 0.5486153364181519, 0.46555617451667786, -0.039270419627428055, 0.03092687577009201, 0.9975999593734741, -0.04049684479832649, 0.014162063598632812, 1.4970703125, 1.055419921875, 1.9101409912109375, 1.494873046875
20101, 1.3247861862182617, 1.8144443035125732, 1.5082790851593018, -0.11575285345315933, -0.09029798954725266, -4.008963108062744, -0.26296934485435486, -0.20618394017219543, -0.4358404278755188, -0.4928892254829407, -0.9992403984069824, 0.06559498608112335, 0.9093902146290714, -1.7166451064186674, -0.3323494226797088, 9362.0, 30146.0, 35388.0, 9362.0, 8.390083312988281, -1.1119633913040161, 0.5486153364181519, 0.46555617451667786, -0.04210307449102402, 0.02685718983411789, 0.9984675049781799, -0.05763179808855057, -0.28151702880859375, 1.472900390625, 1.3857421875, 0.0280914306640625, 1.494873046875
20131, 1.2953245639801025, 1.7760140895843506, 1.5026805400848389, -0.12107329070568085, -0.09446882456541061, -4.0176849365234375, -0.2690659761428833, -0.2108919322490692, -0.43633437156677246, -0.4929021894931793, -0.9992557168006897, 0.0656198188662529, 0.9223305465298742, -1.707175695509278, -0.33612119761372516, 9362.0, 30146.0, 35388.0, 9362.0, 8.390083312988281, -1.1119633913040161, 0.5486153364181519, 0.46555617451667786, -0.046015430241823196, 0.02182147651910782, 0.9979761838912964, -0.06604685634374619, -0.06647872924804688, 1.490478515625, 1.3857421875, 0.0280914306640625, 1.494873046875
20151, 1.281318187713623, 1.7558417320251465, 1.4919722080230713, -0.1292807161808014, -0.10089992731809616, -4.0307817459106445, -0.2780640423297882, -0.2178230881690979, -0.43688151240348816, -0.4928898811340332, -0.999230146408081, 0.06557410955429077, 0.9672446622318951, -1.6618842560787357, -0.32528183215295065, 9362.0, 30146.0, 35388.0, 9362.0, 8.390083312988281, -1.1119633913040161, 0.5486153364181519, 0.46555617451667786, -0.05104377865791321, 0.021463343873620033, 0.9969680905342102, -0.057649172842502594, -0.03959846496582031, 1.49267578125, 1.3857421875, 0.0280914306640625, 1.494873046875
20161, 1.2775708436965942, 1.7483210563659668, 1.48454749584198, -0.1292807161808014, -0.10089992731809616, -4.0307817459106445, -0.2780640423297882, -0.2178230881690979, -0.43688151240348816, -0.4929095506668091, -0.9992501735687256, 0.06556219607591629, 0.9694705429943327, -1.662953588632746, -0.3306405474050442, 9362.0, 30146.0, 35388.0, 9362.0, 8.390083312988281, 0.09875153750181198, 0.8814591765403748, -0.934139609336853, -0.052864234894514084, 0.021584514528512955, 0.9974601864814758, -0.057649172842502594, -0.03959846496582031, 1.49267578125, 1.3857421875, 0.0280914306640625, 1.494873046875
20191, 1.2878021001815796, 1.7380064725875854, 1.4615130424499512, -0.14063876867294312, -0.10979438573122025, -4.048280239105225, -0.28980475664138794, -0.22688625752925873, -0.4379831552505493, -0.49298185110092163, -0.9992769956588745, 0.06557848304510117, 0.9849646950129451, -1.6405340778266577, -0.33734744309173126, 9362.0, 30146.0, 35388.0, 9362.0, 8.390083312988281, 0.33361801505088806, -0.20406842231750488, -0.8264418840408325, -0.054572027176618576, 0.02325907163321972, 0.9988439679145813, -0.06664271652698517, -0.030637741088867188, 1.493408203125, 0.791748046875, 10.824005126953125, 1.494873046875
20201, 1.2949358224868774, 1.7374351024627686, 1.4545655250549316, -0.14063876867294312, -0.10979438573122025, -4.048280239105225, -0.28980475664138794, -0.22688625752925873, -0.4379831552505493, -0.49295321106910706, -0.9992616772651672, 0.0656164214015007, 0.9881740220002189, -1.6194898770806958, -0.34062218775292785, 9362.0, 30146.0, 35388.0, 9362.0, 8.390083312988281, 0.8156182169914246, 0.06504993885755539, -0.5923758745193481, -0.054157890379428864, 0.024576488882303238, 0.999458372592926, -0.06664271652698517, -0.030637741088867188, 1.493408203125, 1.134521484375, 0.88360595703125, 1.494873046875
20211, 1.303704857826233, 1.7392429113388062, 1.4479913711547852, -0.14063876867294312, -0.10979438573122025, -4.048280239105225, -0.28980475664138794, -0.22688625752925873, -0.4379831552505493, -0.49300920963287354, -0.9992831349372864, 0.06555939465761185, 0.9848583893270999, -1.617520005660083, -0.3386664998595821, 9362.0, 30146.0, 35388.0, 9362.0, 8.390083312988281, 1.1054598093032837, -0.7290484309196472, -0.4636695384979248, -0.05098738148808479, 0.023303817957639694, 0.9973198771476746, -0.06664271652698517, -0.030637741088867188, 1.493408203125, 1.134521484375, 0.88360595703125, 1.494873046875
20221, 1.3150885105133057, 1.7466472387313843, 1.443203330039978, -0.14063876867294312, -0.10979438573122025, -4.048280239105225, -0.28980475664138794, -0.22688625752925873, -0.4379831552505493, -0.4929722547531128, -0.9992727041244507, 0.0655822604894638, 0.9936000286152599, -1.6009329385804847, -0.344663387546223, 9362.0, 30146.0, 35388.0, 9362.0, 8.390083312988281, 1.1054598093032837, -0.7290484309196472, -0.4636695384979248, -0.049450598657131195, 0.02421749383211136, 0.9963505864143372, -0.05590614303946495, -0.05751800537109375, 1.4912109375, 1.134521484375, 0.88360595703125, 1.494873046875
20231, 1.3272690773010254, 1.7553411722183228, 1.4403469562530518, -0.14063876867294312, -0.10979438573122025, -4.048280239105225, -0.28980475664138794, -0.22688625752925873, -0.4379831552505493, -0.49297821521759033, -0.99928879737854, 0.06559044122695923, 0.9886333439889805, -1.5998902063928142, -0.3398123507034329, 9362.0, 30146.0, 35388.0, 9362.0, 8.390083312988281, 0.9335001707077026, -0.9334056973457336, -0.0008494844078086317, -0.049450598657131195, 0.02421749383211136, 0.9963505864143372, -0.062397550791502, -0.05751800537109375, 1.4912109375, 1.134521484375, 0.88360595703125, 1.494873046875
20241, 1.3377597332000732, 1.7646896839141846, 1.439733624458313, -0.14063876867294312, -0.10979438573122025, -4.048280239105225, -0.28980475664138794, -0.22688625752925873, -0.4379831552505493, -0.49297523498535156, -0.9992654323577881, 0.06559540331363678, 0.9913773736368965, -1.5946687758459177, -0.33571108505660835, 9362.0, 30146.0, 35388.0, 9362.0, 8.390083312988281, 0.8729383945465088, -1.0148072242736816, 0.0757719948887825, -0.047387074679136276, 0.02897859551012516, 1.0000745058059692, -0.062397550791502, -0.05751800537109375, 1.4912109375, 1.134521484375, 0.88360595703125, 1.494873046875
20261, 1.3552587032318115, 1.7851495742797852, 1.4422205686569214, -0.158551424741745, -0.12381880730390549, -4.074601173400879, -0.30732056498527527, -0.2406841367483139, -0.4393593668937683, -0.4929848313331604, -0.9992549419403076, 0.06560996174812317, 0.9754943287272646, -1.5908170718225279, -0.3428194992396437, 9362.0, 30146.0, 35388.0, 9362.0, 8.390083312988281, 0.370134562253952, -0.8971490859985352, 0.3519929349422455, -0.044418446719646454, 0.030548712238669395, 0.9987212419509888, -0.055020395666360855, 0.023120880126953125, 1.497802734375, 0.968994140625, 3.73797607421875, 1.494873046875
20291, 1.3655903339385986, 1.805039644241333, 1.4516627788543701, -0.1710820198059082, -0.1336362659931183, -4.092191696166992, -0.31924572587013245, -0.2502201199531555, -0.44030842185020447, -0.49300649762153625, -0.9992572665214539, 0.0656348317861557, 0.9709477301034762, -1.578526361076939, -0.3498237989737496, 9362.0, 30146.0, 35388.0, 9362.0, 8.390083312988281, 0.5011398196220398, -0.7610678672790527, 0.1437806487083435, -0.04414995387196541, 0.03108072653412819, 0.9995723962783813, -0.04102681949734688, -0.2904777526855469, 1.47216796875, 0.8115234375, 9.755844116210938, 1.494873046875
20301, 1.3627914190292358, 1.8086578845977783, 1.4535763263702393, -0.1710820198059082, -0.1336362659931183, -4.092191696166992, -0.31924572587013245, -0.2502201199531555, -0.44030842185020447, -0.49302440881729126, -0.999260425567627, 0.06561479717493057, 0.9790506499549645, -1.5620808713937038, -0.3434521248117383, 9362.0, 30146.0, 35388.0, 9362.0, 8.390083312988281, -0.42004311084747314, -0.1135321855545044, 0.3994525969028473, -0.04414995387196541, 0.03108072653412819, 0.9995723962783813, -0.04102681949734688, -0.2904777526855469, 1.47216796875, 0.8115234375, 9.755844116210938, 1.494873046875
20311, 1.3592238426208496, 1.8144755363464355, 1.455363154411316, -0.1710820198059082, -0.1336362659931183, -4.092191696166992, -0.31924572587013245, -0.2502201199531555, -0.44030842185020447, -0.493004709482193, -0.9992414116859436, 0.0656348392367363, 0.9575260524016664, -1.5738736376115696, -0.3431725896860606, 9362.0, 30146.0, 35388.0, 9362.0, 8.390083312988281, -0.4624752700328827, -0.24494928121566772, 0.04663350433111191, -0.04297177866101265, 0.030653685331344604, 0.9997596144676208, -0.04102681949734688, -0.2904777526855469, 1.47216796875, 0.8115234375, 9.755844116210938, 1.494873046875
20341, 1.3356622457504272, 1.804322600364685, 1.4576687812805176, -0.18742267787456512, -0.14644847810268402, -4.114226818084717, -0.3344014883041382, -0.26224833726882935, -0.44114696979522705, -0.4930240213871002, -0.9992465376853943, 0.06561580300331116, 0.961496312869898, -1.5571819314332345, -0.33780818123498685, 9362.0, 30146.0, 35388.0, 9362.0, 8.390083312988281, -0.9938036203384399, 0.4513501524925232, -0.01891685277223587, -0.04353034123778343, 0.02831844799220562, 0.9988934993743896, -0.04102681949734688, -0.2904777526855469, 1.47216796875, 1.155029296875, 0.6974945068359375, 1.494873046875
20371, 1.305414080619812, 1.7813737392425537, 1.4541736841201782, -0.19759102165699005, -0.15442253649234772, -4.127469062805176, -0.34347522258758545, -0.2693316340446472, -0.44167637825012207, -0.4930134117603302, -0.9992150068283081, 0.06561090797185898, 0.9423144234465011, -1.566670208245199, -0.34748136836598514, 9362.0, 30146.0, 35388.0, 9362.0, 8.390083312988281, -0.9938036203384399, 0.4513501524925232, -0.01891685277223587, -0.04675938934087753, 0.022503338754177094, 0.9986125826835632, -0.053423602133989334, -0.12023735046386719, 1.486083984375, 0.83642578125, 8.521484375, 1.494873046875
20451, 1.3021289110183716, 1.7679404020309448, 1.395154356956482, -0.2260202169418335, -0.17670370638370514, -4.162890434265137, -0.3671715557575226, -0.2876235544681549, -0.44394415616989136, -0.4931598901748657, -0.9993337988853455, 0.06570687890052795, 0.9524087181941178, -1.5262313808574106, -0.3743113538974367, 9362.0, 30146.0, 35388.0, 9362.0, 8.390083312988281, 0.5531919002532959, -0.14216704666614532, -0.6967874765396118, -0.05141252651810646, 0.023571377620100975, 0.998863697052002, -0.0557839535176754, -0.10231781005859375, 1.487548828125, 0.69140625, 17.592742919921875, 1.494873046875
20461, 1.312528133392334, 1.7747331857681274, 1.3868716955184937, -0.2260202169418335, -0.17670370638370514, -4.162890434265137, -0.3671715557575226, -0.2876235544681549, -0.44394415616989136, -0.49317294359207153, -0.9993270635604858, 0.06576602905988693, 0.940292584827781, -1.508915868665099, -0.39264341591853763, 9362.0, 30146.0, 35388.0, 9362.0, 8.390083312988281, 0.5531919002532959, -0.14216704666614532, -0.6967874765396118, -0.05141252651810646, 0.023571377620100975, 0.998863697052002, -0.051331307739019394, -0.04855918884277344, 1.491943359375, 0.69140625, 17.592742919921875, 1.494873046875
20471, 1.3229374885559082, 1.7802189588546753, 1.3806020021438599, -0.2260202169418335, -0.17670370638370514, -4.162890434265137, -0.3671715557575226, -0.2876235544681549, -0.44394415616989136, -0.49316245317459106, -0.9993200898170471, 0.06574955582618713, 0.9448668498967089, -1.4894553100411372, -0.3914794452728138, 9362.0, 30146.0, 35388.0, 9362.0, 8.390083312988281, 0.9315270185470581, -1.1590300798416138, -0.6014294028282166, -0.04735654592514038, 0.0262504443526268, 0.9989728331565857, -0.051331307739019394, -0.04855918884277344, 1.491943359375, 0.69140625, 17.592742919921875, 1.494873046875
20531, 1.3590037822723389, 1.8418052196502686, 1.3577772378921509, -0.2524517774581909, -0.19740447402000427, -4.1940202713012695, -0.3881351947784424, -0.3039494454860687, -0.4455510973930359, -0.49321702122688293, -0.9992927312850952, 0.06579529494047165, 0.925881159404346, -1.4460561252740831, -0.419925480384465, 9362.0, 30146.0, 35388.0, 9362.0, 8.390083312988281, 0.6328682899475098, -1.087374210357666, -0.398425430059433, -0.038584377616643906, 0.0303515437990427, 0.9973831176757812, -0.05673760548233986, 0.08584022521972656, 1.5029296875, 1.469970703125, 0.1386566162109375, 1.494873046875
20551, 1.3537156581878662, 1.8475675582885742, 1.3555036783218384, -0.26423418521881104, -0.2066306620836258, -4.207392692565918, -0.3973733186721802, -0.31113243103027344, -0.446125328540802, -0.49325647950172424, -0.9993070363998413, 0.06574829667806625, 0.9160899483786322, -1.450758520871716, -0.4159648188359205, 9362.0, 30146.0, 35388.0, 9362.0, 8.390083312988281, -0.16324618458747864, -0.02330481819808483, 0.00033658521715551615, -0.0448189452290535, 0.028573567047715187, 0.9982948303222656, -0.06112208217382431, -0.08439826965332031, 1.489013671875, 1.469970703125, 0.1386566162109375, 1.494873046875
20561, 1.3483729362487793, 1.848315954208374, 1.3563803434371948, -0.26423418521881104, -0.2066306620836258, -4.207392692565918, -0.3973733186721802, -0.31113243103027344, -0.446125328540802, -0.49321600794792175, -0.9992879629135132, 0.06578945368528366, 0.9142241358171384, -1.446312595838009, -0.42615641306275615, 9362.0, 30146.0, 35388.0, 9362.0, 8.390083312988281, -0.16324618458747864, -0.02330481819808483, 0.00033658521715551615, -0.04130247235298157, 0.028810927644371986, 0.9976051449775696, -0.05951476842164993, -0.06647872924804688, 1.490478515625, 1.469970703125, 0.1386566162109375, 1.494873046875
20601, 1.3146114349365234, 1.8449500799179077, 1.3476393222808838, -0.28449052572250366, -0.2224852442741394, -4.229730606079102, -0.41288667917251587, -0.3230132460594177, -0.44726547598838806, -0.49323558807373047, -0.9993422031402588, 0.06580730527639389, 0.9304739757570404, -1.4906597856677877, -0.38541053258833896, 9362.0, 30146.0, 35388.0, 9362.0, 8.390083312988281, -0.9942331910133362, 0.1625605821609497, -0.43548285961151123, -0.046165961772203445, 0.02774723991751671, 0.9985581636428833, -0.05924574285745621, -0.11127853393554688, 1.48681640625, 1.32421875, 0.024139404296875, 1.494873046875
20611, 1.3054180145263672, 1.8441511392593384, 1.340973973274231, -0.28449052572250366, -0.2224852442741394, -4.229730606079102, -0.41288667917251587, -0.3230132460594177, -0.44726547598838806, -0.4932076334953308, -0.9993325471878052, 0.06580986827611923, 0.9397518322389518, -1.4793676431143297, -0.3803295165775228, 9362.0, 30146.0, 35388.0, 9362.0, 8.390083312988281, -0.9942331910133362, 0.1625605821609497, -0.43548285961151123, -0.04609573632478714, 0.025440862402319908, 0.9973253607749939, -0.030487967655062675, 0.15752029418945312, 1.5087890625, 1.32421875, 0.024139404296875, 1.494873046875
20621, 1.2962554693222046, 1.8439050912857056, 1.3340119123458862, -0.28449052572250366, -0.2224852442741394, -4.229730606079102, -0.41288667917251587, -0.3230132460594177, -0.44726547598838806, -0.49323949217796326, -0.9993253946304321, 0.06582848727703094, 0.9387431281572332, -1.4900178122333614, -0.3843560656954083, 9362.0, 30146.0, 35388.0, 9362.0, 8.390083312988281, -0.9942331910133362, 0.1625605821609497, -0.43548285961151123, -0.04635995626449585, 0.024402745068073273, 0.9983102083206177, -0.04562869668006897, -0.14711761474609375, 1.48388671875, 1.32421875, 0.024139404296875, 1.494873046875
20671, 1.2843431234359741, 1.8376420736312866, 1.316681146621704, -0.3141513168811798, -0.24566148221492767, -4.261106967926025, -0.43455228209495544, -0.3390626609325409, -0.4492855966091156, -0.4932393729686737, -0.9993178248405457, 0.06585213541984558, 0.9362026210943096, -1.4568510801013872, -0.3999717530760163, 9362.0, 30146.0, 35388.0, 9362.0, 8.390083312988281, -0.506106436252594, 0.14190971851348877, -0.5693100690841675, -0.04699227958917618, 0.022863104939460754, 0.998314619064331, -0.0492241196334362, -0.07543754577636719, 1.48974609375, 1.2158203125, 0.300750732421875, 1.494873046875
20691, 1.2930430173873901, 1.8425806760787964, 1.3173673152923584, -0.3141513168811798, -0.24566148221492767, -4.261106967926025, -0.43455228209495544, -0.3390626609325409, -0.4492855966091156, -0.4932730793952942, -0.9993380904197693, 0.06583929806947708, 0.9389253386858062, -1.4404194962012582, -0.40316673260640107, 9362.0, 30146.0, 35388.0, 9362.0, 8.390083312988281, -0.506106436252594, 0.14190971851348877, -0.5693100690841675, -0.04593822732567787, 0.022959409281611443, 1.0004327297210693, -0.05707345902919769, -0.04855918884277344, 1.491943359375, 1.660400390625, 0.5649566650390625, 1.494873046875
20701, 1.29767906665802, 1.8437443971633911, 1.3195990324020386, -0.3141513168811798, -0.24566148221492767, -4.261106967926025, -0.43455228209495544, -0.3390626609325409, -0.4492855966091156, -0.49327346682548523, -0.9993413686752319, 0.06583622097969055, 0.9328305667557959, -1.4411717595928337, -0.4147401490898842, 9362.0, 30146.0, 35388.0, 9362.0, 8.390083312988281, -0.506106436252594, 0.14190971851348877, -0.5693100690841675, -0.043720073997974396, 0.02744506299495697, 0.9975963234901428, -0.05707345902919769, -0.04855918884277344, 1.491943359375, 1.660400390625, 0.5649566650390625, 1.494873046875
20721, 1.3088853359222412, 1.8548568487167358, 1.3207985162734985, -0.33626529574394226, -0.26289820671081543, -4.283602714538574, -0.4500199258327484, -0.3504367172718048, -0.45047301054000854, -0.49325940012931824, -0.9993647336959839, 0.06585630774497986, 0.9427121178782931, -1.4478209779737767, -0.4269256721337011, 9362.0, 30146.0, 35388.0, 9362.0, 8.390083312988281, 0.5485122799873352, -0.4375602900981903, 0.36937907338142395, -0.04424167796969414, 0.028235793113708496, 0.996616780757904, -0.05707345902919769, -0.04855918884277344, 1.491943359375, 1.549072265625, 0.2998809814453125, 1.494873046875
20741, 1.3195288181304932, 1.8648267984390259, 1.3205991983413696, -0.34532785415649414, -0.2699529528617859, -4.292618274688721, -0.45623713731765747, -0.35504087805747986, -0.4511803090572357, -0.4933003783226013, -0.9993485808372498, 0.06582115590572357, 0.9205296415142984, -1.4713196046582766, -0.4503745035452836, 9362.0, 30146.0, 35388.0, 9362.0, 8.390083312988281, 0.41120651364326477, -0.40927937626838684, 0.17665459215641022, -0.04707682877779007, 0.02744870074093342, 0.9978774785995483, -0.05707345902919769, -0.04855918884277344, 1.491943359375, 0.8671875, 7.1566314697265625, 1.494873046875
20761, 1.3249573707580566, 1.8742635250091553, 1.3169889450073242, -0.34532785415649414, -0.2699529528617859, -4.292618274688721, -0.45623713731765747, -0.35504087805747986, -0.4511803090572357, -0.4933072328567505, -0.9993703365325928, 0.06582535058259964, 0.9316736291484897, -1.4729824769725042, -0.46244609690660304, 9362.0, 30146.0, 35388.0, 9362.0, 8.390083312988281, 0.41120651364326477, -0.40927937626838684, 0.17665459215641022, -0.044557493180036545, 0.027794888243079185, 0.9977442026138306, -0.07725735753774643, -0.01271820068359375, 1.494873046875, 1.71240234375, 0.70159912109375, 1.494873046875
20771, 1.3265634775161743, 1.8770874738693237, 1.3134894371032715, -0.34532785415649414, -0.2699529528617859, -4.292618274688721, -0.45623713731765747, -0.35504087805747986, -0.4511803090572357, -0.4932835102081299, -0.9993627667427063, 0.06583502888679504, 0.9454993255461711, -1.4675239682461267, -0.46160818558231953, 9362.0, 30146.0, 35388.0, 9362.0, 8.390083312988281, 0.41120651364326477, -0.40927937626838684, 0.17665459215641022, -0.040389906615018845, 0.027666008099913597, 0.9980467557907104, -0.07725735753774643, -0.01271820068359375, 1.494873046875, 1.71240234375, 0.70159912109375, 1.494873046875
20791, 1.3259164094924927, 1.8836979866027832, 1.3042057752609253, -0.36853089928627014, -0.2879956364631653, -4.31522274017334, -0.4719219207763672, -0.3666893541812897, -0.4528557062149048, -0.493313193321228, -0.9993875622749329, 0.06584195047616959, 0.9429566257706233, -1.4697090527147338, -0.48066593304849586, 9362.0, 30146.0, 35388.0, 9362.0, 8.390083312988281, -0.11604391038417816, -0.7101885676383972, -0.9383465051651001, -0.040675412863492966, 0.02704768069088459, 0.9997256398200989, -0.07317784428596497, -0.05751800537109375, 1.4912109375, 1.71240234375, 0.70159912109375, 1.494873046875
