timeTick, roll, pitch, yaw, stateX, stateY, stateZ, stateVX, stateVY, stateVZ, otX0, otY0, otZ0, otRoll0, otPitch0, otYaw0, left wing, pitch motor, yaw motor, right wing, voltage, roll rate, pitch rate, yaw rate, A_x, A_y, A_z, current, i_raw, v_raw, airflow_voltage, airflow_speed, pot_Pitch
11343, -0.2947007119655609, 1.1944447755813599, 0.2784631550312042, 0, 0, 0, 0, 0, 0, -0.5238993167877197, -1.0809476375579834, 0.06833202391862869, -1.1924223272872005, 1.2013046498802566, 5.499341195309184, 0, 0, 0, 0, 0, 0, 0, 0, 0, 0, 0, 0, 0, 0, 0, 0, 0
11353, -0.29318562150001526, 1.1921685934066772, 0.27754437923431396, -1.0290325008099899e-05, 2.4790538191155065e-06, -0.3571520149707794, -0.002564958529546857, 0.0006182069191709161, -0.07354114949703217, -0.5239163041114807, -1.0809382200241089, 0.06834004074335098, -1.1988384784471575, 1.1935296527589117, 5.498680907497651, 9362.0, 30146.0, 35388.0, 9362.0, 8.370248794555664, 0.2680833637714386, -0.17609697580337524, 0.02910740301012993, 0.007329951040446758, -0.011972049251198769, 1.001070261001587, -0.10581260174512863, -0.10231781005859375, 1.487548828125, 1.0869140625, 1.4374237060546875, 0
11363, -0.2904835343360901, 1.1926246881484985, 0.2775980234146118, -4.618730235961266e-05, 1.113685175369028e-05, -0.35788702964782715, -0.004614426288753748, 0.0011133821681141853, -0.0734611377120018, -0.523906946182251, -1.0809346437454224, 0.06831316649913788, -1.1977416192687744, 1.1836962280796968, 5.499505474821504, 9362.0, 30146.0, 35388.0, 9362.0, 8.390083312988281, -0.0022296556271612644, -0.22198402881622314, -0.19789591431617737, 0.00563356326892972, -0.010628072544932365, 1.0003772974014282, -0.08977983146905899, 0.13064002990722656, 1.506591796875, 1.81494140625, 1.02813720703125, 1.49267578125
11373, -0.2900242507457733, 1.1939098834991455, 0.2766737937927246, -0.00010255995584884658, 2.4733817554078996e-05, -0.358621209859848, -0.0066601065918803215, 0.0016060033813118935, -0.07337541878223419, -0.5239104628562927, -1.0809345245361328, 0.06832373142242432, -1.1960551379936712, 1.1866106278394284, 5.50144111089327, 9362.0, 30146.0, 35388.0, 9362.0, 8.390083312988281, -0.18429723381996155, -0.19366879761219025, 0.37102529406547546, 0.007499052211642265, -0.009942091070115566, 0.9983438849449158, -0.09149453043937683, -0.12023735046386719, 1.486083984375, 0.916259765625, 5.3134002685546875, 1.49560546875
11383, -0.29137933254241943, 1.1951498985290527, 0.2791697382926941, -0.000179384951479733, 4.3231841118540615e-05, -0.3593549430370331, -0.00870488304644823, 0.0020936334040015936, -0.07336907833814621, -0.5239201188087463, -1.0809248685836792, 0.06832070648670197, -1.1975726059084415, 1.1881109437847215, 5.497396615578357, 9362.0, 30146.0, 35388.0, 9362.0, 8.370248794555664, 0.0619378387928009, 0.013942258432507515, 0.0803200900554657, 0.006964382715523243, -0.009547547437250614, 1.0005594491958618, -0.09278587251901627, -0.1739978790283203, 1.481689453125, 0.287109375, 78.36652374267578, 1.491943359375
11393, -0.29075270891189575, 1.1959733963012695, 0.27833327651023865, -0.00027665283414535224, 6.65985862724483e-05, -0.36008936166763306, -0.010748711414635181, 0.002579624066129327, -0.07351436465978622, -0.5239289999008179, -1.0809319019317627, 0.06833786517381668, -1.2057789283170046, 1.1919576840173818, 5.494323775750389, 9362.0, 30146.0, 35388.0, 9362.0, 8.390083312988281, 0.06052220240235329, 0.1889313906431198, 0.02825111523270607, 0.008018899708986282, -0.010720448568463326, 0.9992569088935852, -0.075651153922081, 0.04104042053222656, 1.499267578125, 1.55859375, 0.3211212158203125, 1.493408203125
11403, -0.2901173233985901, 1.1952004432678223, 0.2777421176433563, -0.0003943825722672045, 9.483937174081802e-05, -0.3608246147632599, -0.012797223404049873, 0.003068563062697649, -0.0735371932387352, -0.5239421129226685, -1.080939531326294, 0.06834330409765244, -1.2100651867620011, 1.205724722752933, 5.485929772449627, 9362.0, 30146.0, 35388.0, 9362.0, 8.390083312988281, 0.10050107538700104, 0.26805397868156433, 0.04919220134615898, 0.007628633640706539, -0.009897788986563683, 1.0010021924972534, -0.06983069330453873, -0.09335899353027344, 1.48828125, 1.027587890625, 2.4080963134765625, 1.48974609375
11413, -0.28901320695877075, 1.1930979490280151, 0.27848154306411743, -0.0005325998063199222, 0.00012796319788321853, -0.36156031489372253, -0.01484622061252594, 0.0035562266130000353, -0.07360397279262543, -0.5240050554275513, -1.080979585647583, 0.06832093745470047, -1.2308667502730073, 1.183595875476641, 5.514328419172118, 9362.0, 30146.0, 35388.0, 9362.0, 8.390083312988281, -0.10782208293676376, -0.22100983560085297, 0.036015309393405914, 0.0054760584607720375, -0.009983362630009651, 0.999586284160614, -0.07480726391077042, -0.11127853393554688, 1.48681640625, 0.7734375, 11.886093139648438, 1.486083984375
11423, -0.29056045413017273, 1.1940351724624634, 0.2789640426635742, -0.0006913099787198007, 0.00016596066416241229, -0.3622962236404419, -0.016895823180675507, 0.004043238703161478, -0.07357822358608246, -0.5239969491958618, -1.0809745788574219, 0.06833925098180771, -1.222055189776678, 1.1912811777334014, 5.508421939260236, 9362.0, 30146.0, 35388.0, 9362.0, 8.370248794555664, 0.06703369319438934, -0.038258571177721024, -0.05477507784962654, 0.007624673191457987, -0.011068273335695267, 1.0011824369430542, -0.05166563019156456, -0.10231781005859375, 1.487548828125, 1.5908203125, 0.395538330078125, 1.4912109375
11433, -0.2904234528541565, 1.194690465927124, 0.27810198068618774, -0.0008704894571565092, 0.00020881668024230748, -0.3630323112010956, -0.01894007995724678, 0.004527948331087828, -0.07363605499267578, -0.5240088701248169, -1.0809725522994995, 0.06833650916814804, -1.227967928107253, 1.183880343266651, 5.507529785136007, 9362.0, 30146.0, 35388.0, 9362.0, 8.390083312988281, -0.33283326029777527, 0.12265618145465851, 0.20710740983486176, 0.008593503385782242, -0.011390186846256256, 1.000344157218933, -0.05328575149178505, -0.07543754577636719, 1.48974609375, 0.7529296875, 13.16302490234375, 1.494873046875
11443, -0.29144343733787537, 1.1947444677352905, 0.28015562891960144, -0.0010701350402086973, 0.00025653658667579293, -0.36376821994781494, -0.020989030599594116, 0.005016063805669546, -0.07354602217674255, -0.5239963531494141, -1.0809763669967651, 0.06833189725875854, -1.2263989520632939, 1.1827267551238947, 5.509716660690398, 9362.0, 30146.0, 35388.0, 9362.0, 8.370248794555664, -0.0884815901517868, 0.020637577399611473, 0.18643265962600708, 0.0074953073635697365, -0.011165063828229904, 1.0005691051483154, -0.058926381170749664, -0.13815879821777344, 1.484619140625, 1.4150390625, 0.05596923828125, 1.48681640625
11453, -0.29188063740730286, 1.1946882009506226, 0.28165295720100403, -0.0012902684975415468, 0.0003091348917223513, -0.3645035922527313, -0.02303767204284668, 0.005503522697836161, -0.07352536171674728, -0.5240086317062378, -1.0809777975082397, 0.06831718981266022, -1.2263803766890762, 1.1788135899816155, 5.5083388799469315, 9362.0, 30146.0, 35388.0, 9362.0, 8.370248794555664, 0.0559198372066021, -0.33256351947784424, -0.20698723196983337, 0.010332482866942883, -0.010210300795733929, 1.0000146627426147, -0.05513766035437584, -0.06647872924804688, 1.490478515625, 1.669189453125, 0.5873260498046875, 1.4970703125
11463, -0.291335791349411, 1.1957995891571045, 0.280552476644516, -0.0015308888396248221, 0.00036661612102761865, -0.365238755941391, -0.025086408481001854, 0.0059926691465079784, -0.07350558042526245, -0.5240023136138916, -1.0809781551361084, 0.06833749264478683, -1.2264079762610607, 1.1842714081417398, 5.509554094306994, 9362.0, 30146.0, 35388.0, 9362.0, 8.390083312988281, -0.016672151163220406, -0.15286731719970703, -0.2201186567544937, 0.008807063102722168, -0.008767872117459774, 0.9997683763504028, -0.05363446846604347, -0.09335899353027344, 1.48828125, 1.861083984375, 1.221710205078125, 1.49267578125
11473, -0.291822612285614, 1.1976979970932007, 0.2798537015914917, -0.0017919932724907994, 0.00042899162508547306, -0.3659738600254059, -0.027134476229548454, 0.006482468917965889, -0.07351310551166534, -0.5240018963813782, -1.080981969833374, 0.0683390200138092, -1.310030228386714, 1.3441481994584024, 5.492574113813091, 9362.0, 30146.0, 35388.0, 9362.0, 8.390083312988281, -0.23437446355819702, -0.19576212763786316, 0.2213851809501648, 0.008232378400862217, -0.0064682429656386375, 0.9988126754760742, -0.05252154543995857, -0.05751800537109375, 1.4912109375, 1.09130859375, 1.378570556640625, 1.489013671875
11483, -0.2933764159679413, 1.1997716426849365, 0.2806701958179474, -0.0020735831931233406, 0.0004962594248354435, -0.36670926213264465, -0.029183469712734222, 0.006971119903028011, -0.07356671243906021, -0.5239862203598022, -1.0809835195541382, 0.06831587851047516, -1.2256548612266103, 1.1933660046760508, 5.526435510691516, 9362.0, 30146.0, 35388.0, 9362.0, 8.370248794555664, -0.018626803532242775, -0.599689781665802, -0.0645119920372963, 0.008114811033010483, -0.007698648609220982, 1.0011961460113525, -0.06784495711326599, -0.05751800537109375, 1.4912109375, 1.58935546875, 0.3920440673828125, 1.4970703125
11493, -0.29266244173049927, 1.2044392824172974, 0.28031039237976074, -0.0023756730370223522, 0.0005684164934791625, -0.3674454987049103, -0.031234515830874443, 0.007460270542651415, -0.07367830723524094, -0.5239881873130798, -1.0809704065322876, 0.06834540516138077, -1.2221485463144444, 1.1841931314163503, 5.5186922207765035, 9362.0, 30146.0, 35388.0, 9362.0, 8.390083312988281, -0.07123327255249023, -0.2067505419254303, -0.08976691216230392, 0.007304800674319267, -0.012194368056952953, 1.0010735988616943, -0.057271163910627365, -0.01271820068359375, 1.494873046875, 1.809814453125, 1.009002685546875, 1.496337890625
11503, -0.29258888959884644, 1.2060668468475342, 0.2800444960594177, -0.0026983097195625305, 0.0006454825634136796, -0.368181973695755, -0.03329280763864517, 0.007952957414090633, -0.07361401617527008, -0.5239668488502502, -1.0809779167175293, 0.0683068260550499, -1.2207151311985796, 1.176899708975128, 5.510805222246255, 9362.0, 30146.0, 35388.0, 9362.0, 8.390083312988281, -0.21634508669376373, 0.11897628754377365, -0.1302962452173233, 0.008070469833910465, -0.012362213805317879, 1.002318024635315, -0.06076041981577873, -0.05751800537109375, 1.4912109375, 1.6259765625, 0.4795989990234375, 1.48974609375
11513, -0.2933482229709625, 1.2049143314361572, 0.27986854314804077, -0.003041568910703063, 0.0007274692179635167, -0.3689177930355072, -0.035359032452106476, 0.008444380015134811, -0.0735524371266365, -0.5239318609237671, -1.0809305906295776, 0.06830005347728729, -1.1885933707332612, 1.1915332673149805, 5.491230752593262, 9362.0, 30146.0, 35388.0, 9362.0, 8.390083312988281, 0.02596311643719673, -0.16288983821868896, 0.059869881719350815, 0.007315364666283131, -0.009740947745740414, 1.0012195110321045, -0.0491839274764061, 0.12168121337890625, 1.505859375, 0.517822265625, 35.93267822265625, 1.4970703125
11523, -0.2933749854564667, 1.2056937217712402, 0.2807203531265259, -0.0034055178984999657, 0.0008143726736307144, -0.3696523606777191, -0.037430763244628906, 0.008936317637562752, -0.07336172461509705, -0.5239270329475403, -1.0809545516967773, 0.06832488626241684, -1.1604499034666704, 1.2081928299517415, 5.497473686389457, 9362.0, 30146.0, 35388.0, 9362.0, 8.370248794555664, -0.029162181541323662, -0.01649845950305462, 0.1864401251077652, 0.006666084285825491, -0.009563458152115345, 0.9988359808921814, -0.05063052102923393, -0.20087814331054688, 1.4794921875, 1.6845703125, 0.62701416015625, 1.4912109375
11533, -0.2935878336429596, 1.206449270248413, 0.28257670998573303, -0.0037901634350419044, 0.000906199449673295, -0.3703855574131012, -0.039498355239629745, 0.009429014287889004, -0.07327467948198318, -0.5240374207496643, -1.0808742046356201, 0.06780543923377991, -1.1989209996582062, 1.353274684961832, 5.437237109369647, 9362.0, 30146.0, 35388.0, 9362.0, 8.370248794555664, 0.10268213599920273, 0.4718569219112396, -0.05564476177096367, 0.007035440299659967, -0.01129875611513853, 0.9988260865211487, -0.04793625697493553, -0.04855918884277344, 1.491943359375, 1.73583984375, 0.76788330078125, 1.49560546875
11543, -0.2924310863018036, 1.203869342803955, 0.28204408288002014, -0.0041954671032726765, 0.0010029474506154656, -0.37111902236938477, -0.04156237468123436, 0.0099205132573843, -0.07342064380645752, -0.5240400433540344, -1.0808547735214233, 0.06781194359064102, -1.210188036580577, 1.365760931686026, 5.443269740147778, 9362.0, 30146.0, 35388.0, 9362.0, 8.390083312988281, 0.10418927669525146, -0.08124969154596329, 0.04193331301212311, 0.00667139608412981, -0.011148915626108646, 0.9978213906288147, -0.05039196088910103, -0.021678924560546875, 1.494140625, 1.5234375, 0.2439727783203125, 1.4970703125
11553, -0.29134953022003174, 1.2039474248886108, 0.2825053930282593, -0.004621417261660099, 0.0011046119034290314, -0.37185394763946533, -0.04362770915031433, 0.010412394069135189, -0.0735662654042244, -0.5240345597267151, -1.0808721780776978, 0.06780975311994553, -1.1996630832842583, 1.3566909822794742, 5.433834244695096, 9362.0, 30146.0, 35388.0, 9362.0, 8.370248794555664, -0.0011943882564082742, 0.09668131172657013, -0.021721748635172844, 0.007658824324607849, -0.010565786622464657, 0.9999350309371948, -0.050997544080019, -0.06647872924804688, 1.490478515625, 1.74755859375, 0.80242919921875, 1.496337890625
11563, -0.291695237159729, 1.2022593021392822, 0.28407320380210876, -0.005067991558462381, 0.0012111837277188897, -0.37259069085121155, -0.04568713158369064, 0.010901950299739838, -0.07378231734037399, -0.5240189433097839, -1.080876350402832, 0.06783968210220337, -1.2017541732288355, 1.3507812662215883, 5.441849340882481, 9362.0, 30146.0, 35388.0, 9362.0, 8.370248794555664, -0.12344503402709961, -0.3494637906551361, 0.0760592371225357, 0.007593550253659487, -0.009625603444874287, 1.0005335807800293, -0.04977567493915558, 0.2381610870361328, 1.515380859375, 1.6376953125, 0.5082244873046875, 1.494873046875
11573, -0.2925310432910919, 1.2040170431137085, 0.28647318482398987, -0.005535176023840904, 0.0013226453447714448, -0.3733288645744324, -0.047749776393175125, 0.011390327475965023, -0.07385185360908508, -0.5240311622619629, -1.0808779001235962, 0.0678069069981575, -1.195268689897475, 1.3475260850231336, 5.433077242515246, 9362.0, 30146.0, 35388.0, 9362.0, 8.370248794555664, 0.17623692750930786, 0.2409335821866989, 0.3945011496543884, 0.006949667353183031, -0.007885206490755081, 1.000976800918579, -0.05039082467556, -0.28151702880859375, 1.472900390625, 0.6591796875, 20.30340576171875, 1.48828125
11583, -0.29143765568733215, 1.2028206586837769, 0.28940054774284363, -0.006022981833666563, 0.0014389957068488002, -0.3740672767162323, -0.049811430275440216, 0.01187966950237751, -0.0738324224948883, -0.5240249633789062, -1.080857753753662, 0.06784418225288391, -1.1975224416297916, 1.3419958560618284, 5.444703192886399, 9362.0, 30146.0, 35388.0, 9362.0, 8.370248794555664, 0.04548896104097366, -0.40101751685142517, -0.20101428031921387, 0.006909571588039398, -0.010081750340759754, 1.0012911558151245, -0.05544416978955269, -0.19191741943359375, 1.480224609375, 1.1103515625, 1.1422271728515625, 1.491943359375
11593, -0.2898019254207611, 1.205562949180603, 0.2890564501285553, -0.0065314252860844135, 0.0015602476196363568, -0.3748052418231964, -0.051877282559871674, 0.012370598502457142, -0.07375719398260117, -0.5240074992179871, -1.0808781385421753, 0.06783288717269897, -1.204115863002275, 1.3493908099445946, 5.4462709969572805, 9362.0, 30146.0, 35388.0, 9362.0, 8.370248794555664, -0.22850677371025085, 0.060072530061006546, -0.2462557554244995, 0.007636029273271561, -0.01220737025141716, 1.0023796558380127, -0.05544416978955269, -0.19191741943359375, 1.480224609375, 1.74462890625, 0.793792724609375, 1.497802734375
11603, -0.28975510597229004, 1.2046481370925903, 0.2878010869026184, -0.0065314252860844135, 0.0015602476196363568, -0.3748052418231964, -0.051877282559871674, 0.012370598502457142, -0.07375719398260117, -0.5240318179130554, -1.0808438062667847, 0.06781426072120667, -1.204107805917013, 1.3562623518282635, 5.432905909564331, 9362.0, 30146.0, 35388.0, 9362.0, 8.370248794555664, -0.22850677371025085, 0.060072530061006546, -0.2462557554244995, 0.007636029273271561, -0.01220737025141716, 1.0023796558380127, -0.06298669427633286, -0.08439826965332031, 1.489013671875, 1.68896484375, 0.6385955810546875, 1.497802734375
11613, -0.2895452082157135, 1.2047890424728394, 0.2890884280204773, -0.0065314252860844135, 0.0015602476196363568, -0.3748052418231964, -0.051877282559871674, 0.012370598502457142, -0.07375719398260117, -0.5240168571472168, -1.0808501243591309, 0.06783325225114822, -1.2233075049328759, 1.3509082470206124, 5.452293827280617, 9362.0, 30146.0, 35388.0, 9362.0, 8.390083312988281, -0.22850677371025085, 0.060072530061006546, -0.2462557554244995, 0.008510262705385685, -0.008839818648993969, 1.0012304782867432, -0.06298669427633286, -0.08439826965332031, 1.489013671875, 1.59228515625, 0.3989715576171875, 1.497802734375
11633, -0.28871098160743713, 1.2070478200912476, 0.2906954884529114, -0.008771892637014389, 0.002094089984893799, -0.37774521112442017, -0.0601470060646534, 0.01431872695684433, -0.07329775393009186, -0.5240487456321716, -1.080794334411621, 0.06782577186822891, -1.2166596117784492, 1.3256570092068785, 5.4486978485733655, 9362.0, 30146.0, 35388.0, 9362.0, 8.390083312988281, 0.13554492592811584, -0.09681502729654312, 0.2673284411430359, 0.007599080912768841, -0.012222821824252605, 1.002103567123413, -0.054530080407857895, 0.05896186828613281, 1.500732421875, 1.928466796875, 1.593292236328125, 1.497802734375
11683, -0.29197484254837036, 1.2096178531646729, 0.29415884613990784, -0.012038147076964378, 0.0028707515448331833, -0.38139280676841736, -0.0705065205693245, 0.01675119437277317, -0.0724981427192688, -0.5240567922592163, -1.080788254737854, 0.06766236573457718, -1.316366001871654, 1.3022590877396283, 5.49571981714723, 9362.0, 30146.0, 35388.0, 9362.0, 8.390083312988281, 0.12877948582172394, -0.14227154850959778, -0.23318175971508026, 0.009090444073081017, -0.00946310255676508, 1.000002384185791, -0.07133010029792786, 0.11272048950195312, 1.505126953125, 1.34326171875, 0.01605224609375, 1.497802734375
11703, -0.2905798554420471, 1.2152577638626099, 0.29135608673095703, -0.013489732518792152, 0.0032155585940927267, -0.38284096121788025, -0.07465303689241409, 0.017729809507727623, -0.07236643880605698, -0.5240548849105835, -1.0807452201843262, 0.06760907173156738, -1.3103861317199426, 1.3029343459906215, 5.494727975689133, 9362.0, 30146.0, 35388.0, 9362.0, 8.390083312988281, 0.16213247179985046, -0.36991170048713684, -0.001634297426789999, 0.009335819631814957, -0.009775231592357159, 0.9999405145645142, -0.06152990460395813, -0.08439826965332031, 1.489013671875, 1.692626953125, 0.648193359375, 1.497802734375
11733, -0.29131001234054565, 1.2120635509490967, 0.29350364208221436, -0.015822893008589745, 0.0037693975027650595, -0.38501378893852234, -0.08089649677276611, 0.019192662090063095, -0.07247239351272583, -0.5239511728286743, -1.080841302871704, 0.06811153888702393, -1.2404778460931218, 1.1402511136818418, 5.526678733966045, 9362.0, 30146.0, 35388.0, 9362.0, 8.370248794555664, 0.030135637149214745, -0.3544384837150574, -0.20585079491138458, 0.008612212724983692, -0.011370395310223103, 1.0010148286819458, -0.06152990460395813, -0.08439826965332031, 1.489013671875, 0.494384765625, 39.19285583496094, 1.497802734375
11743, -0.29169443249702454, 1.2147095203399658, 0.29134097695350647, -0.015822893008589745, 0.0037693975027650595, -0.38501378893852234, -0.08089649677276611, 0.019192662090063095, -0.07247239351272583, -0.5240824818611145, -1.0807563066482544, 0.06761913746595383, -1.3033684633335874, 1.3092254867638076, 5.474033228044085, 9362.0, 30146.0, 35388.0, 9362.0, 8.390083312988281, 0.030135637149214745, -0.3544384837150574, -0.20585079491138458, 0.007908514700829983, -0.011191271245479584, 0.9985913634300232, -0.06152990460395813, -0.08439826965332031, 1.489013671875, 1.3388671875, 0.017120361328125, 1.497802734375
11753, -0.2904031574726105, 1.2177313566207886, 0.2892272472381592, -0.015822893008589745, 0.0037693975027650595, -0.38501378893852234, -0.08089649677276611, 0.019192662090063095, -0.07247239351272583, -0.5239554643630981, -1.0808392763137817, 0.06808397173881531, -1.245149887999036, 1.1384117218889287, 5.530579066163232, 9362.0, 30146.0, 35388.0, 9362.0, 8.370248794555664, 0.05289119482040405, 0.43796348571777344, -0.1724058836698532, 0.007908514700829983, -0.011191271245479584, 0.9985913634300232, -0.04784432426095009, -0.09335899353027344, 1.48828125, 1.3388671875, 0.017120361328125, 1.497802734375
11773, -0.2900142967700958, 1.2144275903701782, 0.2899439036846161, -0.015822893008589745, 0.0037693975027650595, -0.38501378893852234, -0.08089649677276611, 0.019192662090063095, -0.07247239351272583, -0.5239578485488892, -1.0808734893798828, 0.06817810982465744, -1.2388808329911247, 1.1707536761506674, 5.53336975979856, 9362.0, 30146.0, 35388.0, 9362.0, 8.370248794555664, 0.22445230185985565, 0.11088407039642334, -0.11968941241502762, 0.007978865876793861, -0.009803608059883118, 0.9997759461402893, -0.045645762234926224, -0.05751800537109375, 1.4912109375, 1.63916015625, 0.51190185546875, 1.497802734375
11783, -0.28951314091682434, 1.21489679813385, 0.2889561057090759, -0.015822893008589745, 0.0037693975027650595, -0.38501378893852234, -0.08089649677276611, 0.019192662090063095, -0.07247239351272583, -0.5240838527679443, -1.0808131694793701, 0.06769336014986038, -1.293328428313856, 1.3297764437138255, 5.479766685183683, 9362.0, 30146.0, 35388.0, 9362.0, 8.390083312988281, 0.040229372680187225, -0.06448610872030258, 0.06606429815292358, 0.007978865876793861, -0.009803608059883118, 0.9997759461402893, -0.045645762234926224, -0.05751800537109375, 1.4912109375, 0.87158203125, 6.975341796875, 1.497802734375
11803, -0.2870941758155823, 1.2169880867004395, 0.2903139889240265, -0.02199540100991726, 0.005232431460171938, -0.3900928795337677, -0.09546789526939392, 0.022602809593081474, -0.07260900735855103, -0.5240774154663086, -1.080797791481018, 0.06767286360263824, -1.2907961190592265, 1.341514805911146, 5.483440070755127, 9362.0, 30146.0, 35388.0, 9362.0, 8.370248794555664, 0.3147948682308197, -0.020859289914369583, 0.34291693568229675, 0.007506885100156069, -0.008091195486485958, 0.9990777969360352, -0.047644611448049545, -0.06647872924804688, 1.490478515625, 1.7490234375, 0.8068389892578125, 1.497802734375
11813, -0.2863146960735321, 1.220062494277954, 0.2911519408226013, -0.02199540100991726, 0.005232431460171938, -0.3900928795337677, -0.09546789526939392, 0.022602809593081474, -0.07260900735855103, -0.5240806341171265, -1.0808026790618896, 0.06769502907991409, -1.2960631167220025, 1.3422964281009797, 5.488467084691156, 9362.0, 30146.0, 35388.0, 9362.0, 8.390083312988281, 0.3147948682308197, -0.020859289914369583, 0.34291693568229675, 0.006518919952213764, -0.009498095139861107, 1.0002055168151855, -0.047644611448049545, -0.06647872924804688, 1.490478515625, 1.585693359375, 0.383544921875, 1.497802734375
11823, -0.28493309020996094, 1.217767357826233, 0.2944278120994568, -0.02199540100991726, 0.005232431460171938, -0.3900928795337677, -0.09546789526939392, 0.022602809593081474, -0.07260900735855103, -0.524061381816864, -1.0808041095733643, 0.06769480556249619, -1.296580280490715, 1.3390725528778376, 5.479066191170243, 9362.0, 30146.0, 35388.0, 9362.0, 8.370248794555664, 0.3147948682308197, -0.020859289914369583, 0.34291693568229675, 0.008281007409095764, -0.007705229334533215, 1.0006990432739258, -0.047644611448049545, -0.06647872924804688, 1.490478515625, 1.81787109375, 1.039459228515625, 1.497802734375
11843, -0.2848922312259674, 1.2141523361206055, 0.3015795350074768, -0.02199540100991726, 0.005232431460171938, -0.3900928795337677, -0.09546789526939392, 0.022602809593081474, -0.07260900735855103, -0.523957371711731, -1.0808789730072021, 0.06813200563192368, -1.2338450796626723, 1.1590514251437014, 5.520750107779839, 9362.0, 30146.0, 35388.0, 9362.0, 8.370248794555664, 0.10357704013586044, 0.43860575556755066, 0.34329596161842346, 0.008281007409095764, -0.007705229334533215, 1.0006990432739258, -0.04423229768872261, 0.13064002990722656, 1.506591796875, 1.59814453125, 0.4127655029296875, 1.497802734375
11853, -0.2843962013721466, 1.2096391916275024, 0.30522868037223816, -0.02199540100991726, 0.005232431460171938, -0.3900928795337677, -0.09546789526939392, 0.022602809593081474, -0.07260900735855103, -0.5239565968513489, -1.0808581113815308, 0.067825548350811, -1.2839277590511364, 1.362001053627779, 5.452762478840382, 9362.0, 30146.0, 35388.0, 9362.0, 8.370248794555664, 0.12221243977546692, -0.19459019601345062, 0.4022411108016968, 0.008281007409095764, -0.007705229334533215, 1.0006990432739258, -0.04217851534485817, -0.01271820068359375, 1.494873046875, 1.59814453125, 0.4127655029296875, 1.497802734375
11863, -0.2841993272304535, 1.2084907293319702, 0.30768918991088867, -0.02199540100991726, 0.005232431460171938, -0.3900928795337677, -0.09546789526939392, 0.022602809593081474, -0.07260900735855103, -0.5240004658699036, -1.0808300971984863, 0.06782058626413345, -1.281122200659209, 1.355066899518107, 5.464081678507291, 9362.0, 30146.0, 35388.0, 9362.0, 8.370248794555664, 0.12221243977546692, -0.19459019601345062, 0.4022411108016968, 0.008424848318099976, -0.01009000651538372, 0.9994928240776062, -0.04217851534485817, -0.01271820068359375, 1.494873046875, 1.799560546875, 0.9717864990234375, 1.497802734375
11903, -0.28501462936401367, 1.1984690427780151, 0.3205203413963318, -0.03258373960852623, 0.007732165977358818, -0.3973838686943054, -0.1162571832537651, 0.027380822226405144, -0.07291563600301743, -0.52385413646698, -1.0809288024902344, 0.06828108429908752, -1.1968253024576787, 1.1611708221995514, 5.507708597960461, 9362.0, 30146.0, 35388.0, 9362.0, 8.390083312988281, 0.12756121158599854, 0.32350873947143555, 0.4842764437198639, 0.009900170378386974, -0.009397437795996666, 1.002197504043579, -0.06703779101371765, -0.03959846496582031, 1.49267578125, 1.752685546875, 0.817962646484375, 1.497802734375
11943, -0.28607967495918274, 1.1885371208190918, 0.32360491156578064, -0.03616415336728096, 0.008575081825256348, -0.399566650390625, -0.12242244929075241, 0.028812173753976822, -0.07287871837615967, -0.5237701535224915, -1.0809459686279297, 0.06840010732412338, -1.1704981048818333, 1.1978288419505247, 5.456838052950343, 9362.0, 30146.0, 35388.0, 9362.0, 8.390083312988281, -0.011060815304517746, -0.030528947710990906, 0.2722105085849762, 0.005794368218630552, -0.010079983621835709, 0.9991934299468994, -0.06789454072713852, 0.0052013397216796875, 1.496337890625, 0.7060546875, 16.452362060546875, 1.497802734375
11953, -0.28552719950675964, 1.1877086162567139, 0.32329046726226807, -0.038653355091810226, 0.009160870686173439, -0.40102705359458923, -0.12649671733379364, 0.02976715937256813, -0.07313477993011475, -0.5238064527511597, -1.0809627771377563, 0.06836985051631927, -1.1706986760093299, 1.1990199619952193, 5.444374982667002, 9362.0, 30146.0, 35388.0, 9362.0, 8.390083312988281, -0.011060815304517746, -0.030528947710990906, 0.2722105085849762, 0.006764397025108337, -0.011224762536585331, 0.9992283582687378, -0.06789454072713852, 0.0052013397216796875, 1.496337890625, 0.7060546875, 16.452362060546875, 1.497802734375
12043, -0.2817836105823517, 1.1885058879852295, 0.2587352395057678, -0.05086173862218857, 0.012033350765705109, -0.40764275193214417, -0.14478746056556702, 0.03406095877289772, -0.07358516752719879, -0.5240247249603271, -1.0809111595153809, 0.06804396957159042, -1.2274946752533105, 1.3638871712238085, 5.318360246111718, 9362.0, 30146.0, 35388.0, 9362.0, 8.370248794555664, 0.09151866286993027, -0.5256844758987427, -0.4132890999317169, 0.005830827169120312, -0.008794449269771576, 1.0019359588623047, -0.0827435776591301, -0.07543754577636719, 1.48974609375, 1.713134765625, 0.703704833984375, 1.493408203125
12073, -0.2774229943752289, 1.1987606287002563, 0.2547893822193146, -0.05379822850227356, 0.012724067084491253, -0.40911152958869934, -0.14886289834976196, 0.03501018136739731, -0.0733344629406929, -0.5240057706832886, -1.0809082984924316, 0.06803569197654724, -1.2276436029411577, 1.3652369364116623, 5.329071514831921, 9362.0, 30146.0, 35388.0, 9362.0, 8.390083312988281, 0.008917836472392082, -0.6794140934944153, -0.020823072642087936, 0.005830827169120312, -0.008794449269771576, 1.0019359588623047, -0.08290937542915344, -0.1291980743408203, 1.4853515625, 1.398193359375, 0.03826904296875, 1.493408203125
12083, -0.27701663970947266, 1.2049052715301514, 0.2555887997150421, -0.05681636556982994, 0.01343367900699377, -0.41058045625686646, -0.15295588970184326, 0.03595038130879402, -0.07353439182043076, -0.5240126848220825, -1.0809040069580078, 0.06805869936943054, -1.226186701668532, 1.3682364536109333, 5.316032057759719, 9362.0, 30146.0, 35388.0, 9362.0, 8.370248794555664, 0.008917836472392082, -0.6794140934944153, -0.020823072642087936, 0.006141600199043751, -0.008820834569633007, 1.0030006170272827, -0.08290937542915344, -0.1291980743408203, 1.4853515625, 1.398193359375, 0.03826904296875, 1.493408203125
12113, -0.2732137143611908, 1.2263199090957642, 0.2638826370239258, -0.05991670861840248, 0.014162018895149231, -0.4120475947856903, -0.15708479285240173, 0.03688336908817291, -0.07312579452991486, -0.5239966511726379, -1.080881118774414, 0.06803340464830399, -1.2385707717372318, 1.3611042849624937, 5.314682364162415, 9362.0, 30146.0, 35388.0, 9362.0, 8.390083312988281, 0.16443456709384918, -0.9266067147254944, 0.3503586947917938, 0.00899090152233839, -0.007593498565256596, 1.0001381635665894, -0.06913547962903976, -0.07543754577636719, 1.48974609375, 1.430419921875, 0.0756378173828125, 1.493408203125
12123, -0.27198517322540283, 1.2309876680374146, 0.26927876472473145, -0.05991670861840248, 0.014162018895149231, -0.4120475947856903, -0.15708479285240173, 0.03688336908817291, -0.07312579452991486, -0.5239817500114441, -1.080912709236145, 0.06805370002985, -1.2279159228240013, 1.3548805557045682, 5.325344337446196, 9362.0, 30146.0, 35388.0, 9362.0, 8.390083312988281, 0.14514930546283722, -0.30038386583328247, 0.47072887420654297, 0.011854183860123158, -0.009911243803799152, 1.0008196830749512, -0.06913547962903976, -0.07543754577636719, 1.48974609375, 1.862548828125, 1.2283172607421875, 1.493408203125
12133, -0.27151215076446533, 1.233566164970398, 0.27351343631744385, -0.05991670861840248, 0.014162018895149231, -0.4120475947856903, -0.15708479285240173, 0.03688336908817291, -0.07312579452991486, -0.5239819884300232, -1.0808998346328735, 0.06803891062736511, -1.2340500148091909, 1.3461212843034218, 5.344373192656158, 9362.0, 30146.0, 35388.0, 9362.0, 8.390083312988281, 0.14514930546283722, -0.30038386583328247, 0.47072887420654297, 0.011392789892852306, -0.009231537580490112, 1.0032016038894653, -0.06913547962903976, -0.07543754577636719, 1.48974609375, 1.9072265625, 1.4620513916015625, 1.493408203125
12143, -0.27277716994285583, 1.2356326580047607, 0.2749045491218567, -0.05991670861840248, 0.014162018895149231, -0.4120475947856903, -0.15708479285240173, 0.03688336908817291, -0.07312579452991486, -0.5239580869674683, -1.080883502960205, 0.06803421676158905, -1.2375982164272739, 1.33858270700253, 5.3407812069763825, 9362.0, 30146.0, 35388.0, 9362.0, 8.390083312988281, 0.14514930546283722, -0.30038386583328247, 0.47072887420654297, 0.011553828604519367, -0.00625822227448225, 1.0011134147644043, -0.06913547962903976, -0.07543754577636719, 1.48974609375, 1.174072265625, 0.5496826171875, 1.493408203125
12153, -0.27381905913352966, 1.2340871095657349, 0.27740615606307983, -0.05991670861840248, 0.014162018895149231, -0.4120475947856903, -0.15708479285240173, 0.03688336908817291, -0.07312579452991486, -0.5240156650543213, -1.0808817148208618, 0.06792464107275009, -1.2563050031257414, 1.2675606046017833, 5.416590577759241, 9362.0, 30146.0, 35388.0, 9362.0, 8.370248794555664, 0.14514930546283722, -0.30038386583328247, 0.47072887420654297, 0.011713143438100815, -0.007367810234427452, 0.9962877035140991, -0.06913547962903976, -0.07543754577636719, 1.48974609375, 1.174072265625, 0.5496826171875, 1.493408203125
12173, -0.27726536989212036, 1.2235186100006104, 0.2820107340812683, -0.06971849501132965, 0.016457760706543922, -0.4164290428161621, -0.16969850659370422, 0.03963414952158928, -0.07272303104400635, -0.5240335464477539, -1.0808441638946533, 0.06784991174936295, -1.2478499958489169, 1.2711099515616695, 5.401551374005201, 9362.0, 30146.0, 35388.0, 9362.0, 8.370248794555664, -0.1691484898328781, 0.8023594617843628, -0.1566060483455658, 0.011750048026442528, -0.00865554716438055, 0.9975487589836121, -0.06913547962903976, -0.07543754577636719, 1.48974609375, 1.701416015625, 0.671722412109375, 1.493408203125
12223, -0.28474652767181396, 1.183202862739563, 0.27526339888572693, -0.0802779421210289, 0.01891900971531868, -0.4208168685436249, -0.18222038447856903, 0.04242632910609245, -0.07306637614965439, -0.5239552855491638, -1.0808557271957397, 0.0678124874830246, -1.2651370863663454, 1.3256566782485493, 5.4739610857944125, 9362.0, 30146.0, 35388.0, 9362.0, 8.390083312988281, -0.07038526982069016, 0.17094093561172485, -0.18441633880138397, 0.007182674948126078, -0.008103456348180771, 1.0023157596588135, -0.09814154356718063, -0.03959846496582031, 1.49267578125, 0.69287109375, 17.476181030273438, 1.493408203125
12243, -0.2866613566875458, 1.1774803400039673, 0.26890185475349426, -0.0802779421210289, 0.01891900971531868, -0.4208168685436249, -0.18222038447856903, 0.04242632910609245, -0.07306637614965439, -0.5238844156265259, -1.0809295177459717, 0.06826907396316528, -1.1983123817960188, 1.1766244570171693, 5.503927226363605, 9362.0, 30146.0, 35388.0, 9362.0, 8.390083312988281, -0.07038526982069016, 0.17094093561172485, -0.18441633880138397, 0.0030280048958957195, -0.01165206078439951, 1.0010935068130493, -0.09814154356718063, -0.03959846496582031, 1.49267578125, 1.4794921875, 0.155975341796875, 1.493408203125
12253, -0.28551679849624634, 1.1772202253341675, 0.264164000749588, -0.0802779421210289, 0.01891900971531868, -0.4208168685436249, -0.18222038447856903, 0.04242632910609245, -0.07306637614965439, -0.523879885673523, -1.0809376239776611, 0.06827275454998016, -1.1948150252479515, 1.1789327871483977, 5.498298219543632, 9362.0, 30146.0, 35388.0, 9362.0, 8.370248794555664, -0.07038526982069016, 0.17094093561172485, -0.18441633880138397, 0.0031206002458930016, -0.010949776507914066, 0.9991557598114014, -0.09814154356718063, -0.03959846496582031, 1.49267578125, 1.4794921875, 0.155975341796875, 1.493408203125
12283, -0.2821930944919586, 1.1878501176834106, 0.2520342171192169, -0.09157618135213852, 0.021550610661506653, -0.42520979046821594, -0.1943654716014862, 0.04529699683189392, -0.07328315824270248, -0.5239132642745972, -1.0809199810028076, 0.06825373321771622, -1.205086396097901, 1.2052277158771005, 5.505243328893946, 9362.0, 30146.0, 35388.0, 9362.0, 8.390083312988281, -0.07038526982069016, 0.17094093561172485, -0.18441633880138397, 0.007392305880784988, -0.010983718559145927, 0.9991819858551025, -0.051264140754938126, 0.08584022521972656, 1.5029296875, 1.130126953125, 0.9273529052734375, 1.493408203125
12343, -0.27061837911605835, 1.2278181314468384, 0.24835316836833954, -0.10154912620782852, 0.02387450635433197, -0.42888370156288147, -0.20460276305675507, 0.04764435812830925, -0.0735807791352272, -0.5239033102989197, -1.0809321403503418, 0.06829512864351273, -1.195467665950654, 1.1959419175839514, 5.50614470757028, 9362.0, 30146.0, 35388.0, 9362.0, 8.370248794555664, 0.195403054356575, -0.5790120363235474, 0.21926532685756683, 0.008293270133435726, -0.009118534624576569, 1.0017465353012085, -0.050644464790821075, -0.08439826965332031, 1.489013671875, 1.272216796875, 0.1009979248046875, 1.493408203125
12353, -0.2689707279205322, 1.2349053621292114, 0.2501319348812103, -0.10154912620782852, 0.02387450635433197, -0.42888370156288147, -0.20460276305675507, 0.04764435812830925, -0.0735807791352272, -0.5238919258117676, -1.0809353590011597, 0.06827586144208908, -1.1963797399774085, 1.2017723685055728, 5.5054822504122685, 9362.0, 30146.0, 35388.0, 9362.0, 8.370248794555664, 0.022673891857266426, -0.4365709125995636, 0.1060686707496643, 0.008293270133435726, -0.009118534624576569, 1.0017465353012085, -0.048918645828962326, -0.030637741088867188, 1.493408203125, 1.272216796875, 0.1009979248046875, 1.493408203125
12363, -0.2679208219051361, 1.2396224737167358, 0.25227078795433044, -0.10154912620782852, 0.02387450635433197, -0.42888370156288147, -0.20460276305675507, 0.04764435812830925, -0.0735807791352272, -0.523902177810669, -1.0809539556503296, 0.06823599338531494, -1.19117948217243, 1.1986461205942476, 5.503605955376941, 9362.0, 30146.0, 35388.0, 9362.0, 8.390083312988281, 0.022673891857266426, -0.4365709125995636, 0.1060686707496643, 0.009386472404003143, -0.00816903542727232, 0.9987035989761353, -0.048918645828962326, -0.030637741088867188, 1.493408203125, 0.759521484375, 12.74224853515625, 1.493408203125
12373, -0.26895296573638916, 1.2382428646087646, 0.257213294506073, -0.10154912620782852, 0.02387450635433197, -0.42888370156288147, -0.20460276305675507, 0.04764435812830925, -0.0735807791352272, -0.5238990783691406, -1.0809471607208252, 0.068248450756073, -1.1891976567579543, 1.1929745462858534, 5.509197714751059, 9362.0, 30146.0, 35388.0, 9362.0, 8.370248794555664, -0.07483173161745071, -0.20631636679172516, 0.1095702201128006, 0.009386472404003143, -0.00816903542727232, 0.9987035989761353, -0.048918645828962326, -0.030637741088867188, 1.493408203125, 1.081787109375, 1.5082244873046875, 1.493408203125
12383, -0.2696785032749176, 1.237594723701477, 0.25922733545303345, -0.11204130947589874, 0.026313692331314087, -0.4325672686100006, -0.21511858701705933, 0.04991210252046585, -0.07404424995183945, -0.5239028930664062, -1.080918312072754, 0.06825374811887741, -1.2066654210958578, 1.1977964760125133, 5.504556998458291, 9362.0, 30146.0, 35388.0, 9362.0, 8.390083312988281, 0.0245678648352623, -0.03245298191905022, 0.08966507762670517, 0.009386472404003143, -0.00816903542727232, 0.9987035989761353, -0.059759948402643204, 0.03208160400390625, 1.49853515625, 1.081787109375, 1.5082244873046875, 1.493408203125
12403, -0.2693243622779846, 1.2391072511672974, 0.2612868845462799, -0.1163860410451889, 0.027320945635437965, -0.4340517520904541, -0.21935638785362244, 0.050814032554626465, -0.07432309538125992, -0.5238845944404602, -1.0809471607208252, 0.06825952976942062, -1.196077644454236, 1.1918291144592956, 5.503223576641541, 9362.0, 30146.0, 35388.0, 9362.0, 8.370248794555664, -0.1416609287261963, 0.4730573296546936, 0.10502076894044876, 0.009386472404003143, -0.00816903542727232, 0.9987035989761353, -0.05582365766167641, -0.05751800537109375, 1.4912109375, 1.5234375, 0.2439727783203125, 1.493408203125
12413, -0.270246297121048, 1.2347018718719482, 0.262576162815094, -0.1163860410451889, 0.027320945635437965, -0.4340517520904541, -0.21935638785362244, 0.050814032554626465, -0.07432309538125992, -0.5238901972770691, -1.080932855606079, 0.06823194026947021, -1.2104502814851539, 1.1952394864569271, 5.503148735392744, 9362.0, 30146.0, 35388.0, 9362.0, 8.370248794555664, -0.27927595376968384, 0.7923581600189209, 0.24973303079605103, 0.009571126662194729, -0.010457281954586506, 1.0009346008300781, -0.05582365766167641, -0.05751800537109375, 1.4912109375, 1.209228515625, 0.3337554931640625, 1.493408203125
12433, -0.27374935150146484, 1.2223315238952637, 0.26650887727737427, -0.12306217849254608, 0.028865722939372063, -0.4362828731536865, -0.22571803629398346, 0.05217144265770912, -0.07432857900857925, -0.5238815546035767, -1.0809192657470703, 0.06824223697185516, -1.2101120608108296, 1.1853672302176506, 5.507140973069764, 9362.0, 30146.0, 35388.0, 9362.0, 8.370248794555664, -0.27979743480682373, 0.5073130130767822, 0.045716263353824615, 0.009571126662194729, -0.010457281954586506, 1.0009346008300781, -0.040928833186626434, -0.09335899353027344, 1.48828125, 1.54541015625, 0.291656494140625, 1.493408203125
12443, -0.2758498787879944, 1.216420292854309, 0.2669089138507843, -0.12306217849254608, 0.028865722939372063, -0.4362828731536865, -0.22571803629398346, 0.05217144265770912, -0.07432857900857925, -0.5238725543022156, -1.0809394121170044, 0.06823842972517014, -1.200983056528122, 1.1725972928337285, 5.510318504781025, 9362.0, 30146.0, 35388.0, 9362.0, 8.370248794555664, -0.27979743480682373, 0.5073130130767822, 0.045716263353824615, 0.0071727922186255455, -0.009775492362678051, 1.0000146627426147, -0.040928833186626434, -0.09335899353027344, 1.48828125, 1.62158203125, 0.46893310546875, 1.493408203125
12453, -0.27721107006073, 1.2132248878479004, 0.266046941280365, -0.12306217849254608, 0.028865722939372063, -0.4362828731536865, -0.22571803629398346, 0.05217144265770912, -0.07432857900857925, -0.523859977722168, -1.0809332132339478, 0.06826356798410416, -1.1976841012021735, 1.1816745248078746, 5.5130818355932565, 9362.0, 30146.0, 35388.0, 9362.0, 8.390083312988281, -0.08951795101165771, -0.005936724599450827, -0.07897172123193741, 0.0071727922186255455, -0.009775492362678051, 1.0000146627426147, -0.04905753955245018, -0.08439826965332031, 1.489013671875, 1.62158203125, 0.46893310546875, 1.493408203125
12463, -0.27808108925819397, 1.21102774143219, 0.26607412099838257, -0.12306217849254608, 0.028865722939372063, -0.4362828731536865, -0.22571803629398346, 0.05217144265770912, -0.07432857900857925, -0.5238616466522217, -1.0809420347213745, 0.06826376914978027, -1.1970125577389266, 1.1745038809301889, 5.514961957949581, 9362.0, 30146.0, 35388.0, 9362.0, 8.370248794555664, -0.08951795101165771, -0.005936724599450827, -0.07897172123193741, 0.005191759672015905, -0.009278451092541218, 1.0001063346862793, -0.04905753955245018, -0.08439826965332031, 1.489013671875, 1.470703125, 0.1399383544921875, 1.493408203125
12473, -0.27831292152404785, 1.2074054479599, 0.26491779088974, -0.12306217849254608, 0.028865722939372063, -0.4362828731536865, -0.22571803629398346, 0.05217144265770912, -0.07432857900857925, -0.5238756537437439, -1.0809409618377686, 0.06825469434261322, -1.1947009163353328, 1.1896258268662336, 5.508903167250669, 9362.0, 30146.0, 35388.0, 9362.0, 8.370248794555664, 0.08883337676525116, -0.1331385374069214, 0.19525668025016785, 0.005191759672015905, -0.009278451092541218, 1.0001063346862793, -0.04905753955245018, -0.08439826965332031, 1.489013671875, 1.79150390625, 0.9436492919921875, 1.493408203125
12483, -0.2777072489261627, 1.2070558071136475, 0.2650930881500244, -0.12306217849254608, 0.028865722939372063, -0.4362828731536865, -0.22571803629398346, 0.05217144265770912, -0.07432857900857925, -0.5238797068595886, -1.0809500217437744, 0.06823781132698059, -1.1972578434529415, 1.1869946209975524, 5.503938149829, 9362.0, 30146.0, 35388.0, 9362.0, 8.390083312988281, -0.12259212881326675, 0.3527124226093292, 0.09897251427173615, 0.005191759672015905, -0.009278451092541218, 1.0001063346862793, -0.04905753955245018, -0.08439826965332031, 1.489013671875, 1.79150390625, 0.9436492919921875, 1.493408203125
12523, -0.27830174565315247, 1.2120863199234009, 0.2663585841655731, -0.1442209780216217, 0.03374824672937393, -0.44300511479377747, -0.2444256991147995, 0.05634784698486328, -0.07464028894901276, -0.5238978266716003, -1.0809437036514282, 0.06824792176485062, -1.1962723834388396, 1.2016577606144665, 5.503591601691046, 9362.0, 30146.0, 35388.0, 9362.0, 8.370248794555664, 0.039977096021175385, -0.5491077303886414, -0.06473854184150696, 0.0057849278673529625, -0.013317184522747993, 0.9980471730232239, -0.04770900681614876, -0.1739978790283203, 1.481689453125, 0.712646484375, 15.957183837890625, 1.493408203125
12553, -0.27639877796173096, 1.2302531003952026, 0.26630815863609314, -0.15164698660373688, 0.035459671169519424, -0.4452511668205261, -0.25065702199935913, 0.05774645134806633, -0.07498717308044434, -0.5239071846008301, -1.0809422731399536, 0.06824419647455215, -1.1958539720743466, 1.1959086033010067, 5.503823186541868, 9362.0, 30146.0, 35388.0, 9362.0, 8.370248794555664, 0.039977096021175385, -0.5491077303886414, -0.06473854184150696, 0.007046123500913382, -0.010589641518890858, 1.0019612312316895, -0.056659139692783356, 0.13064002990722656, 1.506591796875, 1.8076171875, 1.0009613037109375, 1.493408203125
12573, -0.27371713519096375, 1.2379995584487915, 0.26707157492637634, -0.15164698660373688, 0.035459671169519424, -0.4452511668205261, -0.25065702199935913, 0.05774645134806633, -0.07498717308044434, -0.5238931775093079, -1.080945372581482, 0.06826040893793106, -1.1885245192256069, 1.194402811523048, 5.492518451131954, 9362.0, 30146.0, 35388.0, 9362.0, 8.390083312988281, 0.16976571083068848, -0.092649444937706, 0.18425510823726654, 0.0069784000515937805, -0.00986920204013586, 0.9980325102806091, -0.056659139692783356, 0.13064002990722656, 1.506591796875, 1.603271484375, 0.4249420166015625, 1.493408203125
12603, -0.26905545592308044, 1.2439669370651245, 0.2680108845233917, -0.16184191405773163, 0.037806637585163116, -0.44824910163879395, -0.2591019868850708, 0.059595171362161636, -0.07514627277851105, -0.5238838195800781, -1.0809476375579834, 0.06824660301208496, -1.1897438948459231, 1.1886120758048548, 5.502533255127787, 9362.0, 30146.0, 35388.0, 9362.0, 8.370248794555664, 0.05080011114478111, -0.20164234936237335, -0.058578673750162125, 0.0069784000515937805, -0.00986920204013586, 0.9980325102806091, -0.056659139692783356, 0.13064002990722656, 1.506591796875, 1.787841796875, 0.9309539794921875, 1.493408203125
12623, -0.2676498293876648, 1.2440640926361084, 0.2664923667907715, -0.16184191405773163, 0.037806637585163116, -0.44824910163879395, -0.2591019868850708, 0.059595171362161636, -0.07514627277851105, -0.5238932967185974, -1.0809340476989746, 0.0682414323091507, -1.1922170329431816, 1.1783499613648303, 5.499555454843265, 9362.0, 30146.0, 35388.0, 9362.0, 8.370248794555664, -0.2216150015592575, -0.05845414474606514, -0.04383311793208122, 0.009322693571448326, -0.009269330650568008, 1.0013806819915771, -0.038674045354127884, 0.10376167297363281, 1.50439453125, 1.877197265625, 1.299468994140625, 1.491943359375
12633, -0.2682044506072998, 1.24539053440094, 0.26592138409614563, -0.16184191405773163, 0.037806637585163116, -0.44824910163879395, -0.2591019868850708, 0.059595171362161636, -0.07514627277851105, -0.5238603949546814, -1.080918788909912, 0.06824781745672226, -1.183049850857006, 1.1807213790349067, 5.49692489739181, 9362.0, 30146.0, 35388.0, 9362.0, 8.390083312988281, -0.2216150015592575, -0.05845414474606514, -0.04383311793208122, 0.009322693571448326, -0.009269330650568008, 1.0013806819915771, -0.046152934432029724, -0.07543754577636719, 1.48974609375, 1.409912109375, 0.0501251220703125, 1.491943359375
12643, -0.2668563425540924, 1.2453997135162354, 0.2654185891151428, -0.16184191405773163, 0.037806637585163116, -0.44824910163879395, -0.2591019868850708, 0.059595171362161636, -0.07514627277851105, -0.5238602757453918, -1.0809285640716553, 0.06822486221790314, -1.193512175544238, 1.1850273704764902, 5.506525772852797, 9362.0, 30146.0, 35388.0, 9362.0, 8.370248794555664, 0.13861031830310822, 0.2204238921403885, 0.012981398962438107, 0.009322693571448326, -0.009269330650568008, 1.0013806819915771, -0.046152934432029724, -0.07543754577636719, 1.48974609375, 1.5732421875, 0.354736328125, 1.491943359375
12663, -0.267265647649765, 1.241222620010376, 0.26227131485939026, -0.180500790476799, 0.04208910092711449, -0.45350176095962524, -0.2740228474140167, 0.06275016069412231, -0.07497617602348328, -0.5238632559776306, -1.0809193849563599, 0.06821126490831375, -1.189652067905149, 1.1856092029524063, 5.503647394147084, 9362.0, 30146.0, 35388.0, 9362.0, 8.370248794555664, 0.06762900948524475, 0.6259830594062805, 0.29049909114837646, 0.008311234414577484, -0.009007424116134644, 0.9997434616088867, -0.046152934432029724, -0.07543754577636719, 1.48974609375, 1.817138671875, 1.0365447998046875, 1.491943359375
12673, -0.26720190048217773, 1.2353904247283936, 0.26383039355278015, -0.180500790476799, 0.04208910092711449, -0.45350176095962524, -0.2740228474140167, 0.06275016069412231, -0.07497617602348328, -0.523866593837738, -1.0809190273284912, 0.06821729987859726, -1.189297786587998, 1.184594092428057, 5.499639051875107, 9362.0, 30146.0, 35388.0, 9362.0, 8.390083312988281, 0.09122003614902496, -0.011906404048204422, -0.24560877680778503, 0.008311234414577484, -0.009007424116134644, 0.9997434616088867, -0.046152934432029724, -0.07543754577636719, 1.48974609375, 1.746826171875, 0.800201416015625, 1.491943359375
12683, -0.26656150817871094, 1.2344597578048706, 0.2621007561683655, -0.180500790476799, 0.04208910092711449, -0.45350176095962524, -0.2740228474140167, 0.06275016069412231, -0.07497617602348328, -0.5238449573516846, -1.080910325050354, 0.06822623312473297, -1.20277414729602, 1.1827813158235756, 5.511556089315037, 9362.0, 30146.0, 35388.0, 9362.0, 8.370248794555664, 0.09122003614902496, -0.011906404048204422, -0.24560877680778503, 0.008311234414577484, -0.009007424116134644, 0.9997434616088867, -0.05404265224933624, -0.14711761474609375, 1.48388671875, 1.746826171875, 0.800201416015625, 1.491943359375
12693, -0.2676812708377838, 1.232856273651123, 0.2635507881641388, -0.180500790476799, 0.04208910092711449, -0.45350176095962524, -0.2740228474140167, 0.06275016069412231, -0.07497617602348328, -0.5238558053970337, -1.0808968544006348, 0.06819698959589005, -1.2021517263577315, 1.1791666509763843, 5.510496477988552, 9362.0, 30146.0, 35388.0, 9362.0, 8.370248794555664, 0.09122003614902496, -0.011906404048204422, -0.24560877680778503, 0.006074192468076944, -0.00889052264392376, 1.0008686780929565, -0.05404265224933624, -0.14711761474609375, 1.48388671875, 1.646484375, 0.5300445556640625, 1.491943359375
12703, -0.2689495086669922, 1.230848789215088, 0.2642117738723755, -0.180500790476799, 0.04208910092711449, -0.45350176095962524, -0.2740228474140167, 0.06275016069412231, -0.07497617602348328, -0.5238708853721619, -1.0809037685394287, 0.0681908056139946, -1.2069805630258765, 1.1707379523087127, 5.507593129330055, 9362.0, 30146.0, 35388.0, 9362.0, 8.370248794555664, 0.06515376269817352, 0.3460731506347656, -0.03238127753138542, 0.006074192468076944, -0.00889052264392376, 1.0008686780929565, -0.05404265224933624, -0.14711761474609375, 1.48388671875, 1.646484375, 0.5300445556640625, 1.491943359375
12713, -0.26895585656166077, 1.2269129753112793, 0.2647920548915863, -0.19446763396263123, 0.045282550156116486, -0.45724931359291077, -0.2846333086490631, 0.06498914957046509, -0.07482359558343887, -0.5238766670227051, -1.0809098482131958, 0.0681915208697319, -1.2055512937536945, 1.1796537551819313, 5.513633911994581, 9362.0, 30146.0, 35388.0, 9362.0, 8.370248794555664, 0.06515376269817352, 0.3460731506347656, -0.03238127753138542, 0.006035835947841406, -0.007025248371064663, 0.9996604919433594, -0.05404265224933624, -0.14711761474609375, 1.48388671875, 1.646484375, 0.5300445556640625, 1.491943359375
12733, -0.27091971039772034, 1.2288665771484375, 0.2649160325527191, -0.20020247995853424, 0.04659135639667511, -0.45874491333961487, -0.2888467311859131, 0.06589101254940033, -0.07479793578386307, -0.5238790512084961, -1.0808857679367065, 0.06817614287137985, -1.2019669782651143, 1.1887206479831889, 5.480351351823654, 9362.0, 30146.0, 35388.0, 9362.0, 8.390083312988281, -0.11376561224460602, -0.3279019296169281, -0.2525056004524231, 0.006035835947841406, -0.007025248371064663, 0.9996604919433594, -0.08072619885206223, 0.12168121337890625, 1.505859375, 1.38427734375, 0.027099609375, 1.491943359375
12793, -0.26796263456344604, 1.248423457145691, 0.2677065432071686, -0.217912957072258, 0.05062636733055115, -0.4632381200790405, -0.30152425169944763, 0.06860987842082977, -0.07511182874441147, -0.523815393447876, -1.0808637142181396, 0.06812746077775955, -1.1908715372642564, 1.2352626983085884, 5.509070816736764, 9362.0, 30146.0, 35388.0, 9362.0, 8.370248794555664, 0.1021556705236435, -0.200012668967247, -0.2496347278356552, 0.00801105611026287, -0.012233622372150421, 1.0009815692901611, -0.051931340247392654, -0.030637741088867188, 1.493408203125, 1.6318359375, 0.4938812255859375, 1.491943359375
12803, -0.2671871483325958, 1.2514504194259644, 0.26648762822151184, -0.217912957072258, 0.05062636733055115, -0.4632381200790405, -0.30152425169944763, 0.06860987842082977, -0.07511182874441147, -0.5238245129585266, -1.0808790922164917, 0.06811948120594025, -1.188958401785138, 1.2265249405434417, 5.512612035836133, 9362.0, 30146.0, 35388.0, 9362.0, 8.370248794555664, 0.35913288593292236, -0.1622963547706604, -0.01613154262304306, 0.00801105611026287, -0.012233622372150421, 1.0009815692901611, -0.051931340247392654, -0.030637741088867188, 1.493408203125, 1.669921875, 0.589080810546875, 1.491943359375
12833, -0.26295825839042664, 1.2588670253753662, 0.26532119512557983, -0.23014502227306366, 0.053406715393066406, -0.4662424921989441, -0.3100951015949249, 0.070402130484581, -0.07497857511043549, -0.5238054394721985, -1.080859899520874, 0.06814267486333847, -1.1840023135152218, 1.2288633022294562, 5.521354239178789, 9362.0, 30146.0, 35388.0, 9362.0, 8.390083312988281, -0.01641564629971981, -0.20953817665576935, -0.025665249675512314, 0.007898084819316864, -0.009541675448417664, 0.9999837875366211, -0.064766526222229, -0.03959846496582031, 1.49267578125, 1.638427734375, 0.510040283203125, 1.491943359375
12913, -0.2587474286556244, 1.2549883127212524, 0.24819262325763702, -0.2556438446044922, 0.05917898565530777, -0.472263365983963, -0.32738834619522095, 0.07389135658740997, -0.07576190680265427, -0.523834228515625, -1.0808900594711304, 0.06813941895961761, -1.1789984019735928, 1.227422531413083, 5.506443768407093, 9362.0, 30146.0, 35388.0, 9362.0, 8.390083312988281, 0.074508897960186, 0.3241893947124481, -0.45802292227745056, 0.008286913856863976, -0.010227019898593426, 1.0016509294509888, -0.04526244476437569, -0.08439826965332031, 1.489013671875, 0.900146484375, 5.87591552734375, 1.491943359375
12933, -0.26224496960639954, 1.2512626647949219, 0.24757415056228638, -0.258928507566452, 0.059920065104961395, -0.4730212092399597, -0.3295442759990692, 0.07432447373867035, -0.07580672949552536, -0.5238454341888428, -1.080885648727417, 0.06815195828676224, -1.1762493324425891, 1.2295956313835177, 5.506076033245002, 9362.0, 30146.0, 35388.0, 9362.0, 8.370248794555664, 0.074508897960186, 0.3241893947124481, -0.45802292227745056, 0.009495208971202374, -0.010298104956746101, 1.001758337020874, -0.04526244476437569, -0.08439826965332031, 1.489013671875, 1.80029296875, 0.974456787109375, 1.491943359375
12943, -0.26128238439559937, 1.2481096982955933, 0.2466464638710022, -0.258928507566452, 0.059920065104961395, -0.4730212092399597, -0.3295442759990692, 0.07432447373867035, -0.07580672949552536, -0.5238461494445801, -1.0808771848678589, 0.06812818348407745, -1.186286315970702, 1.2434983675782405, 5.502475025915701, 9362.0, 30146.0, 35388.0, 9362.0, 8.390083312988281, -0.002453792141750455, 0.27283284068107605, 0.225171759724617, 0.009495208971202374, -0.010298104956746101, 1.001758337020874, -0.04526244476437569, -0.08439826965332031, 1.489013671875, 1.3212890625, 0.026214599609375, 1.491943359375
12953, -0.2618864178657532, 1.2462732791900635, 0.24709534645080566, -0.258928507566452, 0.059920065104961395, -0.4730212092399597, -0.3295442759990692, 0.07432447373867035, -0.07580672949552536, -0.5238421559333801, -1.0808929204940796, 0.06814892590045929, -1.186339580005686, 1.2376715450717768, 5.514261569800867, 9362.0, 30146.0, 35388.0, 9362.0, 8.370248794555664, -0.002453792141750455, 0.27283284068107605, 0.225171759724617, 0.008013307116925716, -0.009900692850351334, 0.9979482889175415, -0.04526244476437569, -0.08439826965332031, 1.489013671875, 1.390869140625, 0.0319671630859375, 1.491943359375
12963, -0.2641155421733856, 1.2495414018630981, 0.24716708064079285, -0.258928507566452, 0.059920065104961395, -0.4730212092399597, -0.3295442759990692, 0.07432447373867035, -0.07580672949552536, -0.5238434076309204, -1.08090078830719, 0.06815716624259949, -1.1824764690889857, 1.2311956032476985, 5.5181178815596565, 9362.0, 30146.0, 35388.0, 9362.0, 8.370248794555664, -0.002453792141750455, 0.27283284068107605, 0.225171759724617, 0.006508987862616777, -0.009659008122980595, 1.00027334690094, -0.04526244476437569, -0.08439826965332031, 1.489013671875, 1.812744140625, 1.01995849609375, 1.491943359375
12973, -0.26330888271331787, 1.2498221397399902, 0.2485741525888443, -0.258928507566452, 0.059920065104961395, -0.4730212092399597, -0.3295442759990692, 0.07432447373867035, -0.07580672949552536, -0.5238471031188965, -1.0809022188186646, 0.06815589964389801, -1.179345800064175, 1.2315922132242179, 5.521828968064473, 9362.0, 30146.0, 35388.0, 9362.0, 8.390083312988281, -0.002453792141750455, 0.27283284068107605, 0.225171759724617, 0.0063406797125935555, -0.010898211039602757, 1.0002940893173218, -0.04526244476437569, -0.08439826965332031, 1.489013671875, 1.342529296875, 0.0161895751953125, 1.491943359375
12993, -0.2631567418575287, 1.2521929740905762, 0.24920538067817688, -0.28252241015434265, 0.06522998958826065, -0.4783165454864502, -0.3445481061935425, 0.07739696651697159, -0.07575922459363937, -0.5238433480262756, -1.0809122323989868, 0.06817318499088287, -1.1810014370669963, 1.2278546220375688, 5.523514157195008, 9362.0, 30146.0, 35388.0, 9362.0, 8.370248794555664, -0.002453792141750455, 0.27283284068107605, 0.225171759724617, 0.007106499746441841, -0.009851953946053982, 0.9994837045669556, -0.04526244476437569, -0.08439826965332031, 1.489013671875, 0.61083984375, 24.925796508789062, 1.491943359375
13103, -0.2528627812862396, 1.259930968284607, 0.22393815219402313, -0.31440162658691406, 0.07237422466278076, -0.48513850569725037, -0.3639104664325714, 0.08134759217500687, -0.07600050419569016, -0.5238450169563293, -1.0809178352355957, 0.06816895306110382, -1.1881390748818519, 1.2297142228469795, 5.531180438176054, 9362.0, 30146.0, 35388.0, 9362.0, 8.390083312988281, 0.10934220999479294, -0.03149908781051636, -0.3588349223136902, 0.0069440435618162155, -0.008434870280325413, 0.9989591240882874, -0.0600464902818203, -0.09335899353027344, 1.48828125, 1.286865234375, 0.070281982421875, 1.5
13133, -0.25107160210609436, 1.2587788105010986, 0.21523557603359222, -0.31440162658691406, 0.07237422466278076, -0.48513850569725037, -0.3639104664325714, 0.08134759217500687, -0.07600050419569016, -0.5238425135612488, -1.080918312072754, 0.0681736096739769, -1.181683880903399, 1.232909470469309, 5.526127039570344, 9362.0, 30146.0, 35388.0, 9362.0, 8.370248794555664, -0.015519173815846443, 0.02386239916086197, -0.18519683182239532, 0.006349549163132906, -0.008243795484304428, 1.0021400451660156, -0.06663293391466141, -0.0037593841552734375, 1.49560546875, 1.453125, 0.1099090576171875, 1.5
13143, -0.2518758475780487, 1.2582828998565674, 0.2135406881570816, -0.31440162658691406, 0.07237422466278076, -0.48513850569725037, -0.3639104664325714, 0.08134759217500687, -0.07600050419569016, -0.5238683819770813, -1.080911636352539, 0.06815905123949051, -1.1882279445272008, 1.243700771664038, 5.523765642802129, 9362.0, 30146.0, 35388.0, 9362.0, 8.390083312988281, -0.015519173815846443, 0.02386239916086197, -0.18519683182239532, 0.008429594337940216, -0.010285450145602226, 1.001173973083496, -0.06663293391466141, -0.0037593841552734375, 1.49560546875, 1.453125, 0.1099090576171875, 1.5
