timeTick, roll, pitch, yaw, stateX, stateY, stateZ, stateVX, stateVY, stateVZ, otX0, otY0, otZ0, otRoll0, otPitch0, otYaw0, left wing, pitch motor, yaw motor, right wing, voltage, roll rate, pitch rate, yaw rate, A_x, A_y, A_z, current, i_raw, v_raw, airflow_voltage, airflow_speed, pot_Pitch
11928, -1.3981549739837646, -3.8062126636505127, 2.4890284538269043, 0, 0, 0, 0, 0, 0, -0.48834526538848877, -1.0181773900985718, 0.06663845479488373, -1.536084394935015, 1.7876590941349377, 3.1782974553918093, 0, 0, 0, 0, 0, 0, 0, 0, 0, 0, 0, 0, 0, 0, 0, 0, 0
11938, -1.3975335359573364, -3.8059604167938232, 2.4865241050720215, 7.897376235632692e-06, 3.3009441722242627e-06, -0.19000591337680817, 0.003984077833592892, 0.001665189047344029, -0.03714920952916145, -0.488435298204422, -1.0182445049285889, 0.06658084690570831, -1.5470736934206006, 1.7639100211035554, 3.21865452525005, 9362.0, 30146.0, 35388.0, 9362.0, 8.390083312988281, 0.07658955454826355, 0.13281075656414032, 0.06695887446403503, 0.020486967638134956, -0.013725090771913528, 0.9983425140380859, -0.06299704313278198, 0.05896186828613281, 1.500732421875, 0, 0, 0
11948, -1.397532343864441, -3.8059377670288086, 2.4851698875427246, 7.968699355842546e-05, 3.330184699734673e-05, -0.19037942588329315, 0.010373965837061405, 0.0043347119353711605, -0.03755171597003937, -0.48839300870895386, -1.018216609954834, 0.06664694100618362, -1.5521780003569003, 1.7943960676220456, 3.1974468241980305, 9362.0, 30146.0, 35388.0, 9362.0, 8.390083312988281, -0.015928033739328384, -0.07869863510131836, -0.1467185914516449, 0.021785272285342216, -0.013389176689088345, 1.000034213066101, -0.06920232623815536, 0.07688140869140625, 1.502197265625, 0.894287109375, 6.0905609130859375, 1.49560546875
11958, -1.3974941968917847, -3.8057479858398438, 2.484282970428467, 0.00021537387510761619, 8.999105921247974e-05, -0.19075696170330048, 0.0167634729295969, 0.007002979516983032, -0.037955112755298615, -0.4884406626224518, -1.0182431936264038, 0.06662937253713608, -1.5603896131304276, 1.7886896311044609, 3.211732636835197, 9362.0, 30146.0, 35388.0, 9362.0, 8.390083312988281, 0.04200801998376846, -0.11052434146404266, -0.23529775440692902, 0.02106192335486412, -0.01345775369554758, 1.0002601146697998, -0.07135159522294998, -0.15607833862304688, 1.483154296875, 1.2919921875, 0.0613250732421875, 1.493408203125
11968, -1.3974627256393433, -3.804708957672119, 2.4820728302001953, 0.0004149979504290968, 0.00017337972531095147, -0.19113789498806, 0.0231613889336586, 0.00967465527355671, -0.038229987025260925, -0.48844605684280396, -1.0182515382766724, 0.06661543250083923, -1.5617334442744275, 1.792265970987387, 3.2202819715757265, 9362.0, 30146.0, 35388.0, 9362.0, 8.390083312988281, -0.014548062346875668, -0.08672145009040833, 0.05701644346117973, 0.02310473471879959, -0.012909779325127602, 1.000938892364502, -0.06549063324928284, -0.08439826965332031, 1.489013671875, 1.20263671875, 0.368988037109375, 1.493408203125
11978, -1.397935152053833, -3.8047749996185303, 2.482617139816284, 0.0006786189624108374, 0.0002834922634065151, -0.1915212720632553, 0.029562922194600105, 0.012347602285444736, -0.038446180522441864, -0.48844343423843384, -1.018242359161377, 0.06661836802959442, -1.5631676415014806, 1.789709838760274, 3.214616067211386, 9362.0, 30146.0, 35388.0, 9362.0, 8.390083312988281, 0.09678435325622559, -0.38033875823020935, 0.02493300847709179, 0.019759822636842728, -0.014158290810883045, 0.999213695526123, -0.048731956630945206, -0.030637741088867188, 1.493408203125, 1.412109375, 0.0526123046875, 1.494140625
11988, -1.3977290391921997, -3.80224347114563, 2.482795238494873, 0.0010062532965093851, 0.0004203350399620831, -0.19190672039985657, 0.03596391901373863, 0.015021013095974922, -0.03864303603768349, -0.4884478449821472, -1.0182628631591797, 0.06661068648099899, -1.5687407065489918, 1.794427244990544, 3.2207183063086884, 9362.0, 30146.0, 35388.0, 9362.0, 8.390083312988281, -0.16568410396575928, 0.00813639909029007, 0.012219514697790146, 0.021084578707814217, -0.0130833201110363, 0.9988143444061279, -0.051226355135440826, 0.09480094909667969, 1.503662109375, 1.1806640625, 0.5037689208984375, 1.49267578125
11998, -1.3979332447052002, -3.8013696670532227, 2.480895757675171, 0.0013978667557239532, 0.0005839032819494605, -0.19229461252689362, 0.04235877841711044, 0.017692655324935913, -0.03893468901515007, -0.4884549677371979, -1.0182586908340454, 0.06661655008792877, -1.5650302841872403, 1.7889678701881735, 3.209717540188536, 9362.0, 30146.0, 35388.0, 9362.0, 8.390083312988281, -0.06044162064790726, -0.14042603969573975, -0.5151212811470032, 0.019384294748306274, -0.016233352944254875, 0.9976599812507629, -0.055153001099824905, -0.03959846496582031, 1.49267578125, 1.573974609375, 0.35626220703125, 1.49560546875
12008, -1.3989052772521973, -3.801748037338257, 2.4770565032958984, 0.0018533718539401889, 0.0007741705630905926, -0.19268596172332764, 0.04874234274029732, 0.020360587164759636, -0.03933457285165787, -0.48844215273857117, -1.018250584602356, 0.06664259731769562, -1.5651749144401583, 1.791593565760195, 3.216797194779164, 9362.0, 30146.0, 35388.0, 9362.0, 8.390083312988281, -0.24344554543495178, 0.10780175030231476, 0.020855948328971863, 0.022463040426373482, -0.012027343735098839, 1.0019794702529907, -0.05265706405043602, 0.15752029418945312, 1.5087890625, 1.76220703125, 0.8473968505859375, 1.491943359375
12018, -1.3994032144546509, -3.801595687866211, 2.476884365081787, 0.002372702583670616, 0.000991116277873516, -0.1930813491344452, 0.055123984813690186, 0.023028133437037468, -0.039743389934301376, -0.4884684085845947, -1.0182572603225708, 0.0666220411658287, -1.5663335643651548, 1.7952476603994114, 3.2176586314333857, 9362.0, 30146.0, 35388.0, 9362.0, 8.390083312988281, 0.03530286252498627, -0.1426597684621811, -0.2661086916923523, 0.022795366123318672, -0.015086963772773743, 1.003287434577942, -0.057472243905067444, -0.2904777526855469, 1.47216796875, 1.109619140625, 1.1508026123046875, 1.49267578125
12028, -1.3991949558258057, -3.8003153800964355, 2.4744911193847656, 0.002955980831757188, 0.0012347970623522997, -0.19347888231277466, 0.06153169274330139, 0.02570800483226776, -0.03976235166192055, -0.48842164874076843, -1.0182113647460938, 0.06662788987159729, -1.5661307707082892, 1.8128867934286461, 3.1970930502396646, 9362.0, 30146.0, 35388.0, 9362.0, 8.390083312988281, 0.18372228741645813, 0.052739791572093964, -0.16360211372375488, 0.02270047552883625, -0.013086719438433647, 1.00126051902771, -0.051701441407203674, -0.01271820068359375, 1.494873046875, 0.528076171875, 34.571136474609375, 1.4912109375
12038, -1.3980369567871094, -3.801586151123047, 2.4715235233306885, 0.003603354562073946, 0.0015052889939397573, -0.19387629628181458, 0.06794317066669464, 0.028390105813741684, -0.03972048684954643, -0.4884323179721832, -1.0182299613952637, 0.06661796569824219, -1.5663948796283427, 1.8027400823231972, 3.1852203809743243, 9362.0, 30146.0, 35388.0, 9362.0, 8.390083312988281, -0.010369927622377872, -0.24035435914993286, -0.26906338334083557, 0.020907921716570854, -0.014662730507552624, 1.0002498626708984, -0.04104461148381233, 0.05896186828613281, 1.500732421875, 1.704345703125, 0.67974853515625, 1.489013671875
12048, -1.3975216150283813, -3.8002748489379883, 2.4701478481292725, 0.004314776975661516, 0.0018025749595835805, -0.1942741423845291, 0.07434145361185074, 0.03106674551963806, -0.0398496575653553, -0.4883899688720703, -1.0182054042816162, 0.0667455866932869, -1.5134526868839429, 1.8371410513031776, 3.1987112582839945, 9362.0, 30146.0, 35388.0, 9362.0, 8.390083312988281, -0.17554782330989838, 0.03641090914607048, -0.14923839271068573, 0.020045815035700798, -0.015324646607041359, 0.9968170523643494, -0.034547775983810425, 0.05896186828613281, 1.500732421875, 1.064208984375, 1.7689361572265625, 1.493408203125
12058, -1.398908257484436, -3.800326108932495, 2.467392921447754, 0.005090129096060991, 0.0021265889517962933, -0.1946742832660675, 0.08072906732559204, 0.03373591974377632, -0.04017743468284607, -0.48836997151374817, -1.0181560516357422, 0.06672108173370361, -1.4929632607873269, 1.8383874629707009, 3.1910567643266017, 9362.0, 30146.0, 35388.0, 9362.0, 8.390083312988281, 0.08290554583072662, 0.194753497838974, -0.03381871059536934, 0.02250049076974392, -0.012338400818407536, 0.9984332919120789, -0.04618508741259575, -0.11127853393554688, 1.48681640625, 0.92578125, 4.9995880126953125, 1.49560546875
12068, -1.3981925249099731, -3.801133155822754, 2.4661617279052734, 0.005929288920015097, 0.0024772649630904198, -0.19507858157157898, 0.08710300177335739, 0.03639896214008331, -0.04068302363157272, -0.4883521795272827, -1.0182101726531982, 0.06667916476726532, -1.4992471767668756, 1.8284475670716063, 3.1886765123708516, 9362.0, 30146.0, 35388.0, 9362.0, 8.390083312988281, 0.11169582605361938, -0.2527610659599304, 0.08266492187976837, 0.021249976009130478, -0.012637831270694733, 1.0039416551589966, -0.0420113243162632, 0.0052013397216796875, 1.496337890625, 1.714599609375, 0.7078094482421875, 1.493408203125
12078, -1.396229863166809, -3.801424503326416, 2.465822219848633, 0.006832248531281948, 0.0028546068351715803, -0.19548702239990234, 0.09348899126052856, 0.03906926140189171, -0.041004762053489685, -0.48840534687042236, -1.0182204246520996, 0.06662802398204803, -1.4955474987289392, 1.7960352418439527, 3.206459815314894, 9362.0, 30146.0, 35388.0, 9362.0, 8.390083312988281, -0.04451538622379303, 0.0712985247373581, -0.022751210257411003, 0.02378244325518608, -0.014493070542812347, 1.0020922422409058, -0.0417981892824173, -0.06647872924804688, 1.490478515625, 1.90283203125, 1.436798095703125, 1.496337890625
12088, -1.395685076713562, -3.801053762435913, 2.4656779766082764, 0.007799217477440834, 0.0032587042078375816, -0.19589650630950928, 0.09990477561950684, 0.04175018146634102, -0.040892455726861954, -0.48839420080184937, -1.0182020664215088, 0.06668031215667725, -1.473119343740436, 1.781784538798405, 3.207499833223573, 9362.0, 30146.0, 35388.0, 9362.0, 8.390083312988281, 0.11342152953147888, -0.19273562729358673, -0.056784871965646744, 0.021782217547297478, -0.013207938522100449, 0.9978308081626892, -0.042070358991622925, -0.28151702880859375, 1.472900390625, 0.888427734375, 6.3107452392578125, 1.49560546875
12098, -1.3944581747055054, -3.798654317855835, 2.464592218399048, 0.008830275386571884, 0.0036895638331770897, -0.19630597531795502, 0.10630674660205841, 0.0444217175245285, -0.04100178927183151, -0.4883517324924469, -1.0181870460510254, 0.06661520898342133, -1.486133578400813, 1.7822370564086043, 3.1946294415501497, 9362.0, 30146.0, 35388.0, 9362.0, 8.390083312988281, 0.08455101400613785, -0.08528310060501099, -0.3129260241985321, 0.020993532612919807, -0.013021229766309261, 0.9933904409408569, -0.038803234696388245, 0.07688140869140625, 1.502197265625, 1.7431640625, 0.7893218994140625, 1.493408203125
12108, -1.3937323093414307, -3.794502019882202, 2.462728500366211, 0.00992521271109581, 0.004147076979279518, -0.19671863317489624, 0.11268088221549988, 0.04708077758550644, -0.04152882844209671, -0.48834332823753357, -1.0181704759597778, 0.0666220411658287, -1.4880010474778966, 1.7856965601759498, 3.1957183471790533, 9362.0, 30146.0, 35388.0, 9362.0, 8.390083312988281, 0.059399452060461044, 0.02314068377017975, 0.24860669672489166, 0.018717287108302116, -0.013556898571550846, 0.9961565136909485, -0.03634849190711975, 0.11272048950195312, 1.505126953125, 0.7939453125, 10.701324462890625, 1.494873046875
12118, -1.3927197456359863, -3.7953617572784424, 2.463467597961426, 0.011083761230111122, 0.004631122574210167, -0.197138249874115, 0.1190289855003357, 0.04972812905907631, -0.0423949770629406, -0.4883101284503937, -1.0181108713150024, 0.06657841056585312, -1.48055712963113, 1.803173089537239, 3.1594659497921116, 9362.0, 30146.0, 35388.0, 9362.0, 8.390083312988281, 0.06776482611894608, -0.052552398294210434, 0.2054200917482376, 0.022138327360153198, -0.012299872003495693, 1.0039887428283691, -0.035345714539289474, -0.20087814331054688, 1.4794921875, 1.768798828125, 0.8681182861328125, 1.4970703125
12128, -1.3927888870239258, -3.7957241535186768, 2.4647040367126465, 0.012305879965424538, 0.005141684785485268, -0.19756463170051575, 0.1253947913646698, 0.05238436907529831, -0.04288072511553764, -0.48834338784217834, -1.0181797742843628, 0.06664056330919266, -1.486239956740695, 1.7945281091806464, 3.188236690704102, 9362.0, 30146.0, 35388.0, 9362.0, 8.390083312988281, -0.2632414698600769, -0.04449378699064255, -0.031793974339962006, 0.02284810319542885, -0.01343847531825304, 1.0057436227798462, -0.033257752656936646, -0.15607833862304688, 1.483154296875, 0.54052734375, 32.96937561035156, 1.493408203125
12138, -1.3940197229385376, -3.794750452041626, 2.4650769233703613, 0.01359188836067915, 0.005678894463926554, -0.1979924440383911, 0.13180683553218842, 0.05505772680044174, -0.042680852115154266, -0.48832735419273376, -1.0182095766067505, 0.06661664694547653, -1.5065529138866012, 1.7896090956768376, 3.1234395609228036, 9362.0, 30146.0, 35388.0, 9362.0, 8.390083312988281, 0.13381385803222656, 0.3251384496688843, 0.5076764225959778, 0.020226366817951202, -0.012110941112041473, 0.9986785054206848, -0.0367918461561203, -0.03959846496582031, 1.49267578125, 1.875732421875, 1.2922515869140625, 1.49560546875
12148, -1.392805576324463, -3.797914981842041, 2.47019624710083, 0.014942031353712082, 0.006242843810468912, -0.19841808080673218, 0.13822172582149506, 0.0577322393655777, -0.04244622215628624, -0.4882843792438507, -1.0181338787078857, 0.06654427200555801, -1.516329154694413, 1.7923378552387135, 3.1238189465177273, 9362.0, 30146.0, 35388.0, 9362.0, 8.390083312988281, -0.2078242152929306, 0.04569197818636894, 0.09647098928689957, 0.018733996897935867, -0.013095238246023655, 0.9957522749900818, -0.04349641129374504, 0.06792068481445312, 1.50146484375, 1.85888671875, 1.2113494873046875, 1.491943359375
12158, -1.393668293952942, -3.797313928604126, 2.471163749694824, 0.016356097534298897, 0.006833458319306374, -0.19884470105171204, 0.14459113776683807, 0.06039119139313698, -0.042878441512584686, -0.4882672131061554, -1.0181461572647095, 0.06657691299915314, -1.4825789471322202, 1.8019207979016016, 3.1288803508425556, 9362.0, 30146.0, 35388.0, 9362.0, 8.390083312988281, -0.014063876122236252, -0.24757049977779388, 0.12371247261762619, 0.019971074536442757, -0.013004668988287449, 0.9987176060676575, -0.05226036533713341, 0.05000114440917969, 1.5, 0.9990234375, 3.0057220458984375, 1.490478515625
12168, -1.3937451839447021, -3.7960190773010254, 2.474055290222168, 0.017833825200796127, 0.007450631354004145, -0.19927655160427094, 0.15095429122447968, 0.06304354965686798, -0.04348986968398094, -0.4882746636867523, -1.0181297063827515, 0.0666080117225647, -1.4932003166058236, 1.8034837432901725, 3.1595253915185455, 9362.0, 30146.0, 35388.0, 9362.0, 8.390083312988281, 0.121224045753479, 0.04827200621366501, 0.2906990051269531, 0.021392611786723137, -0.01099724043160677, 0.9999021291732788, -0.06066270172595978, -0.03959846496582031, 1.49267578125, 1.405517578125, 0.0454254150390625, 1.4912109375
12178, -1.3932572603225708, -3.7981746196746826, 2.4780197143554688, 0.019375266507267952, 0.008094372227787971, -0.19971315562725067, 0.15733398497104645, 0.06570504605770111, -0.04382947087287903, -0.48830002546310425, -1.0182112455368042, 0.06654077023267746, -1.5576205139101562, 1.805811272468759, 3.186412027620095, 9362.0, 30146.0, 35388.0, 9362.0, 8.390083312988281, -0.22251711785793304, -0.13960888981819153, 0.24628494679927826, 0.02313559129834175, -0.0133420554921031, 1.0007373094558716, -0.05542532727122307, -0.08439826965332031, 1.489013671875, 1.41943359375, 0.0612945556640625, 1.496337890625
12188, -1.3937900066375732, -3.797403573989868, 2.4802167415618896, 0.020980529487133026, 0.008764744736254215, -0.20015260577201843, 0.16371828317642212, 0.06836996227502823, -0.044061414897441864, -0.48823443055152893, -1.0181108713150024, 0.06655027717351913, -1.5338513279425094, 1.8067992027432354, 3.1349344536526655, 9362.0, 30146.0, 35388.0, 9362.0, 8.390083312988281, -0.18180622160434723, 0.2357805222272873, 0.39619266986846924, 0.020457664504647255, -0.014951661229133606, 0.998774528503418, -0.06033061817288399, 0.05896186828613281, 1.500732421875, 1.581298828125, 0.3732147216796875, 1.49560546875
12198, -1.3931055068969727, -3.7977583408355713, 2.484649896621704, 0.022649671882390976, 0.009461773559451103, -0.20059408247470856, 0.1701100617647171, 0.07103605568408966, -0.0442340262234211, -0.4883485436439514, -1.018039584159851, 0.06633956730365753, -1.535848836014223, 1.7154662536243563, 3.2192991176516017, 9362.0, 30146.0, 35388.0, 9362.0, 8.390083312988281, 0.15117886662483215, -0.03903580456972122, 0.20512796938419342, 0.01996820606291294, -0.015620929189026356, 0.9977633953094482, -0.06378693878650665, -0.09335899353027344, 1.48828125, 1.757080078125, 0.8313140869140625, 1.494873046875
12208, -1.3926321268081665, -3.796926736831665, 2.4883358478546143, 0.024382660165429115, 0.010185441933572292, -0.20103828608989716, 0.1764872670173645, 0.07369805127382278, -0.04460633918642998, -0.4883284270763397, -1.0180059671401978, 0.06633634865283966, -1.5493103911093478, 1.7240176820151873, 3.207544011946125, 9362.0, 30146.0, 35388.0, 9362.0, 8.390083312988281, -0.03181476518511772, 0.02993687242269516, 0.3167046010494232, 0.02153763175010681, -0.014599362388253212, 0.9989616274833679, -0.06151903420686722, -0.05751800537109375, 1.4912109375, 1.62744140625, 0.483154296875, 1.494140625
12238, -1.390610694885254, -3.8013343811035156, 2.4979686737060547, 0.024382660165429115, 0.010185441933572292, -0.20103828608989716, 0.1764872670173645, 0.07369805127382278, -0.04460633918642998, -0.48828980326652527, -1.018113136291504, 0.06643222272396088, -1.5722704142646886, 1.7567246794698406, 3.1882088474308588, 9362.0, 30146.0, 35388.0, 9362.0, 8.390083312988281, 0.0633179247379303, 0.001214889227412641, 0.09828154742717743, 0.022730497643351555, -0.014248489402234554, 1.0018458366394043, -0.05274064093828201, -0.11127853393554688, 1.48681640625, 1.62744140625, 0.483154296875, 1.494140625
12248, -1.389591097831726, -3.8038315773010254, 2.5001213550567627, 0.03195251151919365, 0.013346320018172264, -0.2028491497039795, 0.20202523469924927, 0.08435352891683578, -0.04563838243484497, -0.48834240436553955, -1.0180608034133911, 0.06641536951065063, -1.5512326737684947, 1.7273282184032723, 3.2291639193356754, 9362.0, 30146.0, 35388.0, 9362.0, 8.390083312988281, 0.1328052133321762, 0.3947279751300812, 0.35959264636039734, 0.022730497643351555, -0.014248489402234554, 1.0018458366394043, -0.05274064093828201, -0.11127853393554688, 1.48681640625, 1.62744140625, 0.483154296875, 1.494140625
12268, -1.388746738433838, -3.805577516555786, 2.503239154815674, 0.03195251151919365, 0.013346320018172264, -0.2028491497039795, 0.20202523469924927, 0.08435352891683578, -0.04563838243484497, -0.48835328221321106, -1.0180740356445312, 0.06645209342241287, -1.5600244564898431, 1.7397466557073358, 3.2414807423651935, 9362.0, 30146.0, 35388.0, 9362.0, 8.390083312988281, 0.08208636939525604, 0.07738982886075974, -0.03664138913154602, 0.022730497643351555, -0.014248489402234554, 1.0018458366394043, -0.02522551640868187, -0.0037593841552734375, 1.49560546875, 1.62744140625, 0.483154296875, 1.494140625
12278, -1.3893662691116333, -3.8069543838500977, 2.502171516418457, 0.03830062597990036, 0.015996532514691353, -0.2042350322008133, 0.22118735313415527, 0.09232652187347412, -0.046746086329221725, -0.4883480966091156, -1.0180813074111938, 0.06645709276199341, -1.5512956841429892, 1.7370415473889693, 3.2305680398327348, 9362.0, 30146.0, 35388.0, 9362.0, 8.390083312988281, -0.06897374987602234, 0.17973273992538452, -0.22961410880088806, 0.022730497643351555, -0.014248489402234554, 1.0018458366394043, -0.02522551640868187, -0.0037593841552734375, 1.49560546875, 1.62744140625, 0.483154296875, 1.494140625
12308, -1.390594720840454, -3.8108692169189453, 2.4981842041015625, 0.042851995676755905, 0.017896102741360664, -0.20518054068088531, 0.2339482307434082, 0.09763001650571823, -0.047842007130384445, -0.48829594254493713, -1.0181186199188232, 0.06657776236534119, -1.5383254047823187, 1.7931249139764986, 3.158082449723933, 9362.0, 30146.0, 35388.0, 9362.0, 8.390083312988281, 0.02485121227800846, -0.050911080092191696, -0.4948255717754364, 0.02032511681318283, -0.015016243793070316, 0.9968962669372559, -0.052279382944107056, -0.021678924560546875, 1.494140625, 1.62744140625, 0.483154296875, 1.494140625
12338, -1.393717885017395, -3.807217597961426, 2.4803552627563477, 0.05015784874558449, 0.02094443328678608, -0.20663997530937195, 0.2531178593635559, 0.10559463500976562, -0.04935160279273987, -0.4882745146751404, -1.0181454420089722, 0.06664279103279114, -1.5124252426719156, 1.7899437028606258, 3.172777848694636, 9362.0, 30146.0, 35388.0, 9362.0, 8.390083312988281, -0.06999056041240692, -0.2675081789493561, -0.4873432219028473, 0.020278798416256905, -0.016039274632930756, 1.0007765293121338, -0.05796447768807411, -0.11127853393554688, 1.48681640625, 1.62744140625, 0.483154296875, 1.494140625
12398, -1.394411563873291, -3.8007733821868896, 2.4584648609161377, 0.06944460421800613, 0.028988812118768692, -0.21015697717666626, 0.297924280166626, 0.1242499053478241, -0.05104386433959007, -0.48814335465431213, -1.018149733543396, 0.06683837622404099, -1.4728047282622037, 1.8481204771763942, 3.05242146303887, 9362.0, 30146.0, 35388.0, 9362.0, 8.390083312988281, -0.0016281276475638151, -0.12154486030340195, -0.682968258857727, 0.021283267065882683, -0.013925889506936073, 0.9997224807739258, -0.06658264249563217, -0.030637741088867188, 1.493408203125, 1.62744140625, 0.483154296875, 1.494140625
12418, -1.3932558298110962, -3.80651593208313, 2.458707571029663, 0.07553082704544067, 0.03152706101536751, -0.2111840397119522, 0.31069859862327576, 0.1295744776725769, -0.05166781321167946, -0.4881531596183777, -1.018166422843933, 0.06686591356992722, -1.4741782466949056, 1.861036865877935, 3.076846534727999, 9362.0, 30146.0, 35388.0, 9362.0, 8.390083312988281, 0.11227167397737503, 0.10913334041833878, -0.27492472529411316, 0.021283267065882683, -0.013925889506936073, 0.9997224807739258, -0.05335494875907898, -0.030637741088867188, 1.493408203125, 1.62744140625, 0.483154296875, 1.494140625
12438, -1.3921297788619995, -3.812986135482788, 2.4597742557525635, 0.07553082704544067, 0.03152706101536751, -0.2111840397119522, 0.31069859862327576, 0.1295744776725769, -0.05166781321167946, -0.48815014958381653, -1.018150806427002, 0.06686493754386902, -1.47361537029862, 1.8611179886108573, 3.0566874717510033, 9362.0, 30146.0, 35388.0, 9362.0, 8.390083312988281, 0.11227167397737503, 0.10913334041833878, -0.27492472529411316, 0.02113283984363079, -0.013291220180690289, 1.0000696182250977, -0.05360271781682968, -0.18295860290527344, 1.48095703125, 1.62744140625, 0.483154296875, 1.494140625
12448, -1.391558051109314, -3.8191580772399902, 2.459010124206543, 0.07553082704544067, 0.03152706101536751, -0.2111840397119522, 0.31069859862327576, 0.1295744776725769, -0.05166781321167946, -0.48821282386779785, -1.0181397199630737, 0.06691786646842957, -1.467352238783143, 1.8104788084716574, 3.0177210644466723, 9362.0, 30146.0, 35388.0, 9362.0, 8.390083312988281, 0.18695902824401855, 0.5671709775924683, 0.39595404267311096, 0.021821843460202217, -0.0107297757640481, 0.9972079992294312, -0.05360271781682968, -0.18295860290527344, 1.48095703125, 1.62744140625, 0.483154296875, 1.494140625
12458, -1.3902318477630615, -3.8254542350769043, 2.460284471511841, 0.07553082704544067, 0.03152706101536751, -0.2111840397119522, 0.31069859862327576, 0.1295744776725769, -0.05166781321167946, -0.4881989061832428, -1.0181398391723633, 0.06692254543304443, -1.4685160452525092, 1.8149667882438507, 3.005434586756454, 9362.0, 30146.0, 35388.0, 9362.0, 8.390083312988281, -0.09763974696397781, 0.7927607297897339, 0.09018499404191971, 0.021821843460202217, -0.0107297757640481, 0.9972079992294312, -0.05338146165013313, -0.01271820068359375, 1.494873046875, 1.62744140625, 0.483154296875, 1.494140625
12468, -1.3907701969146729, -3.8307766914367676, 2.461052656173706, 0.07553082704544067, 0.03152706101536751, -0.2111840397119522, 0.31069859862327576, 0.1295744776725769, -0.05166781321167946, -0.4882008135318756, -1.0181410312652588, 0.06692660599946976, -1.4793087352760192, 1.8191867266673114, 3.0176269669619424, 9362.0, 30146.0, 35388.0, 9362.0, 8.390083312988281, -0.040745947510004044, 0.4920073449611664, 0.291188508272171, 0.021821843460202217, -0.0107297757640481, 0.9972079992294312, -0.045688603073358536, 0.06792068481445312, 1.50146484375, 1.62744140625, 0.483154296875, 1.494140625
12478, -1.3899112939834595, -3.8356149196624756, 2.462085723876953, 0.09532516449689865, 0.03978024795651436, -0.2143409252166748, 0.34913405776023865, 0.14552150666713715, -0.05384410545229912, -0.488190233707428, -1.018125057220459, 0.06693419814109802, -1.470736517356615, 1.8197884642728752, 3.0119944079943615, 9362.0, 30146.0, 35388.0, 9362.0, 8.390083312988281, -0.12858258187770844, 0.33698952198028564, -0.12527161836624146, 0.018870489671826363, -0.013582784682512283, 0.9990940690040588, -0.045688603073358536, 0.06792068481445312, 1.50146484375, 1.62744140625, 0.483154296875, 1.494140625
12508, -1.391990065574646, -3.83884859085083, 2.462411880493164, 0.09532516449689865, 0.03978024795651436, -0.2143409252166748, 0.34913405776023865, 0.14552150666713715, -0.05384410545229912, -0.4882439374923706, -1.0181485414505005, 0.06692277640104294, -1.4913569807807148, 1.8013944314868127, 3.0361005886808536, 9362.0, 30146.0, 35388.0, 9362.0, 8.390083312988281, -0.07277611643075943, -0.22566549479961395, -0.3116833567619324, 0.017134208232164383, -0.011507372371852398, 0.9988360404968262, -0.05846229940652847, 0.12168121337890625, 1.505859375, 1.62744140625, 0.483154296875, 1.494140625
12568, -1.395833969116211, -3.8240721225738525, 2.443389415740967, 0.12531819939613342, 0.05227240175008774, -0.21876873075962067, 0.40070220828056335, 0.16679011285305023, -0.05683488771319389, -0.4882246255874634, -1.018128514289856, 0.06690415740013123, -1.4853944608086986, 1.823970804387784, 3.019578629343056, 9362.0, 30146.0, 35388.0, 9362.0, 8.390083312988281, -0.07965194433927536, -0.8104333281517029, -0.38308650255203247, 0.019036348909139633, -0.013274932280182838, 1.0007034540176392, -0.05498388782143593, 0.13064002990722656, 1.506591796875, 1.62744140625, 0.483154296875, 1.494140625
12578, -1.3988770246505737, -3.816988706588745, 2.438809394836426, 0.12531819939613342, 0.05227240175008774, -0.21876873075962067, 0.40070220828056335, 0.16679011285305023, -0.05683488771319389, -0.4882332682609558, -1.0181134939193726, 0.06688424199819565, -1.493251758509858, 1.8454064844026163, 3.017502294194183, 9362.0, 30146.0, 35388.0, 9362.0, 8.390083312988281, -0.07965194433927536, -0.8104333281517029, -0.38308650255203247, 0.020401274785399437, -0.012939865700900555, 0.9982156157493591, -0.05498388782143593, 0.13064002990722656, 1.506591796875, 1.62744140625, 0.483154296875, 1.494140625
12608, -1.3997132778167725, -3.811795711517334, 2.4244890213012695, 0.14615783095359802, 0.060945022851228714, -0.2216459959745407, 0.4328411817550659, 0.18011806905269623, -0.05839870125055313, -0.48836803436279297, -1.0181303024291992, 0.06670107692480087, -1.5193827901636419, 1.7639267278627813, 3.146031270718148, 9362.0, 30146.0, 35388.0, 9362.0, 8.390083312988281, -0.2701911926269531, -0.19096827507019043, -0.5281590819358826, 0.020401274785399437, -0.012939865700900555, 0.9982156157493591, -0.05874704197049141, -0.03959846496582031, 1.49267578125, 1.62744140625, 0.483154296875, 1.494140625
12638, -1.399948239326477, -3.8144474029541016, 2.412992000579834, 0.15943166613578796, 0.0664687305688858, -0.22340966761112213, 0.4520775377750397, 0.18812891840934753, -0.05918306112289429, -0.488357812166214, -1.0181320905685425, 0.06669463962316513, -1.5104644907402143, 1.7453802069430537, 3.1355915034345743, 9362.0, 30146.0, 35388.0, 9362.0, 8.390083312988281, 0.05049441009759903, -0.020741865038871765, -0.21257059276103973, 0.0235150046646595, -0.013937164098024368, 1.0008453130722046, -0.07509878277778625, -0.24567794799804688, 1.475830078125, 1.62744140625, 0.483154296875, 1.494140625
12648, -1.4000202417373657, -3.8145089149475098, 2.4117491245269775, 0.15943166613578796, 0.0664687305688858, -0.22340966761112213, 0.4520775377750397, 0.18812891840934753, -0.05918306112289429, -0.4883497655391693, -1.0181527137756348, 0.06668591499328613, -1.515882008898306, 1.7411439893564307, 3.139980785807454, 9362.0, 30146.0, 35388.0, 9362.0, 8.390083312988281, -0.004130429122596979, 0.33142030239105225, -0.5382439494132996, 0.0235150046646595, -0.013937164098024368, 1.0008453130722046, -0.07503210753202438, -0.04855918884277344, 1.491943359375, 1.62744140625, 0.483154296875, 1.494140625
12668, -1.3982607126235962, -3.817781448364258, 2.4079749584198, 0.15943166613578796, 0.0664687305688858, -0.22340966761112213, 0.4520775377750397, 0.18812891840934753, -0.05918306112289429, -0.4882830083370209, -1.018110752105713, 0.06664294004440308, -1.521038320518754, 1.7883582392235553, 3.1638070221162162, 9362.0, 30146.0, 35388.0, 9362.0, 8.390083312988281, 0.1044168472290039, 0.5726779699325562, 0.04533402621746063, 0.021787839010357857, -0.014704213477671146, 0.9990012049674988, -0.07341138273477554, -0.08439826965332031, 1.489013671875, 1.62744140625, 0.483154296875, 1.494140625
12678, -1.397080421447754, -3.8230104446411133, 2.4101462364196777, 0.17802821099758148, 0.07420749217271805, -0.22579404711723328, 0.4777475595474243, 0.19880248606204987, -0.0601993165910244, -0.4882546067237854, -1.0181331634521484, 0.06664649397134781, -1.5115894162433627, 1.7815930888616265, 3.1776587626416437, 9362.0, 30146.0, 35388.0, 9362.0, 8.390083312988281, 0.15918675065040588, 0.21267923712730408, 0.07697339355945587, 0.01832599751651287, -0.012171851471066475, 0.9967777729034424, -0.07341138273477554, -0.08439826965332031, 1.489013671875, 1.62744140625, 0.483154296875, 1.494140625
12688, -1.3947428464889526, -3.8247900009155273, 2.4078519344329834, 0.18283770978450775, 0.07620880752801895, -0.22639870643615723, 0.4841521978378296, 0.20146100223064423, -0.06073179841041565, -0.4882879853248596, -1.018137812614441, 0.0666339099407196, -1.5174896932856343, 1.7749760799390515, 3.1824838748825495, 9362.0, 30146.0, 35388.0, 9362.0, 8.390083312988281, 0.5929906964302063, 0.3835621774196625, -0.33732372522354126, 0.01832599751651287, -0.012171851471066475, 0.9967777729034424, -0.04037563130259514, -0.10231781005859375, 1.487548828125, 1.62744140625, 0.483154296875, 1.494140625
12698, -1.3885626792907715, -3.8282828330993652, 2.405843734741211, 0.18283770978450775, 0.07620880752801895, -0.22639870643615723, 0.4841521978378296, 0.20146100223064423, -0.06073179841041565, -0.4882638454437256, -1.0181355476379395, 0.066653773188591, -1.5233405608715207, 1.7842942165895863, 3.1925667395656325, 9362.0, 30146.0, 35388.0, 9362.0, 8.390083312988281, -0.20921960473060608, -0.007946094498038292, 3.3441174030303955, 0.01832599751651287, -0.012171851471066475, 0.9967777729034424, -0.044174157083034515, -0.021678924560546875, 1.494140625, 1.62744140625, 0.483154296875, 1.494140625
12718, -1.3895349502563477, -3.8305578231811523, 2.4173827171325684, 0.19765132665634155, 0.08237218856811523, -0.22823967039585114, 0.5034440755844116, 0.2094287872314453, -0.06175659969449043, -0.4882703423500061, -1.0181325674057007, 0.0666695162653923, -1.513586215506181, 1.7823922255667526, 3.170149623659648, 9362.0, 30146.0, 35388.0, 9362.0, 8.390083312988281, -0.09340456128120422, 0.1727956384420395, -2.165370464324951, 0.01832599751651287, -0.012171851471066475, 0.9967777729034424, -0.026771891862154007, -0.07543754577636719, 1.48974609375, 1.62744140625, 0.483154296875, 1.494140625
12738, -1.3926632404327393, -3.8352291584014893, 2.4216277599334717, 0.20271790027618408, 0.0844796895980835, -0.2288598120212555, 0.5098711252212524, 0.2120714634656906, -0.06227267533540726, -0.48825791478157043, -1.018134355545044, 0.06667406111955643, -1.5202319987427853, 1.7879905804137195, 3.1708750139542587, 9362.0, 30146.0, 35388.0, 9362.0, 8.390083312988281, -0.3467758297920227, 0.20733435451984406, -0.4080405831336975, 0.02302376739680767, -0.002113432390615344, 1.0016088485717773, -0.036058444529771805, -0.23671722412109375, 1.4765625, 1.62744140625, 0.483154296875, 1.494140625
12748, -1.3963165283203125, -3.837083578109741, 2.419006109237671, 0.20271790027618408, 0.0844796895980835, -0.2288598120212555, 0.5098711252212524, 0.2120714634656906, -0.06227267533540726, -0.4882799983024597, -1.0181177854537964, 0.06663252413272858, -1.5215137993602728, 1.7786881136556758, 3.184836848374431, 9362.0, 30146.0, 35388.0, 9362.0, 8.390083312988281, -0.16826751828193665, 0.15295860171318054, 0.3614441454410553, 0.02302376739680767, -0.002113432390615344, 1.0016088485717773, -0.03453762084245682, -0.06647872924804688, 1.490478515625, 1.62744140625, 0.483154296875, 1.494140625
12758, -1.400022268295288, -3.839367389678955, 2.417623519897461, 0.21830439567565918, 0.09096139669418335, -0.23073603212833405, 0.5292565822601318, 0.2200559824705124, -0.062466368079185486, -0.48824867606163025, -1.01811683177948, 0.06663897633552551, -1.5145262665273977, 1.7955651206202674, 3.171943714776649, 9362.0, 30146.0, 35388.0, 9362.0, 8.390083312988281, -0.42141151428222656, 0.5157460570335388, 1.0630793571472168, 0.016087794676423073, -0.006978616584092379, 0.9979252219200134, -0.04390471801161766, -0.07543754577636719, 1.48974609375, 1.62744140625, 0.483154296875, 1.494140625
12768, -1.4031622409820557, -3.841825008392334, 2.420201301574707, 0.21830439567565918, 0.09096139669418335, -0.23073603212833405, 0.5292565822601318, 0.2200559824705124, -0.062466368079185486, -0.48824480175971985, -1.0180981159210205, 0.06664383411407471, -1.503955096155627, 1.7970509521942972, 3.1601550449748257, 9362.0, 30146.0, 35388.0, 9362.0, 8.390083312988281, -0.42141151428222656, 0.5157460570335388, 1.0630793571472168, 0.016087794676423073, -0.006978616584092379, 0.9979252219200134, -0.039145249873399734, -0.2904777526855469, 1.47216796875, 1.62744140625, 0.483154296875, 1.494140625
12778, -1.4047240018844604, -3.841773748397827, 2.42508602142334, 0.22901847958564758, 0.09541577845811844, -0.23199309408664703, 0.5421502590179443, 0.22538402676582336, -0.06330015510320663, -0.4882407784461975, -1.0180842876434326, 0.0666661337018013, -1.5072566383009267, 1.8007109692990468, 3.1657222614072373, 9362.0, 30146.0, 35388.0, 9362.0, 8.390083312988281, -0.41639846563339233, 0.1731034815311432, -0.8309438228607178, 0.016087794676423073, -0.006978616584092379, 0.9979252219200134, -0.04721839725971222, 0.03208160400390625, 1.49853515625, 1.62744140625, 0.483154296875, 1.494140625
12788, -1.4085135459899902, -3.8428802490234375, 2.4235730171203613, 0.22901847958564758, 0.09541577845811844, -0.23199309408664703, 0.5421502590179443, 0.22538402676582336, -0.06330015510320663, -0.48824864625930786, -1.018099308013916, 0.066651351749897, -1.5011395453391019, 1.7985854164437285, 3.158151985739882, 9362.0, 30146.0, 35388.0, 9362.0, 8.390083312988281, -0.2773279547691345, -0.21812382340431213, -0.41292786598205566, 0.016087794676423073, -0.006978616584092379, 0.9979252219200134, -0.06373514235019684, -0.3352775573730469, 1.468505859375, 1.62744140625, 0.483154296875, 1.49267578125
12798, -1.4116870164871216, -3.841848850250244, 2.4232566356658936, 0.22901847958564758, 0.09541577845811844, -0.23199309408664703, 0.5421502590179443, 0.22538402676582336, -0.06330015510320663, -0.4882637858390808, -1.0181244611740112, 0.06663736701011658, -1.515025433844378, 1.8064559295077913, 3.173005022366593, 9362.0, 30146.0, 35388.0, 9362.0, 8.390083312988281, -0.2773279547691345, -0.21812382340431213, -0.41292786598205566, 0.016087794676423073, -0.006978616584092379, 0.9979252219200134, -0.05776236206293106, -0.04855918884277344, 1.491943359375, 1.62744140625, 0.483154296875, 1.49267578125
12808, -1.413450002670288, -3.839393377304077, 2.4264745712280273, 0.22901847958564758, 0.09541577845811844, -0.23199309408664703, 0.5421502590179443, 0.22538402676582336, -0.06330015510320663, -0.4882845878601074, -1.018126130104065, 0.06660067290067673, -1.5178444406260805, 1.819138510022043, 3.2132375441768875, 9362.0, 30146.0, 35388.0, 9362.0, 8.390083312988281, -0.021877765655517578, -0.3705765902996063, -0.08515369147062302, 0.01622885651886463, -0.021239621564745903, 0.997083306312561, -0.05776236206293106, -0.04855918884277344, 1.491943359375, 1.62744140625, 0.483154296875, 1.49267578125
12838, -1.413432002067566, -3.8297312259674072, 2.421318769454956, 0.2627103924751282, 0.10942184180021286, -0.23584221303462982, 0.5808916687965393, 0.24150247871875763, -0.0651906356215477, -0.48829349875450134, -1.018141508102417, 0.066596619784832, -1.522397037157729, 1.8159585553419504, 3.217941021900595, 9362.0, 30146.0, 35388.0, 9362.0, 8.390083312988281, -0.021877765655517578, -0.3705765902996063, -0.08515369147062302, 0.019744873046875, -0.016605284065008163, 1.0005000829696655, -0.06425593793392181, 0.08584022521972656, 1.5029296875, 1.62744140625, 0.483154296875, 1.49267578125
12888, -1.3963348865509033, -3.814006805419922, 2.4196696281433105, 0.2925604581832886, 0.12183355540037155, -0.2391253560781479, 0.6130682229995728, 0.2549358606338501, -0.06643787026405334, -0.4882891774177551, -1.0181334018707275, 0.06666386872529984, -1.5175936941484458, 1.797284212868277, 3.1843015210092185, 9362.0, 30146.0, 35388.0, 9362.0, 8.390083312988281, 0.3629642724990845, -0.028793232515454292, -0.13426676392555237, 0.019797852262854576, -0.015079746954143047, 0.9988278150558472, -0.0590330995619297, -0.04855918884277344, 1.491943359375, 1.62744140625, 0.483154296875, 1.49267578125
12908, -1.3901530504226685, -3.8151209354400635, 2.418424606323242, 0.30495011806488037, 0.1269855946302414, -0.24045975506305695, 0.6259027123451233, 0.2602676749229431, -0.06692566722631454, -0.4882856011390686, -1.0181320905685425, 0.06664411723613739, -1.5185297473139683, 1.7932397288647905, 3.1763377857818647, 9362.0, 30146.0, 35388.0, 9362.0, 8.390083312988281, 0.2039269208908081, -0.043817851692438126, 0.18876469135284424, 0.019797852262854576, -0.015079746954143047, 0.9988278150558472, -0.06806032359600067, -0.2904777526855469, 1.47216796875, 1.62744140625, 0.483154296875, 1.49267578125
12928, -1.3887327909469604, -3.8124704360961914, 2.4189252853393555, 0.30495011806488037, 0.1269855946302414, -0.24045975506305695, 0.6259027123451233, 0.2602676749229431, -0.06692566722631454, -0.4882762134075165, -1.0181260108947754, 0.06665699183940887, -1.5205702396943879, 1.7989273733181506, 3.1793434901755235, 9362.0, 30146.0, 35388.0, 9362.0, 8.390083312988281, -0.39221957325935364, 0.5955163240432739, -0.12922194600105286, 0.01925835944712162, -0.016154315322637558, 0.9994844794273376, -0.07569076120853424, -0.2994365692138672, 1.471435546875, 1.62744140625, 0.483154296875, 1.49267578125
12938, -1.3925490379333496, -3.817094564437866, 2.418087959289551, 0.324015736579895, 0.13491301238536835, -0.2424820512533188, 0.6451427936553955, 0.2682231664657593, -0.06785723567008972, -0.48828330636024475, -1.0181416273117065, 0.06665293127298355, -1.5230300065259066, 1.7880774420448802, 3.17970116848733, 9362.0, 30146.0, 35388.0, 9362.0, 8.390083312988281, -0.39221957325935364, 0.5955163240432739, -0.12922194600105286, 0.01925835944712162, -0.016154315322637558, 0.9994844794273376, -0.07327862828969955, -0.10231781005859375, 1.487548828125, 1.62744140625, 0.483154296875, 1.49267578125
12968, -1.398350477218628, -3.8240456581115723, 2.417226552963257, 0.33704686164855957, 0.1403304785490036, -0.24384517967700958, 0.6579723954200745, 0.27352795004844666, -0.06846487522125244, -0.48825591802597046, -1.0180929899215698, 0.06663485616445541, -1.5285377904244615, 1.7968248208148054, 3.176311729216363, 9362.0, 30146.0, 35388.0, 9362.0, 8.390083312988281, -0.1353207379579544, -0.15489903092384338, -0.27044105529785156, 0.02021149732172489, -0.014360449276864529, 1.00007963180542, -0.06123312562704086, 0.1485614776611328, 1.508056640625, 1.62744140625, 0.483154296875, 1.49267578125
12978, -1.3997175693511963, -3.8235208988189697, 2.4150471687316895, 0.35033494234085083, 0.14585429430007935, -0.2452181875705719, 0.670836329460144, 0.2788541913032532, -0.06888620555400848, -0.48824629187583923, -1.018085241317749, 0.06663411855697632, -1.5231457298112463, 1.7995177877774609, 3.175529439020994, 9362.0, 30146.0, 35388.0, 9362.0, 8.390083312988281, -0.1353207379579544, -0.15489903092384338, -0.27044105529785156, 0.019916372373700142, -0.012643002904951572, 0.9995078444480896, -0.06123312562704086, 0.1485614776611328, 1.508056640625, 1.62744140625, 0.483154296875, 1.49267578125
13008, -1.4042471647262573, -3.8281586170196533, 2.4178378582000732, 0.370749294757843, 0.15433990955352783, -0.24729986488819122, 0.6901253461837769, 0.2868589162826538, -0.06985043734312057, -0.4882550537586212, -1.0180892944335938, 0.06663855165243149, -1.5211836960382954, 1.8002397519539954, 3.173147168710411, 9362.0, 30146.0, 35388.0, 9362.0, 8.390083312988281, -0.17635279893875122, 0.13296492397785187, 0.12891122698783875, 0.021357504650950432, -0.012906907126307487, 0.9992042183876038, -0.05474049597978592, -0.030637741088867188, 1.493408203125, 1.62744140625, 0.483154296875, 1.49267578125
13028, -1.4042468070983887, -3.8257296085357666, 2.414983034133911, 0.37768274545669556, 0.15722188353538513, -0.24799931049346924, 0.696566641330719, 0.2895370125770569, -0.07003887742757797, -0.48825880885124207, -1.0180810689926147, 0.06663665175437927, -1.509392056190885, 1.802441497495039, 3.1583017552270807, 9362.0, 30146.0, 35388.0, 9362.0, 8.390083312988281, 0.08938965201377869, -0.11378369480371475, -0.06082388758659363, 0.019952312111854553, -0.013148116879165173, 0.9975720643997192, -0.06822436302900314, -0.08439826965332031, 1.489013671875, 1.62744140625, 0.483154296875, 1.49267578125
13038, -1.4037836790084839, -3.825485944747925, 2.4157207012176514, 0.37768274545669556, 0.15722188353538513, -0.24799931049346924, 0.696566641330719, 0.2895370125770569, -0.07003887742757797, -0.48829472064971924, -1.0181058645248413, 0.0666131004691124, -1.5247893973611766, 1.7937425904195834, 3.18108820740617, 9362.0, 30146.0, 35388.0, 9362.0, 8.390083312988281, 0.08938965201377869, -0.11378369480371475, -0.06082388758659363, 0.019785208627581596, -0.01348899770528078, 0.9998846650123596, -0.06822436302900314, -0.08439826965332031, 1.489013671875, 1.62744140625, 0.483154296875, 1.49267578125
13068, -1.4032437801361084, -3.8244898319244385, 2.420074939727783, 0.41331493854522705, 0.17203310132026672, -0.2515467703342438, 0.7287365794181824, 0.30291858315467834, -0.07153188437223434, -0.4882497489452362, -1.0180909633636475, 0.06663703918457031, -1.5122912444052805, 1.8046960742852605, 3.159530574090931, 9362.0, 30146.0, 35388.0, 9362.0, 8.390083312988281, -0.023811237886548042, -0.7204059958457947, -0.047661006450653076, 0.020062854513525963, -0.012465434148907661, 1.001380443572998, -0.06740792095661163, -0.11127853393554688, 1.48681640625, 1.62744140625, 0.483154296875, 1.49267578125
13078, -1.403257966041565, -3.819432258605957, 2.420790910720825, 0.41331493854522705, 0.17203310132026672, -0.2515467703342438, 0.7287365794181824, 0.30291858315467834, -0.07153188437223434, -0.48821133375167847, -1.0180742740631104, 0.06660681217908859, -1.5189429691360197, 1.8311358262567694, 3.1900573762689137, 9362.0, 30146.0, 35388.0, 9362.0, 8.390083312988281, 0.06339558959007263, -0.3243335485458374, 0.04488549008965492, 0.020062854513525963, -0.012465434148907661, 1.001380443572998, -0.06916526705026627, 0.014162063598632812, 1.4970703125, 1.62744140625, 0.483154296875, 1.49267578125
13108, -1.4022618532180786, -3.813490390777588, 2.4255599975585938, 0.44297918677330017, 0.18436402082443237, -0.25442469120025635, 0.7544729709625244, 0.31363072991371155, -0.07221907377243042, -0.4882360100746155, -1.018093228340149, 0.06658884882926941, -1.5293729724756369, 1.8227115812634622, 3.216057581110517, 9362.0, 30146.0, 35388.0, 9362.0, 8.390083312988281, 0.1626092493534088, -0.046311985701322556, 0.1749899834394455, 0.022519906982779503, -0.012010445818305016, 0.9999589920043945, -0.05509074404835701, -0.07543754577636719, 1.48974609375, 1.62744140625, 0.483154296875, 1.49267578125
13128, -1.3989254236221313, -3.815156936645508, 2.4293012619018555, 0.44297918677330017, 0.18436402082443237, -0.25442469120025635, 0.7544729709625244, 0.31363072991371155, -0.07221907377243042, -0.4882374703884125, -1.0180959701538086, 0.06659875065088272, -1.5198333360703495, 1.810051713609539, 3.206407418852844, 9362.0, 30146.0, 35388.0, 9362.0, 8.390083312988281, 0.1626092493534088, -0.046311985701322556, 0.1749899834394455, 0.024659646674990654, -0.013961605727672577, 0.9980858564376831, -0.062168996781110764, -0.08439826965332031, 1.489013671875, 1.62744140625, 0.483154296875, 1.49267578125
13138, -1.3968745470046997, -3.8145768642425537, 2.429481267929077, 0.44297918677330017, 0.18436402082443237, -0.25442469120025635, 0.7544729709625244, 0.31363072991371155, -0.07221907377243042, -0.4881913661956787, -1.0180751085281372, 0.06662371009588242, -1.5177546092543523, 1.820671521828217, 3.2074166165581, 9362.0, 30146.0, 35388.0, 9362.0, 8.390083312988281, -0.008476491086184978, -0.17299671471118927, -0.21476204693317413, 0.024659646674990654, -0.013961605727672577, 0.9980858564376831, -0.062168996781110764, -0.08439826965332031, 1.489013671875, 1.62744140625, 0.483154296875, 1.49267578125
13158, -1.3972821235656738, -3.8161683082580566, 2.4275543689727783, 0.4815050959587097, 0.20037977397441864, -0.2580640912055969, 0.7865536212921143, 0.3269849121570587, -0.07350756973028183, -0.48819565773010254, -1.0180681943893433, 0.06659147143363953, -1.5182547188776816, 1.8248277516390203, 3.197557690033972, 9362.0, 30146.0, 35388.0, 9362.0, 8.390083312988281, -0.008476491086184978, -0.17299671471118927, -0.21476204693317413, 0.024659646674990654, -0.013961605727672577, 0.9980858564376831, -0.08114948123693466, -0.2187976837158203, 1.47802734375, 1.62744140625, 0.483154296875, 1.49267578125
13168, -1.3984209299087524, -3.8172597885131836, 2.4269070625305176, 0.4815050959587097, 0.20037977397441864, -0.2580640912055969, 0.7865536212921143, 0.3269849121570587, -0.07350756973028183, -0.4882402718067169, -1.0180846452713013, 0.06658056378364563, -1.5276144946156642, 1.811906460993555, 3.2134425502610764, 9362.0, 30146.0, 35388.0, 9362.0, 8.390083312988281, 0.0576709546148777, -0.03901026025414467, -0.21357710659503937, 0.024659646674990654, -0.013961605727672577, 0.9980858564376831, -0.08114948123693466, -0.2187976837158203, 1.47802734375, 1.62744140625, 0.483154296875, 1.49267578125
13198, -1.3983205556869507, -3.8226876258850098, 2.4266812801361084, 0.5053906440734863, 0.21030934154987335, -0.26027911901474, 0.8058199286460876, 0.33498847484588623, -0.07414916902780533, -0.4882011413574219, -1.018075704574585, 0.06661184877157211, -1.5084904124927563, 1.8279425229663957, 3.190861184562831, 9362.0, 30146.0, 35388.0, 9362.0, 8.390083312988281, -0.004755902569741011, 0.43850499391555786, 0.4692879617214203, 0.019756261259317398, -0.012176170945167542, 0.9996013641357422, -0.0653676688671112, -0.08439826965332031, 1.489013671875, 1.62744140625, 0.483154296875, 1.49267578125
13208, -1.3980971574783325, -3.8235440254211426, 2.425868511199951, 0.5053906440734863, 0.21030934154987335, -0.26027911901474, 0.8058199286460876, 0.33498847484588623, -0.07414916902780533, -0.4882802665233612, -1.018128752708435, 0.0665663629770279, -1.5189846517689551, 1.8167975476113725, 3.212478720256115, 9362.0, 30146.0, 35388.0, 9362.0, 8.390083312988281, -0.260911226272583, -0.009679305367171764, 0.2537773847579956, 0.019756261259317398, -0.012176170945167542, 0.9996013641357422, -0.07158590108156204, -0.08439826965332031, 1.489013671875, 1.62744140625, 0.483154296875, 1.49267578125
13228, -1.3997013568878174, -3.823701858520508, 2.4247403144836426, 0.5053906440734863, 0.21030934154987335, -0.26027911901474, 0.8058199286460876, 0.33498847484588623, -0.07414916902780533, -0.4882214665412903, -1.018119215965271, 0.06660819798707962, -1.5165351750217544, 1.8271186688737089, 3.207008971057119, 9362.0, 30146.0, 35388.0, 9362.0, 8.390083312988281, -0.1510586142539978, 0.26082664728164673, -0.03158814087510109, 0.019756261259317398, -0.012176170945167542, 0.9996013641357422, -0.05757484957575798, 0.06792068481445312, 1.50146484375, 1.62744140625, 0.483154296875, 1.494873046875
13238, -1.4008349180221558, -3.8195323944091797, 2.4222071170806885, 0.5053906440734863, 0.21030934154987335, -0.26027911901474, 0.8058199286460876, 0.33498847484588623, -0.07414916902780533, -0.48823052644729614, -1.018110752105713, 0.06661512702703476, -1.5156673620098402, 1.8294810913731965, 3.2114442072298184, 9362.0, 30146.0, 35388.0, 9362.0, 8.390083312988281, -0.1510586142539978, 0.26082664728164673, -0.03158814087510109, 0.019756261259317398, -0.012176170945167542, 0.9996013641357422, -0.07810655236244202, -0.12023735046386719, 1.486083984375, 1.62744140625, 0.483154296875, 1.494873046875
13258, -1.4025537967681885, -3.8203234672546387, 2.4238431453704834, 0.5633722543716431, 0.23441219329833984, -0.26553797721862793, 0.8508163690567017, 0.35367265343666077, -0.07596942037343979, -0.4882412254810333, -1.0181152820587158, 0.06661204248666763, -1.516799764767419, 1.8250453335087116, 3.2083017250835937, 9362.0, 30146.0, 35388.0, 9362.0, 8.390083312988281, -0.1510586142539978, 0.26082664728164673, -0.03158814087510109, 0.019756261259317398, -0.012176170945167542, 0.9996013641357422, -0.06861552596092224, -0.08439826965332031, 1.489013671875, 1.62744140625, 0.483154296875, 1.494873046875
13268, -1.4041584730148315, -3.8180713653564453, 2.4236648082733154, 0.5633722543716431, 0.23441219329833984, -0.26553797721862793, 0.8508163690567017, 0.35367265343666077, -0.07596942037343979, -0.48828211426734924, -1.018127679824829, 0.06659050285816193, -1.5178465609413552, 1.8185287446877396, 3.2072539758003353, 9362.0, 30146.0, 35388.0, 9362.0, 8.390083312988281, -0.1510586142539978, 0.26082664728164673, -0.03158814087510109, 0.019756261259317398, -0.012176170945167542, 0.9996013641357422, -0.07494030892848969, -0.030637741088867188, 1.493408203125, 1.62744140625, 0.483154296875, 1.494873046875
13288, -1.4038432836532593, -3.818740129470825, 2.4232423305511475, 0.5891858339309692, 0.24514271318912506, -0.2678297758102417, 0.8700876235961914, 0.3616987466812134, -0.07677457481622696, -0.48831474781036377, -1.018160343170166, 0.06664223223924637, -1.5249742453131394, 1.788477401913326, 3.1915504897408393, 9362.0, 30146.0, 35388.0, 9362.0, 8.390083312988281, 0.11117938905954361, 0.09709722548723221, -0.24706773459911346, 0.019756261259317398, -0.012176170945167542, 0.9996013641357422, -0.07439497113227844, -0.07543754577636719, 1.48974609375, 1.62744140625, 0.483154296875, 1.494873046875
13308, -1.4020239114761353, -3.8178343772888184, 2.4254212379455566, 0.6067158579826355, 0.25243017077445984, -0.2693727910518646, 0.8829187154769897, 0.3670477867126465, -0.07750947028398514, -0.4883130192756653, -1.0181469917297363, 0.06663329154253006, -1.5274480508678956, 1.7932358984041628, 3.20375127008973, 9362.0, 30146.0, 35388.0, 9362.0, 8.390083312988281, -0.035854462534189224, 0.12228173017501831, 0.026698311790823936, 0.019756261259317398, -0.012176170945167542, 0.9996013641357422, -0.06561502814292908, -0.04855918884277344, 1.491943359375, 1.62744140625, 0.483154296875, 1.494873046875
13338, -1.401007890701294, -3.8125686645507812, 2.4259347915649414, 0.624502420425415, 0.2598244845867157, -0.2709324359893799, 0.8957421183586121, 0.37238815426826477, -0.07836117595434189, -0.4882729649543762, -1.018139362335205, 0.06666141748428345, -1.5194948378585242, 1.7951920257670508, 3.1838852721361266, 9362.0, 30146.0, 35388.0, 9362.0, 8.390083312988281, 0.14476266503334045, -0.1377546638250351, -0.2514064908027649, 0.019756261259317398, -0.012176170945167542, 0.9996013641357422, -0.06387709826231003, -0.07543754577636719, 1.48974609375, 1.62744140625, 0.483154296875, 1.494873046875
13348, -1.4007874727249146, -3.8118834495544434, 2.4256110191345215, 0.624502420425415, 0.2598244845867157, -0.2709324359893799, 0.8957421183586121, 0.37238815426826477, -0.07836117595434189, -0.48828125, -1.0181361436843872, 0.06663626432418823, -1.5141332840240171, 1.7914235299264192, 3.1779608803454957, 9362.0, 30146.0, 35388.0, 9362.0, 8.390083312988281, 0.14476266503334045, -0.1377546638250351, -0.2514064908027649, 0.021560978144407272, -0.01273486390709877, 0.9996997714042664, -0.06387709826231003, -0.07543754577636719, 1.48974609375, 1.62744140625, 0.483154296875, 1.494873046875
13358, -1.4005932807922363, -3.8138365745544434, 2.4275596141815186, 0.624502420425415, 0.2598244845867157, -0.2709324359893799, 0.8957421183586121, 0.37238815426826477, -0.07836117595434189, -0.48832038044929504, -1.0181574821472168, 0.06663467735052109, -1.5274333875781791, 1.7882981382990977, 3.1912572934974603, 9362.0, 30146.0, 35388.0, 9362.0, 8.390083312988281, 0.14476266503334045, -0.1377546638250351, -0.2514064908027649, 0.021088793873786926, -0.012212125584483147, 1.0015727281570435, -0.07880005240440369, -0.11127853393554688, 1.48681640625, 1.62744140625, 0.483154296875, 1.494873046875
13368, -1.4002419710159302, -3.813460111618042, 2.428615093231201, 0.624502420425415, 0.2598244845867157, -0.2709324359893799, 0.8957421183586121, 0.37238815426826477, -0.07836117595434189, -0.4883246421813965, -1.0181536674499512, 0.06663700193166733, -1.525567039492501, 1.7853843221701027, 3.194241995634049, 9362.0, 30146.0, 35388.0, 9362.0, 8.390083312988281, 0.14476266503334045, -0.1377546638250351, -0.2514064908027649, 0.021088793873786926, -0.012212125584483147, 1.0015727281570435, -0.06346442550420761, -0.06647872924804688, 1.490478515625, 1.62744140625, 0.483154296875, 1.494873046875
13378, -1.3998973369598389, -3.812316417694092, 2.4283063411712646, 0.624502420425415, 0.2598244845867157, -0.2709324359893799, 0.8957421183586121, 0.37238815426826477, -0.07836117595434189, -0.48828187584877014, -1.018133282661438, 0.0666438639163971, -1.5142627064206218, 1.7948282346835356, 3.181336819185278, 9362.0, 30146.0, 35388.0, 9362.0, 8.390083312988281, 0.2765065133571625, -0.042552124708890915, 0.05959029123187065, 0.021088793873786926, -0.012212125584483147, 1.0015727281570435, -0.056884925812482834, -0.1291980743408203, 1.4853515625, 1.62744140625, 0.483154296875, 1.494873046875
13388, -1.3988313674926758, -3.81227970123291, 2.4291462898254395, 0.624502420425415, 0.2598244845867157, -0.2709324359893799, 0.8957421183586121, 0.37238815426826477, -0.07836117595434189, -0.4882660508155823, -1.018133282661438, 0.06665879487991333, -1.516598038638173, 1.7982363539457822, 3.175812185986091, 9362.0, 30146.0, 35388.0, 9362.0, 8.390083312988281, 0.2765065133571625, -0.042552124708890915, 0.05959029123187065, 0.02308996394276619, -0.012990234419703484, 0.9993330240249634, -0.053516630083322525, -0.07543754577636719, 1.48974609375, 1.62744140625, 0.483154296875, 1.494873046875
13398, -1.3987406492233276, -3.8149805068969727, 2.4295833110809326, 0.624502420425415, 0.2598244845867157, -0.2709324359893799, 0.8957421183586121, 0.37238815426826477, -0.07836117595434189, -0.4883096516132355, -1.0181487798690796, 0.06665952503681183, -1.5307685475529778, 1.787861809134938, 3.198383676393391, 9362.0, 30146.0, 35388.0, 9362.0, 8.390083312988281, 0.2765065133571625, -0.042552124708890915, 0.05959029123187065, 0.02308996394276619, -0.012990234419703484, 0.9993330240249634, -0.05440102145075798, -0.08439826965332031, 1.489013671875, 1.62744140625, 0.483154296875, 1.494873046875
13408, -1.3998732566833496, -3.815804958343506, 2.429800271987915, 0.624502420425415, 0.2598244845867157, -0.2709324359893799, 0.8957421183586121, 0.37238815426826477, -0.07836117595434189, -0.4883210361003876, -1.0181396007537842, 0.0666455328464508, -1.5211704801258046, 1.7767834702594882, 3.193712195542985, 9362.0, 30146.0, 35388.0, 9362.0, 8.390083312988281, 0.14723947644233704, 0.43926405906677246, 0.1416073441505432, 0.02308996394276619, -0.012990234419703484, 0.9993330240249634, -0.05440102145075798, -0.08439826965332031, 1.489013671875, 1.62744140625, 0.483154296875, 1.494873046875
13418, -1.3988432884216309, -3.8209071159362793, 2.4309518337249756, 0.624502420425415, 0.2598244845867157, -0.2709324359893799, 0.8957421183586121, 0.37238815426826477, -0.07836117595434189, -0.48831459879875183, -1.0181471109390259, 0.06663347035646439, -1.5297734158217562, 1.7798252915951878, 3.1982389374387887, 9362.0, 30146.0, 35388.0, 9362.0, 8.390083312988281, 0.14723947644233704, 0.43926405906677246, 0.1416073441505432, 0.02308996394276619, -0.012990234419703484, 0.9993330240249634, -0.06215358152985573, -0.01271820068359375, 1.494873046875, 1.62744140625, 0.483154296875, 1.494873046875
13428, -1.3985567092895508, -3.824676513671875, 2.431968927383423, 0.624502420425415, 0.2598244845867157, -0.2709324359893799, 0.8957421183586121, 0.37238815426826477, -0.07836117595434189, -0.48827603459358215, -1.0181318521499634, 0.06665422767400742, -1.5163845908291504, 1.7872590573155094, 3.1857948823752746, 9362.0, 30146.0, 35388.0, 9362.0, 8.390083312988281, 0.14723947644233704, 0.43926405906677246, 0.1416073441505432, 0.02308996394276619, -0.012990234419703484, 0.9993330240249634, -0.06635946035385132, -0.1650371551513672, 1.482421875, 1.62744140625, 0.483154296875, 1.494873046875
13438, -1.4002606868743896, -3.8252456188201904, 2.4325308799743652, 0.624502420425415, 0.2598244845867157, -0.2709324359893799, 0.8957421183586121, 0.37238815426826477, -0.07836117595434189, -0.4882766306400299, -1.0181303024291992, 0.06664956361055374, -1.5172861206873234, 1.7881628414562272, 3.1781886804679136, 9362.0, 30146.0, 35388.0, 9362.0, 8.390083312988281, 0.14723947644233704, 0.43926405906677246, 0.1416073441505432, 0.019492315128445625, -0.013721901923418045, 0.9995994567871094, -0.06635946035385132, -0.1650371551513672, 1.482421875, 1.62744140625, 0.483154296875, 1.4970703125
13478, -1.4010125398635864, -3.828374147415161, 2.4352049827575684, 0.7660781145095825, 0.31868594884872437, -0.28304389119148254, 0.9919834733009338, 0.4124230146408081, -0.08340679854154587, -0.4883166253566742, -1.018155574798584, 0.06664213538169861, -1.530957298889838, 1.7825736667916203, 3.199172472507742, 9362.0, 30146.0, 35388.0, 9362.0, 8.390083312988281, -0.2303980439901352, 0.41219788789749146, 0.17337879538536072, 0.019405771046876907, -0.011811456643044949, 0.9997228384017944, -0.06369365751743317, 0.10376167297363281, 1.50439453125, 1.62744140625, 0.483154296875, 1.4970703125
13488, -1.400161862373352, -3.8274803161621094, 2.4353749752044678, 0.7660781145095825, 0.31868594884872437, -0.28304389119148254, 0.9919834733009338, 0.4124230146408081, -0.08340679854154587, -0.4883148968219757, -1.0181504487991333, 0.06662698835134506, -1.5256638034067018, 1.7865851143280622, 3.2017635203220904, 9362.0, 30146.0, 35388.0, 9362.0, 8.390083312988281, -0.2303980439901352, 0.41219788789749146, 0.17337879538536072, 0.01954338327050209, -0.013012605719268322, 0.9974526166915894, -0.06467808037996292, 0.08584022521972656, 1.5029296875, 1.62744140625, 0.483154296875, 1.4970703125
