timeTick, roll, pitch, yaw, stateX, stateY, stateZ, stateVX, stateVY, stateVZ, otX0, otY0, otZ0, otRoll0, otPitch0, otYaw0, left wing, pitch motor, yaw motor, right wing, voltage, roll rate, pitch rate, yaw rate, A_x, A_y, A_z, current, i_raw, v_raw, airflow_voltage, airflow_speed, pot_Pitch
17884, 2.310065507888794, -3.848505735397339, 1.728808879852295, 0, 0, 0, 0, 0, 0, -0.9255375862121582, -1.3002351522445679, 0.07412514090538025, 0.035484840348417104, -0.3941743875440977, 6.301739351029623, 0, 0, 0, 0, 0, 0, 0, 0, 0, 0, 0, 0, 0, 0, 0, 0, 0
17894, 2.3111214637756348, -3.848384141921997, 1.7293559312820435, 0.00016398662410210818, -9.19746162253432e-05, 0.18036597967147827, 0.014879437163472176, -0.008345834910869598, 0.021248672157526016, -0.925550639629364, -1.3002184629440308, 0.07409311085939407, 0.04083499632469612, -0.39938820014526755, 6.3033406120297695, 9362.0, 30146.0, 35388.0, 9362.0, 7.9537200927734375, 0.16912388801574707, -0.0950629860162735, -0.2234836369752884, -0.023892130702733994, 0.012424015440046787, 0.9985135197639465, 0, 0, 0, 0, 0, 0
17904, 2.3118419647216797, -3.848454475402832, 1.7288563251495361, 0.0003461476298980415, -0.0001941407099366188, 0.18057535588741302, 0.02155279368162155, -0.012087318114936352, 0.020627334713935852, -0.9255347847938538, -1.3002275228500366, 0.07411211729049683, 0.03364747037331535, -0.39698619068701646, 6.299430778123775, 9362.0, 30146.0, 35388.0, 9362.0, 7.9537200927734375, -0.03914635628461838, -0.09282208234071732, 0.24419021606445312, -0.021410983055830002, 0.012992022559046745, 0.9989162683486938, -0.048168133944272995, -0.01271820068359375, 1.494873046875, 1.15576171875, 0.6913604736328125, 1.490478515625
17914, 2.3107056617736816, -3.847212791442871, 1.7313865423202515, 0.0005951120983809233, -0.00033376988722011447, 0.18077954649925232, 0.028240060433745384, -0.015838580206036568, 0.020211901515722275, -0.9255450367927551, -1.300239086151123, 0.07412463426589966, 0.035564290451327814, -0.39424963855515216, 6.297059121370081, 9362.0, 30146.0, 35388.0, 9362.0, 7.9537200927734375, 0.1500394642353058, 0.32892724871635437, -0.011654876172542572, -0.023219550028443336, 0.011784511618316174, 0.999305248260498, -0.043935377150774, 0.014162063598632812, 1.4970703125, 1.7021484375, 0.67376708984375, 1.494140625
17924, 2.3109028339385986, -3.848573684692383, 1.7312071323394775, 0.0009109465172514319, -0.0005109162884764373, 0.18097953498363495, 0.03492700681090355, -0.019590403884649277, 0.01978708989918232, -0.9255341291427612, -1.3002318143844604, 0.07412794232368469, 0.03494362545051876, -0.38872953443194547, 6.303078315035325, 9362.0, 30146.0, 35388.0, 9362.0, 7.9537200927734375, -0.1229424998164177, 0.11131061613559723, 0.04513558745384216, -0.01997002772986889, 0.011897173710167408, 0.9987981915473938, -0.05279354006052017, 0.04104042053222656, 1.499267578125, 0.999755859375, 2.9892425537109375, 1.49267578125
17934, 2.3101813793182373, -3.8495702743530273, 1.7316557168960571, 0.001293656532652676, -0.0007255790987983346, 0.18117551505565643, 0.04161497578024864, -0.023342180997133255, 0.019409244880080223, -0.9255428314208984, -1.3002369403839111, 0.07409533113241196, 0.03125022982341787, -0.39725432183183784, 6.302598714571262, 9362.0, 30146.0, 35388.0, 9362.0, 7.9537200927734375, 0.04305324703454971, -0.35428276658058167, -0.22432497143745422, -0.020091988146305084, 0.012866823934018612, 1.0010261535644531, -0.04570692405104637, -0.04855918884277344, 1.491943359375, 1.6611328125, 0.566650390625, 1.493408203125
17944, 2.3096866607666016, -3.8484416007995605, 1.7299946546554565, 0.001743251457810402, -0.0009777576196938753, 0.18136762082576752, 0.04830404371023178, -0.027093462646007538, 0.019012855365872383, -0.9255399703979492, -1.300228238105774, 0.07409916073083878, 0.03380835229423743, -0.3924922640764521, 6.294775636659604, 9362.0, 30146.0, 35388.0, 9362.0, 7.9537200927734375, 0.01570359244942665, -0.2572225332260132, 0.03385762870311737, -0.02136600762605667, 0.013654780574142933, 0.9984456300735474, -0.043553922325372696, -0.2635974884033203, 1.474365234375, 1.8134765625, 1.0226898193359375, 1.48828125
17954, 2.3092613220214844, -3.8469693660736084, 1.7305928468704224, 0.00225978740490973, -0.0012674657627940178, 0.18155637383460999, 0.05500306189060211, -0.03084835223853588, 0.01873905397951603, -0.9255360960960388, -1.3002249002456665, 0.07409920543432236, 0.03760289983243593, -0.3972694496683289, 6.3018084735911835, 9362.0, 30146.0, 35388.0, 9362.0, 7.9537200927734375, 0.09884420037269592, 0.25726449489593506, -0.21899259090423584, -0.02175992727279663, 0.01372789777815342, 0.9995483160018921, -0.04082300886511803, 0.03208160400390625, 1.49853515625, 1.25830078125, 0.137664794921875, 1.494873046875
17964, 2.310309886932373, -3.8474807739257812, 1.7284222841262817, 0.0028432647231966257, -0.001594698172993958, 0.1817418336868286, 0.061692457646131516, -0.034598056226968765, 0.018352694809436798, -0.9255455136299133, -1.3002407550811768, 0.07411827892065048, 0.032726217248291826, -0.4032878335217447, 6.299471606929407, 9362.0, 30146.0, 35388.0, 9362.0, 7.9537200927734375, 0.15219981968402863, 0.3007354736328125, 0.024990366771817207, -0.022040441632270813, 0.013664080761373043, 0.9990520477294922, -0.05283254384994507, -0.19191741943359375, 1.480224609375, 1.742431640625, 0.7872772216796875, 1.4912109375
17974, 2.3118035793304443, -3.8492984771728516, 1.7278624773025513, 0.0034936293959617615, -0.0019594274926930666, 0.181923508644104, 0.06838036328554153, -0.03834804520010948, 0.01798376441001892, -0.9255309104919434, -1.3002333641052246, 0.07409655302762985, 0.03819926482402596, -0.39783732536022853, 6.304441519783238, 9362.0, 30146.0, 35388.0, 9362.0, 7.9537200927734375, -0.1652694195508957, -0.04943789169192314, -0.2777230143547058, -0.02173684351146221, 0.012670231983065605, 0.9987945556640625, -0.05518157780170441, 0.03208160400390625, 1.49853515625, 1.806884765625, 0.99822998046875, 1.487548828125
17984, 2.310847759246826, -3.847857713699341, 1.7261358499526978, 0.004210873506963253, -0.002361664781346917, 0.18210144340991974, 0.07506844401359558, -0.042099468410015106, 0.017604392021894455, -0.9255408644676208, -1.3002355098724365, 0.0740979015827179, 0.03319896099627472, -0.40175396287921217, 6.301498172006667, 9362.0, 30146.0, 35388.0, 9362.0, 7.9537200927734375, 0.15608830749988556, -0.0907563641667366, -0.11010494083166122, -0.020445996895432472, 0.012614364735782146, 1.0006777048110962, -0.06810633838176727, -0.030637741088867188, 1.493408203125, 1.6494140625, 0.5372772216796875, 1.48974609375
17994, 2.3117315769195557, -3.8470723628997803, 1.7260092496871948, 0.004995011258870363, -0.002801427384838462, 0.18227554857730865, 0.08175904303789139, -0.045853231102228165, 0.01721690408885479, -0.9255418181419373, -1.30023193359375, 0.07407692074775696, 0.03897509225680335, -0.3942452262586471, 6.307316878907486, 9362.0, 30146.0, 35388.0, 9362.0, 7.9537200927734375, -0.05456303060054779, 0.09952150285243988, -0.11480996757745743, -0.020595833659172058, 0.012487906031310558, 0.9985216856002808, -0.06279405206441879, -0.05751800537109375, 1.4912109375, 1.644287109375, 0.524505615234375, 1.493408203125
18004, 2.3123486042022705, -3.847362518310547, 1.726021409034729, 0.00584608968347311, -0.003278747433796525, 0.18244647979736328, 0.0884566679596901, -0.049610815942287445, 0.016968898475170135, -0.9255454540252686, -1.300227165222168, 0.0740957111120224, 0.03815376546931031, -0.39486812131087845, 6.297721888116441, 9362.0, 30146.0, 35388.0, 9362.0, 7.9537200927734375, -0.18665958940982819, -0.22470347583293915, -0.12107108533382416, -0.020753661170601845, 0.01281417440623045, 0.9995526075363159, -0.05170808359980583, -0.04855918884277344, 1.491943359375, 1.540283203125, 0.280364990234375, 1.4912109375
18014, 2.311310291290283, -3.847050428390503, 1.7261598110198975, 0.0067640868946909904, -0.00379362259991467, 0.18261417746543884, 0.09514281153678894, -0.05336423218250275, 0.016572117805480957, -0.9255391955375671, -1.300229549407959, 0.07408562302589417, 0.036993975226711745, -0.39810796795867986, 6.307248657310369, 9362.0, 30146.0, 35388.0, 9362.0, 7.9537200927734375, 0.02575136534869671, -0.2114981859922409, 5.5182572396006435e-05, -0.01964174397289753, 0.012164626270532608, 1.0014283657073975, -0.060667529702186584, 0.023120880126953125, 1.497802734375, 1.63037109375, 0.490264892578125, 1.4912109375
18024, 2.311936616897583, -3.8477275371551514, 1.7259358167648315, 0.007748957257717848, -0.004346042405813932, 0.18277804553508759, 0.10183128714561462, -0.05711967125535011, 0.01620159111917019, -0.9255397915840149, -1.3002246618270874, 0.07411373406648636, 0.0409194452807302, -0.4019468992879922, 6.296248593585839, 9362.0, 30146.0, 35388.0, 9362.0, 7.9537200927734375, 0.0410272553563118, 0.022906264290213585, -0.35736095905303955, -0.020253753289580345, 0.011345642618834972, 0.9978188276290894, -0.04997902736067772, -0.030637741088867188, 1.493408203125, 1.51171875, 0.21942138671875, 1.4853515625
18034, 2.3125836849212646, -3.8483285903930664, 1.7230850458145142, 0.008800777606666088, -0.004936045501381159, 0.18293920159339905, 0.10853270441293716, -0.060880981385707855, 0.016028854995965958, -0.9255350232124329, -1.300239086151123, 0.07409128546714783, 0.03578694884125673, -0.3965501070555604, 6.297530462266377, 9362.0, 30146.0, 35388.0, 9362.0, 7.9537200927734375, 0.1807028353214264, -0.05760795623064041, 0.0259785708039999, -0.0211004801094532, 0.010938962921500206, 0.9972410798072815, -0.04207591712474823, 0.05000114440917969, 1.5, 1.72412109375, 0.73431396484375, 1.49267578125
18044, 2.3128631114959717, -3.848348617553711, 1.7225252389907837, 0.009919530712068081, -0.005563618615269661, 0.18309736251831055, 0.11521779000759125, -0.06463394314050674, 0.015602716244757175, -0.9255370497703552, -1.3002235889434814, 0.0740969181060791, 0.03664312498174836, -0.39364801461849197, 6.298479925806933, 9362.0, 30146.0, 35388.0, 9362.0, 7.9537200927734375, 0.09917913377285004, -0.1248559057712555, 0.03323071449995041, -0.02225308120250702, 0.011112409643828869, 0.9974765777587891, -0.05175623297691345, -0.08439826965332031, 1.489013671875, 0.79248046875, 10.782989501953125, 1.491943359375
18054, 2.3131556510925293, -3.8477399349212646, 1.7220520973205566, 0.011105086654424667, -0.006228698417544365, 0.18325048685073853, 0.12189333140850067, -0.06838209927082062, 0.015022295527160168, -0.925532341003418, -1.300230622291565, 0.074085533618927, 0.04015814440024934, -0.39910445814277296, 6.300093002102151, 9362.0, 30146.0, 35388.0, 9362.0, 7.9537200927734375, -0.2609972357749939, -0.033948831260204315, -0.01885996386408806, -0.024028433486819267, 0.013031702488660812, 0.9965492486953735, -0.047956906259059906, 0.11272048950195312, 1.505126953125, 1.15283203125, 0.7160186767578125, 1.49267578125
18064, 2.3120458126068115, -3.847782611846924, 1.722192645072937, 0.012357397936284542, -0.006931263022124767, 0.1833978146314621, 0.12856897711753845, -0.07213083654642105, 0.014443299733102322, -0.925547182559967, -1.3002314567565918, 0.07409263402223587, 0.03678768385615524, -0.39833373505027225, 6.295023685273335, 9362.0, 30146.0, 35388.0, 9362.0, 7.9537200927734375, 0.031239841133356094, -0.08867137134075165, 0.0696394294500351, -0.02135823667049408, 0.012844094075262547, 0.9975280165672302, -0.038956716656684875, -0.11127853393554688, 1.48681640625, 1.7197265625, 0.7219390869140625, 1.4912109375
18074, 2.311899185180664, -3.8477210998535156, 1.722223162651062, 0.013676450587809086, -0.007671311963349581, 0.18353919684886932, 0.13524159789085388, -0.07587895542383194, 0.013834789395332336, -0.9255412220954895, -1.3002302646636963, 0.07409252971410751, 0.033169477396683515, -0.3975726550023637, 6.30005043942173, 9362.0, 30146.0, 35388.0, 9362.0, 7.9537200927734375, 0.23202471435070038, 0.2588212192058563, 0.151723250746727, -0.02023438736796379, 0.013580679893493652, 0.9982518553733826, -0.04804666340351105, 0.08584022521972656, 1.5029296875, 1.7900390625, 0.938507080078125, 1.493408203125
18084, 2.312239170074463, -3.847975015640259, 1.7230943441390991, 0.015062237158417702, -0.008448836393654346, 0.18367460370063782, 0.1419157236814499, -0.07962600886821747, 0.013248112984001637, -0.9255248308181763, -1.300233006477356, 0.07408571988344193, 0.03494076981965709, -0.3957682284606676, 6.302102840715494, 9362.0, 30146.0, 35388.0, 9362.0, 7.9537200927734375, -0.08716712892055511, -0.4135671555995941, -0.05946000665426254, -0.020399728789925575, 0.014101628214120865, 1.0018948316574097, -0.03562260419130325, 0.08584022521972656, 1.5029296875, 0.802734375, 10.220703125, 1.4912109375
18094, 2.3119797706604004, -3.8452775478363037, 1.7232310771942139, 0.016514789313077927, -0.009263844229280949, 0.18380451202392578, 0.1485947221517563, -0.08337550610303879, 0.012733764946460724, -0.9255282878875732, -1.3002272844314575, 0.07411430031061172, 0.03373643493786197, -0.3995229795132218, 6.30222125449837, 9362.0, 30146.0, 35388.0, 9362.0, 7.9537200927734375, 0.048537228256464005, -0.03813556209206581, 0.11576750129461288, -0.021258754655718803, 0.012364587746560574, 1.0008758306503296, -0.02500246651470661, 0.07688140869140625, 1.502197265625, 0.643798828125, 21.6993408203125, 1.49267578125
18104, 2.3118605613708496, -3.844594717025757, 1.723544716835022, 0.01803423836827278, -0.010116408579051495, 0.18393079936504364, 0.15529517829418182, -0.08713730424642563, 0.012525585480034351, -0.9255374073982239, -1.3002376556396484, 0.0740949735045433, 0.038148186618861726, -0.39890338241639256, 6.294837288230544, 9362.0, 30146.0, 35388.0, 9362.0, 7.9537200927734375, -0.17108489573001862, 0.35948848724365234, 0.2353547066450119, -0.019433019682765007, 0.012288830243051052, 0.99817955493927, -0.02613363042473793, 0.15752029418945312, 1.5087890625, 1.692626953125, 0.648193359375, 1.4912109375
18114, 2.3111438751220703, -3.8461263179779053, 1.7237250804901123, 0.019620683044195175, -0.011006596498191357, 0.18405520915985107, 0.1619935929775238, -0.0909002348780632, 0.01235566008836031, -0.9255276322364807, -1.300230860710144, 0.074114128947258, 0.038447263058522814, -0.40004446849891906, 6.302056748511407, 9362.0, 30146.0, 35388.0, 9362.0, 7.9537200927734375, 0.03244055435061455, 0.09773164242506027, 0.019197218120098114, -0.021992987021803856, 0.011519217863678932, 0.9989670515060425, -0.026167748495936394, 0.014162063598632812, 1.4970703125, 1.238525390625, 0.20343017578125, 1.4912109375
18124, 2.3117570877075195, -3.845881700515747, 1.7240161895751953, 0.021274011582136154, -0.011934359557926655, 0.18417653441429138, 0.16867199540138245, -0.09465235471725464, 0.01190993096679449, -0.9255308508872986, -1.3002389669418335, 0.07410148531198502, 0.0338543293333694, -0.3983113978806614, 6.2992677480069235, 9362.0, 30146.0, 35388.0, 9362.0, 7.9537200927734375, 0.13131645321846008, -0.09326997399330139, 0.05956771597266197, -0.022309599444270134, 0.011882446706295013, 0.9970753192901611, -0.03160007297992706, -0.13815879821777344, 1.484619140625, 0.895751953125, 6.036407470703125, 1.491943359375
18134, 2.311156749725342, -3.8445920944213867, 1.7258422374725342, 0.022994155064225197, -0.01289964746683836, 0.18429365754127502, 0.17535656690597534, -0.09840517491102219, 0.011516425758600235, -0.9255375266075134, -1.3002277612686157, 0.074097640812397, 0.03885467061926833, -0.3997307032682045, 6.2963103456088465, 9362.0, 30146.0, 35388.0, 9362.0, 7.9537200927734375, 0.2548808157444, 0.15412934124469757, -0.2094718962907791, -0.0212617889046669, 0.012077879160642624, 0.9978890419006348, -0.029943931847810745, 0.03208160400390625, 1.49853515625, 1.644287109375, 0.524505615234375, 1.491943359375
18154, 2.3106844425201416, -3.845257520675659, 1.7261041402816772, 0.024781078100204468, -0.013902432285249233, 0.18440592288970947, 0.1820281594991684, -0.10215167701244354, 0.010936678387224674, -0.9255253076553345, -1.3002347946166992, 0.07410681247711182, 0.033343283426530826, -0.3944140809545047, 6.303142464237318, 9362.0, 30146.0, 35388.0, 9362.0, 7.9537200927734375, -0.1860339492559433, 0.06090760976076126, 0.09465467184782028, -0.02338341809809208, 0.013375138863921165, 0.9989140629768372, -0.018489941954612732, 0.023120880126953125, 1.497802734375, 1.660400390625, 0.5649566650390625, 1.491943359375
18164, 2.312614917755127, -3.846261978149414, 1.725182056427002, 0.028555098921060562, -0.01602041721343994, 0.18461397290229797, 0.19537517428398132, -0.10964778065681458, 0.009876511991024017, -0.9255228638648987, -1.3002289533615112, 0.07410193979740143, 0.04048139676749845, -0.4048903490477187, 6.294247834618318, 9362.0, 30146.0, 35388.0, 9362.0, 7.9537200927734375, -0.1860339492559433, 0.06090760976076126, 0.09465467184782028, -0.024009719491004944, 0.013232016935944557, 0.9982977509498596, -0.018489941954612732, 0.023120880126953125, 1.497802734375, 1.660400390625, 0.5649566650390625, 1.491943359375
18194, 2.3102025985717773, -3.8482415676116943, 1.7259536981582642, 0.03471706807613373, -0.019478702917695045, 0.1848912537097931, 0.21542403101921082, -0.12090514600276947, 0.008567947894334793, -0.925545334815979, -1.3002276420593262, 0.07410281151533127, 0.035720539716778694, -0.39925218290079556, 6.295409296998555, 9362.0, 30146.0, 35388.0, 9362.0, 7.9537200927734375, -0.03187168389558792, -0.22484861314296722, 0.4050144553184509, -0.02120395563542843, 0.010298988781869411, 0.9993333220481873, -0.018489941954612732, 0.023120880126953125, 1.497802734375, 0.840087890625, 8.3499755859375, 1.491943359375
18204, 2.3098397254943848, -3.8469624519348145, 1.7282742261886597, 0.03471706807613373, -0.019478702917695045, 0.1848912537097931, 0.21542403101921082, -0.12090514600276947, 0.008567947894334793, -0.9255324602127075, -1.3002216815948486, 0.074100561439991, 0.035662701105532234, -0.39903152524584584, 6.2993187301588485, 9362.0, 30146.0, 35388.0, 9362.0, 7.9537200927734375, -0.03065810538828373, -0.10583709180355072, 0.17682123184204102, -0.020201493054628372, 0.01289286743849516, 0.9991886019706726, -0.018489941954612732, 0.023120880126953125, 1.497802734375, 0.840087890625, 8.3499755859375, 1.491943359375
18214, 2.309232711791992, -3.8473472595214844, 1.7292883396148682, 0.03915923833847046, -0.021971827372908592, 0.18505407869815826, 0.22879745066165924, -0.12840774655342102, 0.007761144544929266, -0.9255369901657104, -1.300227165222168, 0.07410651445388794, 0.03728444924265113, -0.4058408977508634, 6.301645993055954, 9362.0, 30146.0, 35388.0, 9362.0, 7.9537200927734375, -0.019973376765847206, -0.1031586155295372, 0.09297831356525421, -0.020201493054628372, 0.01289286743849516, 0.9991886019706726, -0.018489941954612732, 0.023120880126953125, 1.497802734375, 0.840087890625, 8.3499755859375, 1.491943359375
18224, 2.309032678604126, -3.8473992347717285, 1.7299209833145142, 0.0414806492626667, -0.023274658247828484, 0.1851298063993454, 0.23548495769500732, -0.1321583390235901, 0.007385083474218845, -0.925523579120636, -1.3002337217330933, 0.07409022748470306, 0.039396417724680555, -0.40059056109939206, 6.301507482583373, 9362.0, 30146.0, 35388.0, 9362.0, 7.9537200927734375, -0.019973376765847206, -0.1031586155295372, 0.09297831356525421, -0.023034855723381042, 0.012638654559850693, 0.9987030029296875, -0.018489941954612732, 0.023120880126953125, 1.497802734375, 0.840087890625, 8.3499755859375, 1.491943359375
18234, 2.30993914604187, -3.843649387359619, 1.7290502786636353, 0.043868981301784515, -0.024615012109279633, 0.18520236015319824, 0.24218115210533142, -0.13591229915618896, 0.007126550655812025, -0.9255290031433105, -1.3002265691757202, 0.0741083025932312, 0.04551521866026711, -0.40597975157004385, 6.296010502503218, 9362.0, 30146.0, 35388.0, 9362.0, 7.9537200927734375, 0.056728459894657135, 0.3476419448852539, 0.18971531093120575, -0.021069185808300972, 0.013407198712229729, 1.0004037618637085, -0.018489941954612732, 0.023120880126953125, 1.497802734375, 0.840087890625, 8.3499755859375, 1.491943359375
18244, 2.310255765914917, -3.844636917114258, 1.7299121618270874, 0.0463242344558239, -0.025992881506681442, 0.185271754860878, 0.24886959791183472, -0.13966163992881775, 0.006754265166819096, -0.9255324006080627, -1.3002328872680664, 0.0740983635187149, 0.0385522453605709, -0.39895644928350293, 6.303256218548666, 9362.0, 30146.0, 35388.0, 9362.0, 7.9537200927734375, -0.09488876909017563, -0.15815484523773193, 0.19924020767211914, -0.020902344956994057, 0.012259921059012413, 0.9987112283706665, -0.018489941954612732, 0.023120880126953125, 1.497802734375, 0.840087890625, 8.3499755859375, 1.491943359375
18254, 2.3083791732788086, -3.843604326248169, 1.730684518814087, 0.04884636402130127, -0.027408266440033913, 0.18533778190612793, 0.25555655360221863, -0.14341536164283752, 0.00645282119512558, -0.9255329966545105, -1.300224781036377, 0.07409884035587311, 0.03650931536111265, -0.40151491771740666, 6.299022211763962, 9362.0, 30146.0, 35388.0, 9362.0, 7.9537200927734375, -0.09488876909017563, -0.15815484523773193, 0.19924020767211914, -0.022083422169089317, 0.011712330393493176, 1.0003467798233032, -0.018489941954612732, 0.023120880126953125, 1.497802734375, 0.840087890625, 8.3499755859375, 1.491943359375
18264, 2.3081061840057373, -3.846092462539673, 1.7328184843063354, 0.05143534392118454, -0.02886117435991764, 0.18540038168430328, 0.2622395157814026, -0.14716625213623047, 0.006067471578717232, -0.9255294799804688, -1.300236463546753, 0.07411115616559982, 0.035664853974568686, -0.4010523323198356, 6.302531829949459, 9362.0, 30146.0, 35388.0, 9362.0, 7.9537200927734375, -0.09488876909017563, -0.15815484523773193, 0.19924020767211914, -0.023314496502280235, 0.013063653372228146, 0.9978951811790466, -0.018489941954612732, 0.023120880126953125, 1.497802734375, 0.840087890625, 8.3499755859375, 1.493408203125
18274, 2.3082375526428223, -3.846686840057373, 1.733944058418274, 0.05143534392118454, -0.02886117435991764, 0.18540038168430328, 0.2622395157814026, -0.14716625213623047, 0.006067471578717232, -0.9255398511886597, -1.300226092338562, 0.07409827411174774, 0.03773491411065244, -0.40257707694104283, 6.302341752059675, 9362.0, 30146.0, 35388.0, 9362.0, 7.9537200927734375, 0.012931187637150288, -0.037556178867816925, -0.181757852435112, -0.023314496502280235, 0.013063653372228146, 0.9978951811790466, -0.018489941954612732, 0.023120880126953125, 1.497802734375, 0.840087890625, 8.3499755859375, 1.493408203125
18294, 2.3088057041168213, -3.848040819168091, 1.7328015565872192, 0.05960339680314064, -0.033444855362176895, 0.18556678295135498, 0.2823004424571991, -0.1584118753671646, 0.005021571181714535, -0.9255361557006836, -1.3002309799194336, 0.07410915195941925, 0.041726045603907004, -0.3984703799358442, 6.301372339053449, 9362.0, 30146.0, 35388.0, 9362.0, 7.9537200927734375, 0.012931187637150288, -0.037556178867816925, -0.181757852435112, -0.020948220044374466, 0.010395837016403675, 1.0006051063537598, -0.018489941954612732, 0.023120880126953125, 1.497802734375, 0.840087890625, 8.3499755859375, 1.493408203125
18304, 2.3097083568573, -3.8484959602355957, 1.7345881462097168, 0.05960339680314064, -0.033444855362176895, 0.18556678295135498, 0.2823004424571991, -0.1584118753671646, 0.005021571181714535, -0.9255200624465942, -1.3002277612686157, 0.07410541921854019, 0.03822019399475745, -0.3955045846704479, 6.303154197666176, 9362.0, 30146.0, 35388.0, 9362.0, 7.9537200927734375, -0.057363446801900864, 0.25002655386924744, 0.19746096432209015, -0.020952491089701653, 0.010936868377029896, 0.9982892870903015, -0.018489941954612732, 0.023120880126953125, 1.497802734375, 0.840087890625, 8.3499755859375, 1.493408203125
18344, 2.3118879795074463, -3.852141857147217, 1.7352099418640137, 0.06837375462055206, -0.03836606442928314, 0.1857062727212906, 0.30238425731658936, -0.16966567933559418, 0.00414615822955966, -0.9255399703979492, -1.3002421855926514, 0.07409171760082245, 0.03848424760303397, -0.40670578080090536, 6.300565167104752, 9362.0, 30146.0, 35388.0, 9362.0, 7.9537200927734375, 0.08225667476654053, -0.14552710950374603, 0.13412907719612122, -0.023016948252916336, 0.012234624475240707, 1.0003247261047363, -0.018489941954612732, 0.023120880126953125, 1.497802734375, 0.94775390625, 4.325836181640625, 1.491943359375
18354, 2.3114407062530518, -3.8510901927948, 1.7367557287216187, 0.07774636894464493, -0.04362470656633377, 0.18581146001815796, 0.3224656879901886, -0.18091748654842377, 0.0030060915742069483, -0.9255414009094238, -1.3002142906188965, 0.07410984486341476, 0.04154957805183364, -0.39989971102755817, 6.298238202367454, 9362.0, 30146.0, 35388.0, 9362.0, 7.9537200927734375, 0.13217510282993317, 0.13362032175064087, 0.19698596000671387, -0.020290277898311615, 0.011885590851306915, 1.0006403923034668, -0.018489941954612732, 0.023120880126953125, 1.497802734375, 0.94775390625, 4.325836181640625, 1.491943359375
18374, 2.310849905014038, -3.852611541748047, 1.7357159852981567, 0.08100452274084091, -0.045452654361724854, 0.18583987653255463, 0.32916584610939026, -0.1846722513437271, 0.002676915843039751, -0.9255240559577942, -1.300240159034729, 0.07412242144346237, 0.035273928715651215, -0.40092532731449637, 6.295705947548872, 9362.0, 30146.0, 35388.0, 9362.0, 7.9537200927734375, 0.021225640550255775, 0.21805012226104736, 0.17817054688930511, -0.019591912627220154, 0.01280688215047121, 1.000803828239441, -0.018489941954612732, 0.023120880126953125, 1.497802734375, 1.423828125, 0.066802978515625, 1.491943359375
18434, 2.3121585845947266, -3.855029821395874, 1.7348252534866333, 0.09118112921714783, -0.05116184800863266, 0.18590793013572693, 0.34927675127983093, -0.1959405541419983, 0.0018671577563509345, -0.9255267381668091, -1.3002313375473022, 0.07410220801830292, 0.04260019686186757, -0.4011955179129245, 6.300484134615502, 9362.0, 30146.0, 35388.0, 9362.0, 7.9537200927734375, -0.0724908709526062, 0.04798941686749458, 0.36867013573646545, -0.021701321005821228, 0.014183680526912212, 1.001571536064148, -0.018489941954612732, 0.023120880126953125, 1.497802734375, 1.453125, 0.1099090576171875, 1.491943359375
18444, 2.3127903938293457, -3.8553261756896973, 1.7375919818878174, 0.1094827875494957, -0.06142803281545639, 0.1859574168920517, 0.3827942907810211, -0.21471166610717773, 0.00016297274851240218, -0.9255354404449463, -1.3002301454544067, 0.07409843802452087, 0.04248057834780348, -0.3998690145955379, 6.2935538032611085, 9362.0, 30146.0, 35388.0, 9362.0, 7.9537200927734375, 0.20425598323345184, -0.19478739798069, -0.03028196096420288, -0.022427722811698914, 0.014601831324398518, 1.0000754594802856, -0.018489941954612732, 0.023120880126953125, 1.497802734375, 1.453125, 0.1099090576171875, 1.491943359375
18454, 2.31361722946167, -3.8542354106903076, 1.737369179725647, 0.11334431171417236, -0.06359395384788513, 0.1859581619501114, 0.3895099461078644, -0.21847255527973175, -1.28776428027777e-05, -0.9255343079566956, -1.3002229928970337, 0.07411611080169678, 0.037466523149097465, -0.4003074896601504, 6.2981006259448975, 9362.0, 30146.0, 35388.0, 9362.0, 7.9537200927734375, 0.08263548463582993, -0.23007690906524658, 0.09277625381946564, -0.0223972387611866, 0.013577030040323734, 0.9993123412132263, -0.018489941954612732, 0.023120880126953125, 1.497802734375, 1.453125, 0.1099090576171875, 1.491943359375
18464, 2.3135602474212646, -3.8528714179992676, 1.738186240196228, 0.11727295815944672, -0.06579747051000595, 0.18595664203166962, 0.39621928334236145, -0.2222306877374649, -0.00028964175726287067, -0.9255356192588806, -1.3002322912216187, 0.07412080466747284, 0.036971152778914614, -0.4013860960668012, 6.292668353400826, 9362.0, 30146.0, 35388.0, 9362.0, 7.9537200927734375, 0.08263548463582993, -0.23007690906524658, 0.09277625381946564, -0.0221380814909935, 0.012610410340130329, 0.9986929893493652, -0.018489941954612732, 0.023120880126953125, 1.497802734375, 1.453125, 0.1099090576171875, 1.491943359375
18474, 2.313607931137085, -3.855273962020874, 1.7387679815292358, 0.12126866728067398, -0.06803856045007706, 0.18595203757286072, 0.4029223918914795, -0.22598768770694733, -0.0006300434470176697, -0.9255366325378418, -1.3002291917800903, 0.07412368804216385, 0.04212402317265214, -0.4040642734404969, 6.3055485243293345, 9362.0, 30146.0, 35388.0, 9362.0, 7.9537200927734375, -0.041861485689878464, -0.4117591679096222, 0.3209295868873596, -0.020893527194857597, 0.010653797537088394, 0.9986230731010437, -0.018489941954612732, 0.023120880126953125, 1.497802734375, 1.453125, 0.1099090576171875, 1.491943359375
18494, 2.3133630752563477, -3.8517565727233887, 1.7408980131149292, 0.12126866728067398, -0.06803856045007706, 0.18595203757286072, 0.4029223918914795, -0.22598768770694733, -0.0006300434470176697, -0.9255282878875732, -1.3002182245254517, 0.07410315424203873, 0.040430424587620105, -0.3915020713588433, 6.296028493326395, 9362.0, 30146.0, 35388.0, 9362.0, 7.9537200927734375, 0.11793364584445953, 0.2796987295150757, 0.35615551471710205, -0.021358074620366096, 0.012542405165731907, 1.000340223312378, -0.018489941954612732, 0.023120880126953125, 1.497802734375, 1.005615234375, 2.859588623046875, 1.491943359375
18544, 2.3132474422454834, -3.856724262237549, 1.7479099035263062, 0.15111468732357025, -0.08477778732776642, 0.1858150213956833, 0.4498414695262909, -0.25228503346443176, -0.0030720194336026907, -0.9255236983299255, -1.300231695175171, 0.07411616295576096, 0.03292086196158148, -0.3991111079367897, 6.2995778814364485, 9362.0, 30146.0, 35388.0, 9362.0, 7.9537200927734375, -0.04966644197702408, -0.2525883913040161, -0.37442609667778015, -0.02120889537036419, 0.014287284575402737, 0.9991870522499084, -0.018489941954612732, 0.023120880126953125, 1.497802734375, 1.54248046875, 0.28521728515625, 1.491943359375
18564, 2.3132941722869873, -3.856154203414917, 1.745327353477478, 0.16024571657180786, -0.08989860862493515, 0.18574748933315277, 0.46325966715812683, -0.25979673862457275, -0.0037138548213988543, -0.9255185723304749, -1.3002177476882935, 0.07410938292741776, 0.037924972325769614, -0.4032696527798123, 6.300993153161245, 9362.0, 30146.0, 35388.0, 9362.0, 7.9537200927734375, -0.09267912805080414, -0.4905623495578766, -0.3039681017398834, -0.022092346101999283, 0.012899171561002731, 0.9990204572677612, -0.018489941954612732, 0.023120880126953125, 1.497802734375, 1.54248046875, 0.28521728515625, 1.491943359375
18574, 2.311893939971924, -3.8535852432250977, 1.7437114715576172, 0.16024571657180786, -0.08989860862493515, 0.18574748933315277, 0.46325966715812683, -0.25979673862457275, -0.0037138548213988543, -0.9255245923995972, -1.3002240657806396, 0.07410354912281036, 0.03588047586490512, -0.40059026208268733, 6.30097955039215, 9362.0, 30146.0, 35388.0, 9362.0, 7.9537200927734375, 0.1529099941253662, 0.08623101562261581, -0.03795565664768219, -0.022559328004717827, 0.012473704293370247, 0.9983453154563904, -0.018489941954612732, 0.023120880126953125, 1.497802734375, 1.54248046875, 0.28521728515625, 1.491943359375
18584, 2.312530279159546, -3.853896379470825, 1.7432434558868408, 0.16964499652385712, -0.09516962617635727, 0.18566615879535675, 0.4766669273376465, -0.26730474829673767, -0.00445322273299098, -0.925525963306427, -1.3002285957336426, 0.0741315484046936, 0.036016822135170386, -0.3979420029348262, 6.302906670316626, 9362.0, 30146.0, 35388.0, 9362.0, 7.9537200927734375, -0.021689020097255707, 0.4015275835990906, 0.08850731700658798, -0.02163195237517357, 0.01199940126389265, 0.9991341829299927, -0.018489941954612732, 0.023120880126953125, 1.497802734375, 1.54248046875, 0.28521728515625, 1.491943359375
18594, 2.3129100799560547, -3.8564791679382324, 1.7438956499099731, 0.16964499652385712, -0.09516962617635727, 0.18566615879535675, 0.4766669273376465, -0.26730474829673767, -0.00445322273299098, -0.9255235195159912, -1.3002314567565918, 0.07410137355327606, 0.03632383526728542, -0.40325025371376455, 6.299423579209339, 9362.0, 30146.0, 35388.0, 9362.0, 7.9537200927734375, 0.037782322615385056, -0.09112926572561264, -0.26406732201576233, -0.023251663893461227, 0.011178760789334774, 0.9987163543701172, -0.018489941954612732, 0.023120880126953125, 1.497802734375, 1.29931640625, 0.0500640869140625, 1.491943359375
18624, 2.3129305839538574, -3.8523972034454346, 1.7403521537780762, 0.18924760818481445, -0.10616195201873779, 0.18545545637607574, 0.5034737586975098, -0.2823166847229004, -0.00597839942201972, -0.9255359172821045, -1.3002299070358276, 0.07410265505313873, 0.04098229233463788, -0.40049786216499683, 6.3017359289810795, 9362.0, 30146.0, 35388.0, 9362.0, 7.9537200927734375, 0.004838077817112207, 0.2631673216819763, 0.19951751828193665, -0.021622108295559883, 0.011033107526600361, 0.9989314675331116, -0.018489941954612732, 0.023120880126953125, 1.497802734375, 0.97265625, 3.64263916015625, 1.491943359375
18634, 2.313493490219116, -3.854200839996338, 1.7415848970413208, 0.1943158507347107, -0.10900389403104782, 0.18539412319660187, 0.5101746320724487, -0.28607144951820374, -0.006286580115556717, -0.9255285859107971, -1.300227165222168, 0.07408710569143295, 0.04200155774813811, -0.4043480048703145, 6.296297522434038, 9362.0, 30146.0, 35388.0, 9362.0, 7.9537200927734375, 0.11099191009998322, -0.24973604083061218, -0.005038165953010321, -0.020559968426823616, 0.011422524228692055, 0.9979613423347473, -0.018489941954612732, 0.023120880126953125, 1.497802734375, 0.97265625, 3.64263916015625, 1.491943359375
18644, 2.314239263534546, -3.853271007537842, 1.7415385246276855, 0.1943158507347107, -0.10900389403104782, 0.18539412319660187, 0.5101746320724487, -0.28607144951820374, -0.006286580115556717, -0.9255250096321106, -1.300235390663147, 0.07409501075744629, 0.03922227480755703, -0.404391409020775, 6.298395950616323, 9362.0, 30146.0, 35388.0, 9362.0, 7.9537200927734375, -0.04812870919704437, -0.055137425661087036, -0.10919342935085297, -0.022143863141536713, 0.01199380960315466, 1.0006364583969116, -0.018489941954612732, 0.023120880126953125, 1.497802734375, 0.913330078125, 5.4127044677734375, 1.491943359375
18664, 2.314908742904663, -3.853505849838257, 1.7426526546478271, 0.20992238819599152, -0.11775491386651993, 0.1851862519979477, 0.5302640199661255, -0.2973323464393616, -0.007540090940892696, -0.9255209565162659, -1.3002194166183472, 0.0740920677781105, 0.04429582027309859, -0.4056205324366431, 6.29610703050189, 9362.0, 30146.0, 35388.0, 9362.0, 7.9537200927734375, -0.1552499532699585, -0.2881113886833191, 0.11335896700620651, -0.02244091033935547, 0.010866858996450901, 0.99724942445755, -0.018489941954612732, 0.023120880126953125, 1.497802734375, 1.2919921875, 0.0613250732421875, 1.491943359375
18674, 2.3146653175354004, -3.85282039642334, 1.74472177028656, 0.20992238819599152, -0.11775491386651993, 0.1851862519979477, 0.5302640199661255, -0.2973323464393616, -0.007540090940892696, -0.925529956817627, -1.300227403640747, 0.07410605996847153, 0.035510331194890894, -0.4023440043141022, 6.3051569933319875, 9362.0, 30146.0, 35388.0, 9362.0, 7.9537200927734375, -0.1300511658191681, -0.2019052505493164, -0.07251723110675812, -0.021306347101926804, 0.010986716486513615, 0.9992898106575012, -0.018489941954612732, 0.023120880126953125, 1.497802734375, 0.993896484375, 3.1229095458984375, 1.491943359375
18684, 2.3133509159088135, -3.8518874645233154, 1.7441822290420532, 0.22066166996955872, -0.12377669662237167, 0.1850280463695526, 0.5436561107635498, -0.30484190583229065, -0.008397640660405159, -0.9255364537239075, -1.3002235889434814, 0.07410378754138947, 0.03523652222439924, -0.39908432568634566, 6.304695031071805, 9362.0, 30146.0, 35388.0, 9362.0, 7.9537200927734375, 0.38812828063964844, 0.29935792088508606, -0.09057372063398361, -0.021729357540607452, 0.011373407207429409, 1.0007606744766235, -0.018489941954612732, 0.023120880126953125, 1.497802734375, 0.993896484375, 3.1229095458984375, 1.491943359375
18724, 2.314769983291626, -3.854384422302246, 1.7439868450164795, 0.22613170742988586, -0.1268438845872879, 0.18494188785552979, 0.5503507852554321, -0.30859649181365967, -0.008833126164972782, -0.9255256652832031, -1.3002350330352783, 0.07408750802278519, 0.04106299581347597, -0.40146359430028156, 6.295257652190945, 9362.0, 30146.0, 35388.0, 9362.0, 7.9537200927734375, 0.006024989299476147, -0.2320859432220459, -0.03566332906484604, -0.021691687405109406, 0.012190819717943668, 1.000457763671875, -0.018489941954612732, 0.023120880126953125, 1.497802734375, 0.94775390625, 4.325836181640625, 1.491943359375
18754, 2.316645383834839, -3.8540265560150146, 1.7476086616516113, 0.26036006212234497, -0.1460368037223816, 0.1843666434288025, 0.5905957221984863, -0.3311680257320404, -0.010364013724029064, -0.9255267381668091, -1.3002389669418335, 0.07408308982849121, 0.03599893118938465, -0.4033451383478166, 6.306447202880777, 9362.0, 30146.0, 35388.0, 9362.0, 7.9537200927734375, 0.03767053410410881, -0.10709980130195618, 0.23273919522762299, -0.02089492231607437, 0.011623094789683819, 0.9982172250747681, -0.018489941954612732, 0.023120880126953125, 1.497802734375, 1.472900390625, 0.1439361572265625, 1.491943359375
18764, 2.316195011138916, -3.85373592376709, 1.7465709447860718, 0.26036006212234497, -0.1460368037223816, 0.1843666434288025, 0.5905957221984863, -0.3311680257320404, -0.010364013724029064, -0.9255304336547852, -1.3002171516418457, 0.07407673448324203, 0.04184755747848035, -0.4057041139908506, 6.2926559352027684, 9362.0, 30146.0, 35388.0, 9362.0, 7.9537200927734375, 0.07550608366727829, -0.22654102742671967, -0.10448198020458221, -0.018992846831679344, 0.011903058737516403, 0.9990783333778381, -0.018489941954612732, 0.023120880126953125, 1.497802734375, 1.472900390625, 0.1439361572265625, 1.491943359375
18784, 2.3163912296295166, -3.8506760597229004, 1.7463269233703613, 0.2783796191215515, -0.15614105761051178, 0.1840398907661438, 0.610699474811554, -0.34244537353515625, -0.011509007774293423, -0.925530195236206, -1.3002368211746216, 0.07407217472791672, 0.03584445398415913, -0.4072192724142383, 6.305253884319996, 9362.0, 30146.0, 35388.0, 9362.0, 7.9537200927734375, 0.050925884395837784, -0.11082538217306137, 0.02861865796148777, -0.020162010565400124, 0.01189933717250824, 0.9997087121009827, -0.018489941954612732, 0.023120880126953125, 1.497802734375, 1.36083984375, 0.016387939453125, 1.491943359375
18794, 2.3152942657470703, -3.8474466800689697, 1.744789958000183, 0.2845201790332794, -0.15958434343338013, 0.1839239001274109, 0.617411196231842, -0.3462119996547699, -0.011689059436321259, -0.9255270957946777, -1.3002290725708008, 0.07410197705030441, 0.03772666146058636, -0.406843261961626, 6.301122526463944, 9362.0, 30146.0, 35388.0, 9362.0, 7.9537200927734375, 0.050925884395837784, -0.11082538217306137, 0.02861865796148777, -0.019480625167489052, 0.011544471606612206, 0.9987191557884216, -0.018489941954612732, 0.023120880126953125, 1.497802734375, 1.36083984375, 0.016387939453125, 1.491943359375
18804, 2.316480875015259, -3.848871946334839, 1.7466026544570923, 0.2845201790332794, -0.15958434343338013, 0.1839239001274109, 0.617411196231842, -0.3462119996547699, -0.011689059436321259, -0.9255222678184509, -1.3002232313156128, 0.07409602403640747, 0.039097214212913185, -0.40400720273558477, 6.294061744968035, 9362.0, 30146.0, 35388.0, 9362.0, 7.9537200927734375, 0.11886832863092422, -0.004191509913653135, -0.023423464968800545, -0.019480625167489052, 0.011544471606612206, 0.9987191557884216, -0.018489941954612732, 0.023120880126953125, 1.497802734375, 1.36083984375, 0.016387939453125, 1.491943359375
18834, 2.316739320755005, -3.8529419898986816, 1.7499903440475464, 0.2970023453235626, -0.1665838062763214, 0.18368366360664368, 0.6308000683784485, -0.3537319600582123, -0.012383312918245792, -0.9255366921424866, -1.3002338409423828, 0.07408969849348068, 0.042611922706687934, -0.4109898586252996, 6.300104402016767, 9362.0, 30146.0, 35388.0, 9362.0, 7.9537200927734375, 0.11618265509605408, 0.04016862437129021, 0.1477041095495224, -0.022203177213668823, 0.012366171926259995, 0.9996435046195984, -0.018489941954612732, 0.023120880126953125, 1.497802734375, 1.365234375, 0.0175933837890625, 1.491943359375
18844, 2.317322015762329, -3.8544535636901855, 1.7524045705795288, 0.31622743606567383, -0.17736494541168213, 0.18329399824142456, 0.650872528553009, -0.36500978469848633, -0.01362256146967411, -0.925521194934845, -1.3002347946166992, 0.0741022527217865, 0.031982380903792774, -0.40719127354515194, 6.297346938758797, 9362.0, 30146.0, 35388.0, 9362.0, 7.9537200927734375, 0.18524160981178284, 0.017336566001176834, 0.05931572988629341, -0.021309027448296547, 0.010739754885435104, 1.0006859302520752, -0.018489941954612732, 0.023120880126953125, 1.497802734375, 1.365234375, 0.0175933837890625, 1.491943359375
18854, 2.317690849304199, -3.8545351028442383, 1.7543195486068726, 0.3227696418762207, -0.18103383481502533, 0.18315576016902924, 0.6575703620910645, -0.36876821517944336, -0.014025048352777958, -0.9255278706550598, -1.300241231918335, 0.07407782226800919, 0.040210220456738284, -0.40597275285989554, 6.300130700203251, 9362.0, 30146.0, 35388.0, 9362.0, 7.9537200927734375, -0.07937359809875488, -0.13697022199630737, 0.021368486806750298, -0.02211456373333931, 0.012068258598446846, 0.9987321496009827, -0.018489941954612732, 0.023120880126953125, 1.497802734375, 1.365234375, 0.0175933837890625, 1.491943359375
18874, 2.3178293704986572, -3.855478048324585, 1.7553585767745972, 0.3293789029121399, -0.184740349650383, 0.18301428854465485, 0.6642818450927734, -0.3725334405899048, -0.014269227162003517, -0.9255290031433105, -1.3002276420593262, 0.07408887892961502, 0.04191562988108227, -0.40490724115898047, 6.293244852236381, 9362.0, 30146.0, 35388.0, 9362.0, 7.9537200927734375, -0.18971394002437592, -0.029783666133880615, -0.04433701932430267, -0.022314323112368584, 0.010725180618464947, 0.9992694854736328, -0.018489941954612732, 0.023120880126953125, 1.497802734375, 0.913330078125, 5.4127044677734375, 1.491943359375
18894, 2.3188555240631104, -3.852749824523926, 1.7551690340042114, 0.34960898756980896, -0.196085587143898, 0.18256935477256775, 0.6843881011009216, -0.3838143050670624, -0.015430465340614319, -0.925530195236206, -1.3002369403839111, 0.07409168034791946, 0.038795262507374015, -0.401693019012896, 6.299937883289113, 9362.0, 30146.0, 35388.0, 9362.0, 7.9537200927734375, -0.18122389912605286, 0.09162990003824234, 0.249455064535141, -0.022163061425089836, 0.011406923644244671, 0.9976606369018555, -0.018489941954612732, 0.023120880126953125, 1.497802734375, 0.913330078125, 5.4127044677734375, 1.491943359375
18904, 2.317579746246338, -3.852896213531494, 1.7562536001205444, 0.34960898756980896, -0.196085587143898, 0.18256935477256775, 0.6843881011009216, -0.3838143050670624, -0.015430465340614319, -0.9255214333534241, -1.3002359867095947, 0.0740758404135704, 0.04541020977917251, -0.4075654004112721, 6.300134084804562, 9362.0, 30146.0, 35388.0, 9362.0, 7.9537200927734375, 0.04419523477554321, 0.08969727903604507, 0.22016344964504242, -0.022163061425089836, 0.011406923644244671, 0.9976606369018555, -0.018489941954612732, 0.023120880126953125, 1.497802734375, 0.913330078125, 5.4127044677734375, 1.491943359375
18924, 2.3180408477783203, -3.853256940841675, 1.7578251361846924, 0.3634307384490967, -0.2038370668888092, 0.182252436876297, 0.6977819800376892, -0.3913317918777466, -0.016328584402799606, -0.925524115562439, -1.3002310991287231, 0.07408829033374786, 0.04099552044904593, -0.4088899797327201, 6.302994227261178, 9362.0, 30146.0, 35388.0, 9362.0, 7.9537200927734375, -0.04238848015666008, -0.10944905132055283, 0.021890968084335327, -0.021575702354311943, 0.012832613661885262, 0.9986467957496643, -0.018489941954612732, 0.023120880126953125, 1.497802734375, 0.9140625, 5.38775634765625, 1.491943359375
18954, 2.3197710514068604, -3.856964111328125, 1.761155366897583, 0.3634307384490967, -0.2038370668888092, 0.182252436876297, 0.6977819800376892, -0.3913317918777466, -0.016328584402799606, -0.9255232214927673, -1.3002426624298096, 0.07410367578268051, 0.037319893240595065, -0.4068710823364654, 6.295606761518197, 9362.0, 30146.0, 35388.0, 9362.0, 7.9537200927734375, 0.27820971608161926, 0.34466078877449036, -0.08622949570417404, -0.019838739186525345, 0.012119767256081104, 0.9994504451751709, -0.018489941954612732, 0.023120880126953125, 1.497802734375, 0.807861328125, 9.9476318359375, 1.491943359375
18964, 2.318972110748291, -3.855302095413208, 1.7628543376922607, 0.3634307384490967, -0.2038370668888092, 0.182252436876297, 0.6977819800376892, -0.3913317918777466, -0.016328584402799606, -0.9255129098892212, -1.3002362251281738, 0.07409964501857758, 0.03919652611704098, -0.4062972702700449, 6.303664941482394, 9362.0, 30146.0, 35388.0, 9362.0, 7.9537200927734375, 0.27820971608161926, 0.34466078877449036, -0.08622949570417404, -0.021225422620773315, 0.011713702231645584, 0.9984449744224548, -0.018489941954612732, 0.023120880126953125, 1.497802734375, 0.807861328125, 9.9476318359375, 1.491943359375
18974, 2.31864857673645, -3.8555281162261963, 1.7627586126327515, 0.40650513768196106, -0.22799471020698547, 0.18122455477714539, 0.738033652305603, -0.41392314434051514, -0.018007488921284676, -0.9255228638648987, -1.3002300262451172, 0.07408670336008072, 0.03811535141463536, -0.4080627741990952, 6.303703992153926, 9362.0, 30146.0, 35388.0, 9362.0, 7.9537200927734375, -0.09200756996870041, 0.042400337755680084, -0.25215375423431396, -0.021225422620773315, 0.011713702231645584, 0.9984449744224548, -0.018489941954612732, 0.023120880126953125, 1.497802734375, 0.807861328125, 9.9476318359375, 1.491943359375
19004, 2.3177103996276855, -3.855360269546509, 1.763761281967163, 0.4213998317718506, -0.23634837567806244, 0.18085582554340363, 0.751436710357666, -0.42144301533699036, -0.018850386142730713, -0.9255243539810181, -1.300234079360962, 0.07409873604774475, 0.03994622117750631, -0.40496086431531353, 6.29512820950634, 9362.0, 30146.0, 35388.0, 9362.0, 7.9537200927734375, -0.10570575296878815, -0.16619417071342468, 0.013168786652386189, -0.020824288949370384, 0.012672334909439087, 0.9995858073234558, -0.018489941954612732, 0.023120880126953125, 1.497802734375, 1.0927734375, 1.3592987060546875, 1.491943359375
19024, 2.3160300254821777, -3.8510427474975586, 1.7640185356140137, 0.444244384765625, -0.2491607815027237, 0.18027061223983765, 0.7715398669242859, -0.4327196776866913, -0.02008882164955139, -0.9255185723304749, -1.3002288341522217, 0.0740879476070404, 0.03759055660598237, -0.40556177962326956, 6.2966637616915, 9362.0, 30146.0, 35388.0, 9362.0, 7.9537200927734375, -0.10570575296878815, -0.16619417071342468, 0.013168786652386189, -0.020991526544094086, 0.014000414870679379, 0.9985256791114807, -0.018489941954612732, 0.023120880126953125, 1.497802734375, 1.0927734375, 1.3592987060546875, 1.491943359375
19034, 2.316175699234009, -3.8515195846557617, 1.763075590133667, 0.444244384765625, -0.2491607815027237, 0.18027061223983765, 0.7715398669242859, -0.4327196776866913, -0.02008882164955139, -0.9255266189575195, -1.3002375364303589, 0.07408922165632248, 0.04091163130770176, -0.40137424285072143, 6.300361683100847, 9362.0, 30146.0, 35388.0, 9362.0, 7.9537200927734375, -0.10570575296878815, -0.16619417071342468, 0.013168786652386189, -0.022413058206439018, 0.013128306716680527, 1.000243067741394, -0.018489941954612732, 0.023120880126953125, 1.497802734375, 1.0927734375, 1.3592987060546875, 1.491943359375
19064, 2.3145229816436768, -3.8476293087005615, 1.7644091844558716, 0.4598090648651123, -0.2578902840614319, 0.17985987663269043, 0.7849261164665222, -0.4402289092540741, -0.020994432270526886, -0.9255190491676331, -1.3002276420593262, 0.07408859580755234, 0.03855964432436343, -0.4087131149587151, 6.297980069339416, 9362.0, 30146.0, 35388.0, 9362.0, 7.9537200927734375, -0.07581786811351776, -0.39882636070251465, 0.23351217806339264, -0.021270347759127617, 0.01171936746686697, 0.9987509846687317, -0.018489941954612732, 0.023120880126953125, 1.497802734375, 0.6123046875, 24.775375366210938, 1.491943359375
19094, 2.3134074211120605, -3.846954822540283, 1.7652500867843628, 0.49989256262779236, -0.2803713083267212, 0.1787644922733307, 0.8183947801589966, -0.4590020179748535, -0.022976288571953773, -0.9255143404006958, -1.3002243041992188, 0.07410487532615662, 0.03839815629933206, -0.40925329252326037, 6.292364426369136, 9362.0, 30146.0, 35388.0, 9362.0, 7.9537200927734375, -0.044817570596933365, -0.04946037009358406, 0.07887588441371918, -0.02144056186079979, 0.015049013309180737, 0.9979956150054932, -0.018489941954612732, 0.023120880126953125, 1.497802734375, 1.081787109375, 1.5082244873046875, 1.491943359375
19124, 2.314436435699463, -3.846848964691162, 1.7666447162628174, 0.5247454643249512, -0.2943102717399597, 0.1780584156513214, 0.8384609818458557, -0.4702583849430084, -0.024175578728318214, -0.9255204200744629, -1.3002322912216187, 0.07408451288938522, 0.039282707077272806, -0.3983182090405819, 6.3027848534682915, 9362.0, 30146.0, 35388.0, 9362.0, 7.9537200927734375, -0.00935002975165844, 0.19485077261924744, -0.08246933668851852, -0.020733650773763657, 0.014574461616575718, 0.9997342228889465, -0.018489941954612732, 0.023120880126953125, 1.497802734375, 0.6591796875, 20.30340576171875, 1.491943359375
19184, 2.3141486644744873, -3.8438611030578613, 1.7705950736999512, 0.5247454643249512, -0.2943102717399597, 0.1780584156513214, 0.8384609818458557, -0.4702583849430084, -0.024175578728318214, -0.9255094528198242, -1.30022394657135, 0.07409152388572693, 0.03411545004011841, -0.40319165380051913, 6.290379947168194, 9362.0, 30146.0, 35388.0, 9362.0, 7.9537200927734375, 0.06865950673818588, -0.1511923223733902, -0.034287672489881516, -0.019198643043637276, 0.01238356251269579, 0.9998140335083008, -0.018489941954612732, 0.023120880126953125, 1.497802734375, 0.85400390625, 7.720733642578125, 1.491943359375
19214, 2.314500570297241, -3.8424298763275146, 1.771781325340271, 0.5247454643249512, -0.2943102717399597, 0.1780584156513214, 0.8384609818458557, -0.4702583849430084, -0.024175578728318214, -0.9255155324935913, -1.3002265691757202, 0.07409945875406265, 0.04042185568114215, -0.4090068357969301, 6.298154324769578, 9362.0, 30146.0, 35388.0, 9362.0, 7.9537200927734375, -0.00035560765536502004, 0.14579898118972778, -0.1733783632516861, -0.01964621990919113, 0.014270172454416752, 1.0004050731658936, -0.018489941954612732, 0.023120880126953125, 1.497802734375, 0.756591796875, 12.928024291992188, 1.491943359375
19224, 2.3144798278808594, -3.842987298965454, 1.7723764181137085, 0.6119368076324463, -0.34321364760398865, 0.17546580731868744, 0.9053707718849182, -0.5078212022781372, -0.027370786294341087, -0.9255227446556091, -1.3002283573150635, 0.07409488409757614, 0.04289740220414754, -0.4123791026357537, 6.292290871631418, 9362.0, 30146.0, 35388.0, 9362.0, 7.9537200927734375, -0.1589074730873108, -0.57484370470047, -0.2101902812719345, -0.020486753433942795, 0.014311430044472218, 0.9993754625320435, -0.018489941954612732, 0.023120880126953125, 1.497802734375, 0.756591796875, 12.928024291992188, 1.491943359375
19234, 2.312814712524414, -3.8381810188293457, 1.7698854207992554, 0.6210240125656128, -0.348310649394989, 0.1751910299062729, 0.9120647311210632, -0.5115812420845032, -0.0275832861661911, -0.9255097508430481, -1.3002352714538574, 0.07409842312335968, 0.03626296662574255, -0.40429755843481985, 6.301863170434712, 9362.0, 30146.0, 35388.0, 9362.0, 7.9537200927734375, -0.07544978708028793, 0.059854261577129364, 0.11149357259273529, -0.02140692062675953, 0.01220675092190504, 0.9985255599021912, -0.018489941954612732, 0.023120880126953125, 1.497802734375, 0.756591796875, 12.928024291992188, 1.491943359375
19254, 2.3103549480438232, -3.836489677429199, 1.7699952125549316, 0.639398992061615, -0.3586173355579376, 0.17463210225105286, 0.9254236817359924, -0.519086480140686, -0.02833544835448265, -0.9255265593528748, -1.300224781036377, 0.07408495247364044, 0.03357998084300863, -0.4110979984413916, 6.303835090235688, 9362.0, 30146.0, 35388.0, 9362.0, 7.9537200927734375, -0.18889020383358002, -0.3886762857437134, -0.08873805403709412, -0.020287802442908287, 0.012944895774126053, 0.9994714856147766, -0.06428114324808121, -0.08439826965332031, 1.489013671875, 0.78955078125, 10.947662353515625, 1.491943359375
19264, 2.30985426902771, -3.838239908218384, 1.771219253540039, 0.6486865878105164, -0.3638269305229187, 0.17434631288051605, 0.9320910573005676, -0.5228321552276611, -0.028821071609854698, -0.9255098700523376, -1.3002244234085083, 0.07409339398145676, 0.04015965807404225, -0.40348684308654015, 6.2963520630664584, 9362.0, 30146.0, 35388.0, 9362.0, 7.9537200927734375, 0.244058758020401, -0.24249553680419922, -0.09977356344461441, -0.019500359892845154, 0.012733702547848225, 0.9992645382881165, -0.06428114324808121, -0.08439826965332031, 1.489013671875, 0.78955078125, 10.947662353515625, 1.491943359375
19314, 2.3096120357513428, -3.8379838466644287, 1.770118236541748, 0.6961259245872498, -0.3904372751712799, 0.1728660762310028, 0.9654895663261414, -0.5415875911712646, -0.03030232898890972, -0.9255195260047913, -1.3002352714538574, 0.07409428805112839, 0.033424706721208106, -0.4061743267239706, 6.299943314742489, 9362.0, 30146.0, 35388.0, 9362.0, 7.9537200927734375, -0.012031865306198597, 0.07480103522539139, 0.002376340562477708, -0.019083892926573753, 0.011615904048085213, 0.9982234835624695, -0.06428114324808121, -0.08439826965332031, 1.489013671875, 0.9697265625, 3.7187347412109375, 1.491943359375
19324, 2.3102381229400635, -3.8367326259613037, 1.7690662145614624, 0.6961259245872498, -0.3904372751712799, 0.1728660762310028, 0.9654895663261414, -0.5415875911712646, -0.03030232898890972, -0.925518810749054, -1.3002331256866455, 0.0740988552570343, 0.03879070582395326, -0.40623940717492246, 6.2971671645367495, 9362.0, 30146.0, 35388.0, 9362.0, 7.9537200927734375, -0.012031865306198597, 0.07480103522539139, 0.002376340562477708, -0.022052722051739693, 0.012041776441037655, 0.9982320070266724, -0.06428114324808121, -0.08439826965332031, 1.489013671875, 0.9697265625, 3.7187347412109375, 1.491943359375
19344, 2.31025767326355, -3.832338333129883, 1.7675830125808716, 0.7253909111022949, -0.40685349702835083, 0.17193983495235443, 0.9855025410652161, -0.5528229475021362, -0.03155727684497833, -0.9255107641220093, -1.3002313375473022, 0.07410780340433121, 0.04124319838790492, -0.4086591478977937, 6.299062899041942, 9362.0, 30146.0, 35388.0, 9362.0, 7.9537200927734375, 0.018235359340906143, -0.34261032938957214, -0.11496027559041977, -0.020286468788981438, 0.012157618999481201, 0.9996968507766724, -0.06428114324808121, -0.08439826965332031, 1.489013671875, 0.9697265625, 3.7187347412109375, 1.491943359375
19384, 2.311652421951294, -3.835374355316162, 1.7655141353607178, 0.7352793216705322, -0.412400484085083, 0.17162296175956726, 0.9921795725822449, -0.5565745830535889, -0.0318152979016304, -0.9255169630050659, -1.3002355098724365, 0.07409682869911194, 0.0364870338530002, -0.41075639950400955, 6.2976377675290465, 9362.0, 30146.0, 35388.0, 9362.0, 7.9537200927734375, -0.1220393255352974, 0.15814214944839478, 0.05477037653326988, -0.02185726724565029, 0.010702308267354965, 0.9997897744178772, -0.06428114324808121, -0.08439826965332031, 1.489013671875, 0.957275390625, 4.054840087890625, 1.491943359375
19434, 2.310007095336914, -3.8401989936828613, 1.7709674835205078, 0.8063663244247437, -0.45227956771850586, 0.1693173497915268, 1.0388844013214111, -0.5828256607055664, -0.03413309529423714, -0.9255056381225586, -1.3002291917800903, 0.07409773766994476, 0.034736743045596916, -0.4056158220318764, 6.299323215683585, 9362.0, 30146.0, 35388.0, 9362.0, 7.9537200927734375, -5.1530390919651836e-05, -0.28014740347862244, -0.09520625323057175, -0.02015794813632965, 0.011874928139150143, 0.9988391995429993, -0.06428114324808121, -0.08439826965332031, 1.489013671875, 1.16748046875, 0.598236083984375, 1.491943359375
19444, 2.3102903366088867, -3.839033603668213, 1.7700697183609009, 0.8272776007652283, -0.4640110433101654, 0.16862908005714417, 1.0522470474243164, -0.5903210043907166, -0.034734200686216354, -0.9255149960517883, -1.3002192974090576, 0.0740845799446106, 0.042091764851849796, -0.4038050784358802, 6.300083058557995, 9362.0, 30146.0, 35388.0, 9362.0, 7.9537200927734375, -5.1530390919651836e-05, -0.28014740347862244, -0.09520625323057175, -0.02015794813632965, 0.011874928139150143, 0.9988391995429993, -0.06428114324808121, -0.08439826965332031, 1.489013671875, 1.16748046875, 0.598236083984375, 1.491943359375
19464, 2.3102164268493652, -3.839947462081909, 1.7705533504486084, 0.8378334641456604, -0.46993300318717957, 0.1682799607515335, 1.0589269399642944, -0.5940682291984558, -0.0350891649723053, -0.9255128502845764, -1.3002293109893799, 0.07406783103942871, 0.03791389733205769, -0.40372661067786453, 6.296619798620147, 9362.0, 30146.0, 35388.0, 9362.0, 7.9537200927734375, -0.04467720910906792, 0.1975613832473755, -0.03954153135418892, -0.021354500204324722, 0.012390115298330784, 0.998828649520874, -0.06428114324808121, -0.08439826965332031, 1.489013671875, 1.014404296875, 2.67254638671875, 1.491943359375
19484, 2.308711528778076, -3.839348554611206, 1.7707500457763672, 0.8591455221176147, -0.4818893074989319, 0.16757050156593323, 1.0722745656967163, -0.6015607118606567, -0.03591885417699814, -0.9255157113075256, -1.3002265691757202, 0.07406867295503616, 0.03582714672639926, -0.41213562925403835, 6.29227589811736, 9362.0, 30146.0, 35388.0, 9362.0, 7.9537200927734375, -0.18209430575370789, 0.1625908464193344, 0.01749383471906185, -0.020906850695610046, 0.013067414052784443, 1.0000275373458862, -0.06428114324808121, -0.08439826965332031, 1.489013671875, 0.762451171875, 12.558395385742188, 1.491943359375
19494, 2.3067076206207275, -3.839564085006714, 1.7707067728042603, 0.8807245492935181, -0.49399542808532715, 0.16684378683567047, 1.0856274366378784, -0.6090519428253174, -0.03674400970339775, -0.9255190491676331, -1.3002374172210693, 0.07407209277153015, 0.03707787545013002, -0.4115769941480778, 6.302294910786708, 9362.0, 30146.0, 35388.0, 9362.0, 7.9537200927734375, 0.16037148237228394, 0.08133372664451599, -0.026438482105731964, -0.020436231046915054, 0.011800226755440235, 1.0000258684158325, -0.06428114324808121, -0.08439826965332031, 1.489013671875, 0.762451171875, 12.558395385742188, 1.491943359375
19504, 2.306743860244751, -3.840094804763794, 1.7707723379135132, 0.8807245492935181, -0.49399542808532715, 0.16684378683567047, 1.0856274366378784, -0.6090519428253174, -0.03674400970339775, -0.9255122542381287, -1.3002296686172485, 0.0740581750869751, 0.03763997182309945, -0.4080821590370647, 6.303260456683862, 9362.0, 30146.0, 35388.0, 9362.0, 7.9537200927734375, 0.2460751235485077, 0.00656646303832531, -0.03681309521198273, -0.019550342112779617, 0.012141424231231213, 0.9964302778244019, -0.06428114324808121, -0.08439826965332031, 1.489013671875, 0.87158203125, 6.975341796875, 1.491943359375
19514, 2.3075475692749023, -3.839550018310547, 1.7709074020385742, 0.8807245492935181, -0.49399542808532715, 0.16684378683567047, 1.0856274366378784, -0.6090519428253174, -0.03674400970339775, -0.9255067706108093, -1.3002333641052246, 0.07407494634389877, 0.03204327896819577, -0.4117862266403449, 6.306309479639859, 9362.0, 30146.0, 35388.0, 9362.0, 7.9537200927734375, 0.2460751235485077, 0.00656646303832531, -0.03681309521198273, -0.02031591348350048, 0.011992956511676311, 0.9967614412307739, -0.06428114324808121, -0.08439826965332031, 1.489013671875, 0.72216796875, 15.261199951171875, 1.491943359375
