timeTick, roll, pitch, yaw, stateX, stateY, stateZ, stateVX, stateVY, stateVZ, otX0, otY0, otZ0, otRoll0, otPitch0, otYaw0, left wing, pitch motor, yaw motor, right wing, voltage, roll rate, pitch rate, yaw rate, A_x, A_y, A_z, current, i_raw, v_raw, airflow_voltage, airflow_speed, pot_Pitch
27438, 1.0096644163131714, -2.7218587398529053, 6.49598503112793, 0, 0, 0, 0, 0, 0, -0.1794711798429489, 0.06980583816766739, 0.07014954090118408, -0.5492426352057278, 1.4404122738262117, 4.585973555568732, 0, 0, 0, 0, 0, 0, 0, 0, 0, 0, 0, 0, 0, 0, 0, 0, 0
27448, 1.0107879638671875, -2.721813201904297, 6.494077205657959, 0.00031622283859178424, -7.775315316393971e-05, 0.8647903203964233, 0.01777806505560875, -0.004372990690171719, 0.06621673703193665, -0.17951460182666779, 0.06982461363077164, 0.07015609741210938, -0.5601215662389859, 1.4736349010987908, 4.586852350538131, 9362.0, 30146.0, 35388.0, 9362.0, 0, 0.10378992557525635, 0.34725266695022583, -0.011086929589509964, -0.05225786939263344, 0.001577236340381205, 0.999297022819519, 0, 0, 0, 0, 0, 0
27458, 1.012161135673523, -2.7222232818603516, 6.492863178253174, 0.0005180984735488892, -0.0001274303940590471, 0.8654513955116272, 0.022597018629312515, -0.005562617909163237, 0.06600018590688705, -0.17950251698493958, 0.06981725990772247, 0.07017198204994202, -0.5574497600276568, 1.4696284054732018, 4.590986748866045, 9362.0, 30146.0, 35388.0, 9362.0, 0, 0.08316081762313843, -0.017273759469389915, -0.13236956298351288, -0.04800916463136673, 0.0011929365573450923, 0.9991970658302307, -0.06360020488500595, 0.1485614776611328, 1.508056640625, 1.392333984375, 0.03314208984375, 0
27468, 1.01185941696167, -2.7232799530029297, 6.492804527282715, 0.0007681824499741197, -0.00018901884322986007, 0.8661106824874878, 0.02741975523531437, -0.006755175068974495, 0.0658581554889679, -0.179485023021698, 0.06981973350048065, 0.07016546279191971, -0.5619347510172824, 1.4534301231602171, 4.590224954699279, 9362.0, 30146.0, 35388.0, 9362.0, 0, -0.18650461733341217, -0.09420735388994217, 0.02763768658041954, -0.04572881758213043, 0.0024877514224499464, 0.9976116418838501, -0.06360020488500595, 0.1485614776611328, 1.508056640625, 1.2890625, 0.0663909912109375, 1.4853515625
27478, 1.0117275714874268, -2.722043752670288, 6.492663860321045, 0.0010664656292647123, -0.00026253648684360087, 0.8667678833007812, 0.032236866652965546, -0.00794836226850748, 0.06558235734701157, -0.17949965596199036, 0.06982512027025223, 0.07015560567378998, -0.571682856574211, 1.4605301775517887, 4.596498707031813, 9362.0, 30146.0, 35388.0, 9362.0, 0, -0.05899859964847565, 0.03426773101091385, 0.13241343200206757, -0.0477013997733593, 0.003108171047642827, 0.9992706775665283, -0.048206131905317307, 0.10376167297363281, 1.50439453125, 1.5029296875, 0.201446533203125, 1.4853515625
27488, 1.0126043558120728, -2.7239434719085693, 6.494861125946045, 0.0014129139017313719, -0.00034797884291037917, 0.8674220442771912, 0.03705281391739845, -0.00914012175053358, 0.06524759531021118, -0.17949171364307404, 0.06982772052288055, 0.07013005763292313, -0.5742068828858422, 1.4646150554203246, 4.590936562909064, 9362.0, 30146.0, 35388.0, 9362.0, 8.350414276123047, 0.022375203669071198, 0.0794411152601242, -0.07687681913375854, -0.04840098321437836, -0.0006515614804811776, 0.9990851879119873, -0.048206131905317307, 0.10376167297363281, 1.50439453125, 1.497802734375, 0.19122314453125, 1.49560546875
27498, 1.0127745866775513, -2.723757028579712, 6.49467134475708, 0.0018075525294989347, -0.0004453492001630366, 0.8680737018585205, 0.041874948889017105, -0.010333763435482979, 0.06508085131645203, -0.17908887565135956, 0.07077701389789581, 0.0694001093506813, -1.231280370549748, 0.8331971794031006, 4.739217291415901, 9362.0, 30146.0, 35388.0, 9362.0, 8.350414276123047, -0.13169299066066742, -0.06342669576406479, 0.21574486792087555, -0.05154358595609665, 0.0012118618469685316, 0.9982782006263733, -0.059978581964969635, -0.07543754577636719, 1.48974609375, 1.5, 0.19561767578125, 1.49560546875
27508, 1.0116511583328247, -2.7224068641662598, 6.496912479400635, 0.0022504180669784546, -0.0005546578322537243, 0.868723452091217, 0.0466981865465641, -0.01152797695249319, 0.06486738473176956, -0.17949993908405304, 0.06986752897500992, 0.07014408707618713, -0.6066125234180499, 1.4628619349692826, 4.59883107906113, 9362.0, 30146.0, 35388.0, 9362.0, 8.350414276123047, -0.11843879520893097, 0.21367086470127106, 0.11018745601177216, -0.05127483978867531, 0.0008258026791736484, 0.9992441534996033, -0.059978581964969635, -0.07543754577636719, 1.48974609375, 1.02099609375, 2.53790283203125, 1.489013671875
27518, 1.01242196559906, -2.7272698879241943, 6.497884750366211, 0.0027414923533797264, -0.0006759047391824424, 0.8693705797195435, 0.05151669681072235, -0.012721213512122631, 0.06456302106380463, -0.1794690191745758, 0.06983371824026108, 0.07013075053691864, -0.567788294228612, 1.4217159344232186, 4.586687829748231, 9362.0, 30146.0, 35388.0, 9362.0, 8.350414276123047, 0.11605629324913025, 0.15167401731014252, 0.083155058324337, -0.046803757548332214, -0.00020653086539823562, 1.0010323524475098, -0.049915023148059845, -0.1291980743408203, 1.4853515625, 1.494873046875, 0.185455322265625, 1.489013671875
27528, 1.0128687620162964, -2.7260308265686035, 6.4975738525390625, 0.003280794946476817, -0.0008090885821729898, 0.8700157999992371, 0.056343838572502136, -0.013915473595261574, 0.0644841119647026, -0.17949354648590088, 0.06981869041919708, 0.07017099857330322, -0.5537388906014785, 1.4692897906417386, 4.5947062687522315, 9362.0, 30146.0, 35388.0, 9362.0, 8.350414276123047, 0.04049040749669075, -0.20589132606983185, -0.034354496747255325, -0.0471184141933918, 0.003348573809489608, 0.9998180866241455, -0.049915023148059845, -0.1291980743408203, 1.4853515625, 1.31689453125, 0.0298919677734375, 1.48974609375
27538, 1.0138025283813477, -2.7259252071380615, 6.4963250160217285, 0.003868408966809511, -0.0009542158804833889, 0.8706601858139038, 0.06117892265319824, -0.015110015869140625, 0.06439579278230667, -0.17948143184185028, 0.06981377303600311, 0.07015446573495865, -0.5564048544662329, 1.4522938580209939, 4.596245586414534, 9362.0, 30146.0, 35388.0, 9362.0, 8.350414276123047, 0.02687660977244377, 0.27121904492378235, 0.00988526176661253, -0.04625499248504639, 0.0033503060694783926, 0.9978076815605164, -0.053222596645355225, -0.08439826965332031, 1.489013671875, 1.51318359375, 0.2224273681640625, 1.48974609375
27548, 1.0136830806732178, -2.7250709533691406, 6.495144367218018, 0.004504326730966568, -0.0011112845968455076, 0.8713029623031616, 0.06600462645292282, -0.01630384288728237, 0.06415855139493942, -0.17949679493904114, 0.06980017572641373, 0.0701766237616539, -0.5403793394986656, 1.4630057620531147, 4.589938173704288, 9362.0, 30146.0, 35388.0, 9362.0, 8.350414276123047, -0.08480032533407211, -0.01352472323924303, -0.22973959147930145, -0.049717992544174194, 0.0035926578566432, 0.9997352957725525, -0.053222596645355225, -0.08439826965332031, 1.489013671875, 1.49267578125, 0.1811065673828125, 1.487548828125
27558, 1.0132437944412231, -2.725494146347046, 6.496588230133057, 0.005188499577343464, -0.0012802997371181846, 0.8719432950019836, 0.07082993537187576, -0.01749928668141365, 0.06391389667987823, -0.1794830560684204, 0.069842629134655, 0.07013341039419174, -0.5758803007375001, 1.4423721483577765, 4.597718192147733, 9362.0, 30146.0, 35388.0, 9362.0, 8.350414276123047, -0.24944531917572021, -0.0429782010614872, 0.08522280305624008, -0.0505019947886467, 0.002157393144443631, 1.0009099245071411, -0.04918166622519493, -0.05751800537109375, 1.4912109375, 1.52197265625, 0.2408599853515625, 1.487548828125
27568, 1.0141257047653198, -2.724947690963745, 6.493216514587402, 0.005920941475778818, -0.0014612755039706826, 0.8725816607475281, 0.07565851509571075, -0.018695741891860962, 0.06376494467258453, -0.17948974668979645, 0.06981409341096878, 0.07017534971237183, -0.5547390459690226, 1.4602085666908238, 4.589842259665295, 9362.0, 30146.0, 35388.0, 9362.0, 8.350414276123047, -0.015236247330904007, 0.04323594272136688, -0.1818004995584488, -0.050217773765325546, 0.0013320003636181355, 1.0002866983413696, -0.04918166622519493, -0.05751800537109375, 1.4912109375, 1.09130859375, 1.378570556640625, 1.4912109375
27578, 1.0152353048324585, -2.7246363162994385, 6.491663455963135, 0.006701714359223843, -0.0016542213270440698, 0.8732194304466248, 0.08049599826335907, -0.019893718883395195, 0.06378500908613205, -0.1794954240322113, 0.0698189064860344, 0.07013564556837082, -0.5572782616156334, 1.4576731996994567, 4.594632130921006, 9362.0, 30146.0, 35388.0, 9362.0, 8.350414276123047, -0.04037243500351906, -0.5031456351280212, -0.2806267738342285, -0.04886095970869064, 0.0014803048688918352, 0.9976474642753601, -0.049909092485904694, -0.11127853393554688, 1.48681640625, 1.182861328125, 0.4890899658203125, 1.4912109375
27588, 1.0154337882995605, -2.7236690521240234, 6.49112606048584, 0.007530789822340012, -0.0018591394182294607, 0.8738560080528259, 0.08531899750232697, -0.02109004184603691, 0.0635276734828949, -0.17949900031089783, 0.06979542225599289, 0.07014405727386475, -0.5416688281982447, 1.4590440757748127, 4.594278018528371, 9362.0, 30146.0, 35388.0, 9362.0, 8.350414276123047, 0.09650837630033493, 0.10532064735889435, 0.2481050342321396, -0.04816563427448273, 0.002441676100715995, 0.9973798394203186, -0.049909092485904694, -0.11127853393554688, 1.48681640625, 1.29931640625, 0.0500640869140625, 1.48974609375
27598, 1.0154725313186646, -2.720031261444092, 6.490739345550537, 0.008408062160015106, -0.002076023258268833, 0.8744893670082092, 0.09013538807630539, -0.022286783903837204, 0.06314240396022797, -0.17946577072143555, 0.06982433795928955, 0.07012763619422913, -0.5644192466657201, 1.4417144755632876, 4.596725906739781, 9362.0, 30146.0, 35388.0, 9362.0, 8.350414276123047, 0.09383831173181534, -0.23773446679115295, -0.09300423413515091, -0.048161812126636505, 0.0015509474324062467, 0.9986920952796936, -0.06683134287595749, -0.021678924560546875, 1.494140625, 1.423828125, 0.066802978515625, 1.48974609375
27608, 1.0151047706604004, -2.7201321125030518, 6.491360187530518, 0.009333515539765358, -0.002304883673787117, 0.8751193881034851, 0.09495526552200317, -0.023485345765948296, 0.06286073476076126, -0.1794925034046173, 0.06984006613492966, 0.07010621577501297, -0.5689363710931347, 1.4507392194147712, 4.593457008675564, 9362.0, 30146.0, 35388.0, 9362.0, 8.350414276123047, -0.12073526531457901, 0.01901927962899208, 0.303260862827301, -0.04752853885293007, 0.00293331453576684, 0.999415397644043, -0.06683134287595749, -0.021678924560546875, 1.494140625, 1.292724609375, 0.060089111328125, 1.494140625
27618, 1.0151828527450562, -2.716247081756592, 6.492370128631592, 0.010307157412171364, -0.002545739058405161, 0.87574702501297, 0.09977316111326218, -0.02468567155301571, 0.06266459077596664, -0.17947152256965637, 0.06984608620405197, 0.07011884450912476, -0.5769826311505545, 1.4352917906804237, 4.589153949860388, 9362.0, 30146.0, 35388.0, 9362.0, 8.350414276123047, -0.018263475969433784, -0.2640666365623474, 0.19045138359069824, -0.046590764075517654, 0.0017608794150874019, 0.9987665414810181, -0.06854835152626038, 0.014162063598632812, 1.4970703125, 1.53662109375, 0.27239990234375, 1.494140625
27628, 1.0151845216751099, -2.715505361557007, 6.492674350738525, 0.011328966356813908, -0.0027985910419374704, 0.8763724565505981, 0.10458865016698837, -0.025884632021188736, 0.062416527420282364, -0.17946715652942657, 0.06985194981098175, 0.07012099027633667, -0.5768934829237028, 1.436046418662528, 4.594549046893432, 9362.0, 30146.0, 35388.0, 9362.0, 8.350414276123047, 0.1761598289012909, -0.2437543123960495, -0.24822287261486053, -0.04421667754650116, 0.0015135277062654495, 0.9996218681335449, -0.06854835152626038, 0.014162063598632812, 1.4970703125, 1.506591796875, 0.2088775634765625, 1.494873046875
27638, 1.0149245262145996, -2.7161154747009277, 6.495128154754639, 0.01239890605211258, -0.003063438693061471, 0.8769955635070801, 0.10939921438694, -0.027084868401288986, 0.06220252066850662, -0.17944173514842987, 0.06982063502073288, 0.07011976093053818, -0.5608022517534109, 1.4157780976947834, 4.592844904186105, 9362.0, 30146.0, 35388.0, 9362.0, 8.350414276123047, -0.08135673403739929, -0.306623250246048, -0.0668104887008667, -0.04854157567024231, 0.0012845074525102973, 1.0000699758529663, -0.06687856465578079, -0.030637741088867188, 1.493408203125, 1.263427734375, 0.1233062744140625, 1.494873046875
27648, 1.0146783590316772, -2.715090036392212, 6.495924472808838, 0.013516969978809357, -0.003340295748785138, 0.8776170611381531, 0.1142137348651886, -0.028286321088671684, 0.062093161046504974, -0.17949825525283813, 0.0698077529668808, 0.07017574459314346, -0.5510267634245455, 1.4722097705895862, 4.595584342841376, 9362.0, 30146.0, 35388.0, 9362.0, 8.350414276123047, 0.03027469851076603, 0.16345413029193878, 0.22625476121902466, -0.04963847994804382, 0.005237632431089878, 0.9999505877494812, -0.06687856465578079, -0.030637741088867188, 1.493408203125, 1.510986328125, 0.217864990234375, 1.48974609375
27658, 1.0150543451309204, -2.7147293090820312, 6.496779441833496, 0.014683169312775135, -0.0036291596479713917, 0.8782371282577515, 0.11902618408203125, -0.029486389830708504, 0.061921875923871994, -0.1794796884059906, 0.06978131085634232, 0.07012057304382324, -0.5364941550113356, 1.448695908923213, 4.591609045319323, 9362.0, 30146.0, 35388.0, 9362.0, 8.350414276123047, -0.012989948503673077, 0.10325631499290466, 0.273351788520813, -0.048173245042562485, 0.0025998924393206835, 1.0000402927398682, -0.06713902950286865, -0.01271820068359375, 1.494873046875, 1.462646484375, 0.125823974609375, 1.48974609375
27668, 1.0154389142990112, -2.716129779815674, 6.4980387687683105, 0.015897512435913086, -0.003930029924958944, 0.8788560628890991, 0.12384265661239624, -0.030687609687447548, 0.06186835095286369, -0.18124420940876007, 0.07450476288795471, 0.07126641273498535, -4.045429105614157, 2.954922805979379, 4.582778723255316, 9362.0, 30146.0, 35388.0, 9362.0, 8.350414276123047, 0.03561191260814667, 0.028698772192001343, 0.06935597211122513, -0.04649731144309044, 0.0007999720983207226, 0.9990184307098389, -0.06713902950286865, -0.01271820068359375, 1.494873046875, 1.57177734375, 0.3512115478515625, 1.4912109375
27678, 1.01461660861969, -2.7157516479492188, 6.4986066818237305, 0.017159992828965187, -0.004242909140884876, 0.8794739842414856, 0.12865355610847473, -0.03188817948102951, 0.061711814254522324, -0.17950128018856049, 0.06979735195636749, 0.0701080858707428, -0.5397810389611319, 1.4616278035929042, 4.596961659142873, 9362.0, 30146.0, 35388.0, 9362.0, 8.350414276123047, -0.041032589972019196, 0.0349324531853199, 0.12800240516662598, -0.04876822605729103, 0.0024299314245581627, 0.9967131614685059, -0.0751282125711441, -0.04855918884277344, 1.491943359375, 0.9375, 4.6317138671875, 1.4912109375
27688, 1.0136200189590454, -2.71524715423584, 6.500272750854492, 0.01847054809331894, -0.0045677837915718555, 0.8800893425941467, 0.13345755636692047, -0.03308673948049545, 0.06136464327573776, -0.17949531972408295, 0.06984151154756546, 0.07016374170780182, -0.5853684416402598, 1.4684308430665283, 4.593153144893638, 9362.0, 30146.0, 35388.0, 9362.0, 8.350414276123047, 0.11371485143899918, -0.19608016312122345, 0.11064706742763519, -0.04851730912923813, 0.0021906476467847824, 0.9973615407943726, -0.0751282125711441, -0.04855918884277344, 1.491943359375, 1.118408203125, 1.0510711669921875, 1.491943359375
27698, 1.0132373571395874, -2.712908983230591, 6.501437187194824, 0.019829116761684418, -0.004904631525278091, 0.8807007670402527, 0.13825619220733643, -0.03428269177675247, 0.06092355400323868, -0.1794828325510025, 0.06978525221347809, 0.07010634988546371, -0.5367671091469953, 1.44879558333173, 4.588031288728939, 9362.0, 30146.0, 35388.0, 9362.0, 8.350414276123047, 0.03782302886247635, 0.15927010774612427, 0.13732753694057465, -0.04956500977277756, -0.0001327702048001811, 1.0008515119552612, -0.07213791459798813, -0.2098369598388672, 1.478759765625, 1.547607421875, 0.296478271484375, 1.491943359375
27708, 1.0146561861038208, -2.712435722351074, 6.499603748321533, 0.021235739812254906, -0.005253448151051998, 0.8813092708587646, 0.14306829869747162, -0.0354805551469326, 0.06077796593308449, -0.17950423061847687, 0.06981423497200012, 0.07012201845645905, -0.5628580940488853, 1.4660253808493167, 4.598506652280974, 9362.0, 30146.0, 35388.0, 9362.0, 8.350414276123047, -0.019532961770892143, 0.18174339830875397, 0.034918803721666336, -0.04875067248940468, -2.088372093567159e-05, 0.9972366690635681, -0.07213791459798813, -0.2098369598388672, 1.478759765625, 1.20263671875, 0.368988037109375, 1.490478515625
27718, 1.0130813121795654, -2.7127363681793213, 6.501842021942139, 0.02269044518470764, -0.005614237394183874, 0.8819159269332886, 0.14787255227565765, -0.03667744994163513, 0.06055605784058571, -0.17948640882968903, 0.06982395052909851, 0.07014002650976181, -0.5628329358654822, 1.457222320609418, 4.592024907387362, 9362.0, 30146.0, 35388.0, 9362.0, 8.350414276123047, -0.13863855600357056, 0.11132548004388809, 0.2683632969856262, -0.04631525278091431, 0.0018151706317439675, 0.9971329569816589, -0.08668728172779083, 0.023120880126953125, 1.497802734375, 1.2890625, 0.0663909912109375, 1.490478515625
27728, 1.0142028331756592, -2.7144455909729004, 6.502711772918701, 0.024193134158849716, -0.005986995063722134, 0.8825192451477051, 0.15266533195972443, -0.03787390887737274, 0.06010959669947624, -0.17948581278324127, 0.06983549892902374, 0.07012704014778137, -0.5774469030583982, 1.4603102402244872, 4.600426562761854, 9362.0, 30146.0, 35388.0, 9362.0, 8.350414276123047, 0.08898358047008514, 0.17249132692813873, 0.13231077790260315, -0.04950367286801338, 0.0012326509458944201, 0.9984493255615234, -0.08668728172779083, 0.023120880126953125, 1.497802734375, 1.423828125, 0.066802978515625, 1.491943359375
27738, 1.0145792961120605, -2.7121169567108154, 6.503515720367432, 0.02574378438293934, -0.006371710915118456, 0.883118748664856, 0.15746472775936127, -0.03906916454434395, 0.05979383736848831, -0.18120792508125305, 0.07452315092086792, 0.07122671604156494, -4.028537013568642, 2.9570203066668626, 4.571833489038734, 9362.0, 30146.0, 35388.0, 9362.0, 8.350414276123047, 0.07355911284685135, -0.44605058431625366, -0.33204010128974915, -0.04988091066479683, 0.0005000546807423234, 0.9986435174942017, -0.09386326372623444, -0.07543754577636719, 1.48974609375, 1.0869140625, 1.4374237060546875, 1.491943359375
27748, 1.0156408548355103, -2.7107176780700684, 6.502776622772217, 0.027342455461621284, -0.006768389604985714, 0.8837153315544128, 0.16226966679096222, -0.04026651382446289, 0.05952703207731247, -0.1794898360967636, 0.06977382302284241, 0.0701192170381546, -0.522058084364817, 1.463367564466381, 4.587880412980767, 9362.0, 30146.0, 35388.0, 9362.0, 8.350414276123047, 0.018157128244638443, 0.06410080194473267, -0.12433323264122009, -0.04980596527457237, 0.002857034560292959, 0.9978938102722168, -0.09386326372623444, -0.07543754577636719, 1.48974609375, 1.50732421875, 0.2104644775390625, 1.490478515625
27758, 1.015087604522705, -2.709892988204956, 6.504125595092773, 0.028989160433411598, -0.007177047897130251, 0.8843093514442444, 0.16707128286361694, -0.041465166956186295, 0.059271883219480515, -0.17948317527770996, 0.06982283294200897, 0.07017184793949127, -0.5602322959578672, 1.4583415444540435, 4.597757133189306, 9362.0, 30146.0, 35388.0, 9362.0, 8.350414276123047, -0.09387706965208054, -0.08016637712717056, 0.1700558215379715, -0.04561799392104149, 0.0034866081550717354, 0.9993014335632324, -0.08731639385223389, -0.12023735046386719, 1.486083984375, 1.541748046875, 0.2835540771484375, 1.490478515625
27768, 1.0166758298873901, -2.7088396549224854, 6.504857540130615, 0.0306838545948267, -0.007597699295729399, 0.8849004507064819, 0.17186753451824188, -0.04266497492790222, 0.058951426297426224, -0.18120428919792175, 0.07440564781427383, 0.07167913019657135, -4.051648244667308, 2.892663672467478, 4.565098394010801, 9362.0, 30146.0, 35388.0, 9362.0, 8.350414276123047, -0.061173733323812485, -0.04776814207434654, -0.05858178064227104, -0.04603896662592888, 0.002456977963447571, 0.9999585747718811, -0.08731639385223389, -0.12023735046386719, 1.486083984375, 1.423095703125, 0.06591796875, 1.486083984375
27778, 1.0153993368148804, -2.7065892219543457, 6.504133701324463, 0.03242654725909233, -0.008030354976654053, 0.885489284992218, 0.17667129635810852, -0.043866194784641266, 0.05881411209702492, -0.18117666244506836, 0.07442351430654526, 0.07170181721448898, -4.045410366056051, 2.9004795893003177, 4.541855803126277, 9362.0, 30146.0, 35388.0, 9362.0, 8.350414276123047, -0.20309101045131683, -0.2765340209007263, 0.18025614321231842, -0.04802202060818672, 0.0028362805023789406, 0.9988654255867004, -0.09617555141448975, -0.11127853393554688, 1.48681640625, 1.29931640625, 0.0500640869140625, 1.486083984375
27788, 1.0144901275634766, -2.706470489501953, 6.505902290344238, 0.034217264503240585, -0.008475035429000854, 0.8860765695571899, 0.18147210776805878, -0.04507000371813774, 0.05864768847823143, -0.17950394749641418, 0.06983883678913116, 0.07013510167598724, -0.5710695086055347, 1.4590148037300708, 4.594593755609326, 9362.0, 30146.0, 35388.0, 9362.0, 8.350414276123047, -0.17708340287208557, -0.009225018322467804, 0.1691902130842209, -0.04852103814482689, 0.002640798222273588, 0.99787437915802, -0.09617555141448975, -0.11127853393554688, 1.48681640625, 1.24951171875, 0.1648101806640625, 1.487548828125
27798, 1.0137267112731934, -2.7055552005767822, 6.505097389221191, 0.03605593740940094, -0.008931738324463367, 0.8866615891456604, 0.18626269698143005, -0.04627039283514023, 0.0583549439907074, -0.17946749925613403, 0.0698433518409729, 0.07017702609300613, -0.5712797259245368, 1.4363883258457406, 4.599835216486493, 9362.0, 30146.0, 35388.0, 9362.0, 8.350414276123047, 0.05629962310194969, -0.0812375545501709, -0.08936497569084167, -0.047119226306676865, 0.002190128667280078, 0.9988164305686951, -0.10765644162893295, -0.1650371551513672, 1.482421875, 1.538818359375, 0.2772674560546875, 1.487548828125
27808, 1.0127248764038086, -2.7015349864959717, 6.504823207855225, 0.037942539900541306, -0.009400442242622375, 0.8872441649436951, 0.19105777144432068, -0.047470543533563614, 0.05816153436899185, -0.179482564330101, 0.06985123455524445, 0.07017116248607635, -0.5926575655086754, 1.4479831783616817, 4.6003983922599465, 9362.0, 30146.0, 35388.0, 9362.0, 8.350414276123047, 0.16772781312465668, -0.22866395115852356, 0.10178859531879425, -0.046811044216156006, 0.0016278683906421065, 0.9975654482841492, -0.10765644162893295, -0.1650371551513672, 1.482421875, 1.5029296875, 0.201446533203125, 1.487548828125
27818, 1.0138418674468994, -2.702359914779663, 6.504463195800781, 0.03987706080079079, -0.009881136007606983, 0.887824296951294, 0.1958460658788681, -0.04866831377148628, 0.05786433070898056, -0.17950226366519928, 0.06982672959566116, 0.07015354931354523, -0.5587612168199693, 1.4610250360910868, 4.591280362534303, 9362.0, 30146.0, 35388.0, 9362.0, 8.350414276123047, 0.035524122416973114, 0.08000242710113525, -0.02075054682791233, -0.048679713159799576, 0.0029746450018137693, 0.9966456294059753, -0.09134422242641449, 0.05896186828613281, 1.500732421875, 1.46044921875, 0.12200927734375, 1.487548828125
27828, 1.0144219398498535, -2.7016665935516357, 6.504707336425781, 0.03987706080079079, -0.009881136007606983, 0.887824296951294, 0.1958460658788681, -0.04866831377148628, 0.05786433070898056, -0.1812169849872589, 0.07440256327390671, 0.07172715663909912, -4.047295959989646, 2.8888653176952914, 4.540266602393603, 9362.0, 30146.0, 35388.0, 9362.0, 8.350414276123047, 0.03566031903028488, 0.1481107473373413, 0.17945677042007446, -0.04923807457089424, 0.003911218140274286, 0.9977187514305115, -0.09134422242641449, 0.05896186828613281, 1.500732421875, 1.2568359375, 0.1420135498046875, 1.487548828125
27848, 1.0140467882156372, -2.696016550064087, 6.503605842590332, 0.03987706080079079, -0.009881136007606983, 0.887824296951294, 0.1958460658788681, -0.04866831377148628, 0.05786433070898056, -0.18121810257434845, 0.07440061867237091, 0.07168876379728317, -4.0551952193382945, 2.8854942102542793, 4.556537956960777, 9362.0, 30146.0, 35388.0, 9362.0, 8.350414276123047, -0.16226539015769958, -0.2865562438964844, -0.18885980546474457, -0.04923807457089424, 0.003911218140274286, 0.9977187514305115, -0.0820498913526535, -0.05751800537109375, 1.4912109375, 1.107421875, 1.1766510009765625, 1.487548828125
27868, 1.0132992267608643, -2.6966702938079834, 6.5003156661987305, 0.03987706080079079, -0.009881136007606983, 0.887824296951294, 0.1958460658788681, -0.04866831377148628, 0.05786433070898056, -0.1794988214969635, 0.06984063237905502, 0.07016894221305847, -0.5734133627941699, 1.4654943906870983, 4.594444610956149, 9362.0, 30146.0, 35388.0, 9362.0, 8.350414276123047, -0.061386026442050934, 0.20382165908813477, -0.07215390354394913, -0.049030061811208725, 0.005342282820492983, 0.9995165467262268, -0.06304057687520981, -0.030637741088867188, 1.493408203125, 1.107421875, 1.1766510009765625, 1.489013671875
27898, 1.0128283500671387, -2.700455904006958, 6.496171951293945, 0.05248771235346794, -0.01301686093211174, 0.8912311792373657, 0.2245115041732788, -0.055863674730062485, 0.05604424700140953, -0.18120111525058746, 0.07440264523029327, 0.07168632000684738, -4.0477166841800045, 2.887215016767925, 4.548255058965693, 9362.0, 30146.0, 35388.0, 9362.0, 8.350414276123047, -0.07356402277946472, 0.5522920489311218, -0.13268925249576569, -0.046664439141750336, 0.0032029428984969854, 1.0000628232955933, -0.05720048397779465, 0.06792068481445312, 1.50146484375, 1.107421875, 1.1766510009765625, 1.49267578125
27908, 1.0116779804229736, -2.6987557411193848, 6.492275238037109, 0.05248771235346794, -0.01301686093211174, 0.8912311792373657, 0.2245115041732788, -0.055863674730062485, 0.05604424700140953, -0.18120233714580536, 0.07440777868032455, 0.07169414311647415, -4.049857540903926, 2.878819325458778, 4.5454790358226305, 9362.0, 30146.0, 35388.0, 9362.0, 8.350414276123047, -0.3874877691268921, -0.353751540184021, -0.5000105500221252, -0.04666425287723541, 0.004171112086623907, 0.9967123866081238, -0.05720048397779465, 0.06792068481445312, 1.50146484375, 1.107421875, 1.1766510009765625, 1.49267578125
27918, 1.0103486776351929, -2.6991543769836426, 6.4904985427856445, 0.06185027211904526, -0.015347386710345745, 0.8934539556503296, 0.24361886084079742, -0.06066177040338516, 0.0550428181886673, -0.1795041263103485, 0.06982691586017609, 0.07016711682081223, -0.5604425364546323, 1.4682738719096164, 4.596486732546531, 9362.0, 30146.0, 35388.0, 9362.0, 8.350414276123047, -0.20598675310611725, 0.06953082233667374, -0.33339768648147583, -0.0478924885392189, 0.0020528435707092285, 0.9983815550804138, -0.07200562953948975, -0.05751800537109375, 1.4912109375, 1.107421875, 1.1766510009765625, 1.49267578125
27928, 1.0110514163970947, -2.6987059116363525, 6.489058494567871, 0.06185027211904526, -0.015347386710345745, 0.8934539556503296, 0.24361886084079742, -0.06066177040338516, 0.0550428181886673, -0.18118342757225037, 0.07443004846572876, 0.07168713957071304, -4.0463046609304545, 2.8984705576197882, 4.545377031144785, 9362.0, 30146.0, 35388.0, 9362.0, 8.350414276123047, -0.09771425276994705, -0.16306138038635254, -0.11693589389324188, -0.0471903420984745, 0.0019684634171426296, 1.0017006397247314, -0.07200562953948975, -0.05751800537109375, 1.4912109375, 1.107421875, 1.1766510009765625, 1.49267578125
27948, 1.0107237100601196, -2.701821804046631, 6.485030174255371, 0.06681819260120392, -0.016584550961852074, 0.8945493102073669, 0.2531787157058716, -0.06305502355098724, 0.054601073265075684, -0.1794598251581192, 0.06981868296861649, 0.07017630338668823, -0.5530826754709227, 1.4291277196401495, 4.5861728854255706, 9362.0, 30146.0, 35388.0, 9362.0, 8.350414276123047, 0.015231005847454071, 0.3374445140361786, -0.3711991608142853, -0.0483575165271759, 0.0027483846060931683, 1.0005120038986206, -0.07200562953948975, -0.05751800537109375, 1.4912109375, 1.107421875, 1.1766510009765625, 1.49267578125
27958, 1.0103689432144165, -2.703359603881836, 6.48601770401001, 0.07197762280702591, -0.01786963827908039, 0.8956418037414551, 0.26276418566703796, -0.06545216590166092, 0.05459041893482208, -0.1794763058423996, 0.06983515620231628, 0.07016627490520477, -0.5700272925592023, 1.4359189690970027, 4.590495060205273, 9362.0, 30146.0, 35388.0, 9362.0, 8.350414276123047, -0.1441141963005066, -0.21656540036201477, 0.0584733672440052, -0.05118288844823837, 0.00404419144615531, 0.9987310767173767, -0.07200562953948975, -0.05751800537109375, 1.4912109375, 1.107421875, 1.1766510009765625, 1.49267578125
27968, 1.010502576828003, -2.7043845653533936, 6.4841203689575195, 0.07197762280702591, -0.01786963827908039, 0.8956418037414551, 0.26276418566703796, -0.06545216590166092, 0.05459041893482208, -0.1811646968126297, 0.07443732023239136, 0.07169973850250244, -4.0479625190613, 2.8919761131599557, 4.553255180023504, 9362.0, 30146.0, 35388.0, 9362.0, 8.350414276123047, -0.09061155468225479, 0.24095883965492249, -0.2881922423839569, -0.04976392164826393, 0.0007478967891074717, 0.999337375164032, -0.07200562953948975, -0.05751800537109375, 1.4912109375, 1.107421875, 1.1766510009765625, 1.48974609375
27988, 1.0097548961639404, -2.704529047012329, 6.483038902282715, 0.07197762280702591, -0.01786963827908039, 0.8956418037414551, 0.26276418566703796, -0.06545216590166092, 0.05459041893482208, -0.17947417497634888, 0.06981092691421509, 0.0701492428779602, -0.5485819214743899, 1.4314199681827517, 4.592836477135364, 9362.0, 30146.0, 35388.0, 9362.0, 8.350414276123047, -0.07647642493247986, -0.2359929382801056, -0.10135768353939056, -0.050650931894779205, 0.00030134437838569283, 0.999503493309021, -0.05967250093817711, 0.03208160400390625, 1.49853515625, 1.39599609375, 0.0362701416015625, 1.491943359375
28008, 1.0070322751998901, -2.702777147293091, 6.482344627380371, 0.07197762280702591, -0.01786963827908039, 0.8956418037414551, 0.26276418566703796, -0.06545216590166092, 0.05459041893482208, -0.17947997152805328, 0.06983352452516556, 0.07019016891717911, -0.5675386032719005, 1.4545916854487473, 4.58537588047209, 9362.0, 30146.0, 35388.0, 9362.0, 8.350414276123047, -0.11802210658788681, -0.152153879404068, 0.09244938939809799, -0.04855451360344887, 0.003019557101652026, 0.9980748295783997, -0.05572086200118065, 0.07688140869140625, 1.502197265625, 1.39599609375, 0.0362701416015625, 1.491943359375
28048, 1.006081223487854, -2.69760799407959, 6.484129428863525, 0.09453123807907104, -0.023488210514187813, 0.8999500870704651, 0.3010607063770294, -0.07499687373638153, 0.052871473133563995, -0.18118694424629211, 0.07441599667072296, 0.07171644270420074, -4.03612432649748, 2.8933757039865498, 4.547103506684716, 9362.0, 30146.0, 35388.0, 9362.0, 8.350414276123047, -0.1249602809548378, -0.22633062303066254, 0.1909121870994568, -0.047513410449028015, 0.0018833650974556804, 0.9974746108055115, -0.06901171058416367, -0.10231781005859375, 1.487548828125, 1.39599609375, 0.0362701416015625, 1.49267578125
28058, 1.006057620048523, -2.6975278854370117, 6.486202716827393, 0.09453123807907104, -0.023488210514187813, 0.8999500870704651, 0.3010607063770294, -0.07499687373638153, 0.052871473133563995, -0.1794910877943039, 0.06982973217964172, 0.07019858807325363, -0.5673050780864652, 1.457724596437032, 4.596986511037041, 9362.0, 30146.0, 35388.0, 9362.0, 8.350414276123047, 0.03614664822816849, 0.01032238733023405, 0.07403885573148727, -0.046117279678583145, 0.0026731272228062153, 0.9985628128051758, -0.06901171058416367, -0.10231781005859375, 1.487548828125, 1.39599609375, 0.0362701416015625, 1.49267578125
28068, 1.0071369409561157, -2.6966347694396973, 6.489386081695557, 0.09453123807907104, -0.023488210514187813, 0.8999500870704651, 0.3010607063770294, -0.07499687373638153, 0.052871473133563995, -0.17950062453746796, 0.06982091069221497, 0.07015692442655563, -0.544650023516748, 1.4623720615061302, 4.596121491467423, 9362.0, 30146.0, 35388.0, 9362.0, 8.350414276123047, 0.04677034914493561, -0.25103434920310974, 0.28448185324668884, -0.04537304490804672, 0.0033403527922928333, 0.999136209487915, -0.06901171058416367, -0.10231781005859375, 1.487548828125, 1.39599609375, 0.0362701416015625, 1.49267578125
28088, 1.0070303678512573, -2.6964516639709473, 6.491482734680176, 0.10695603489875793, -0.026583097875118256, 0.9020468592643738, 0.32017210125923157, -0.0797477662563324, 0.051910996437072754, -0.17921562492847443, 0.0704711303114891, 0.06970565021038055, -1.0074333384119682, 1.0403737063690812, 4.687428021791422, 9362.0, 30146.0, 35388.0, 9362.0, 8.350414276123047, 0.05954412743449211, -0.018416425213217735, -0.07782804220914841, -0.045676782727241516, 0.0023918563965708017, 1.0000149011611938, -0.06901171058416367, -0.10231781005859375, 1.487548828125, 1.39599609375, 0.0362701416015625, 1.49267578125
28098, 1.0062015056610107, -2.6949687004089355, 6.49100399017334, 0.10695603489875793, -0.026583097875118256, 0.9020468592643738, 0.32017210125923157, -0.0797477662563324, 0.051910996437072754, -0.17947565019130707, 0.06982818990945816, 0.07017836719751358, -0.5565666580214635, 1.4419419734510655, 4.592783329691035, 9362.0, 30146.0, 35388.0, 9362.0, 8.350414276123047, 0.08803237229585648, 0.13245044648647308, 0.08279845118522644, -0.046233147382736206, 0.0016958604101091623, 1.0010162591934204, -0.10134776681661606, -0.14711761474609375, 1.48388671875, 1.39599609375, 0.0362701416015625, 1.49267578125
28108, 1.0044946670532227, -2.6950249671936035, 6.492611408233643, 0.10695603489875793, -0.026583097875118256, 0.9020468592643738, 0.32017210125923157, -0.0797477662563324, 0.051910996437072754, -0.17949771881103516, 0.0698537528514862, 0.07014648616313934, -0.5758323876801428, 1.4617552620358651, 4.596868861559208, 9362.0, 30146.0, 35388.0, 9362.0, 8.350414276123047, -0.21670016646385193, 0.07294169068336487, 0.3017023801803589, -0.04652019217610359, 0.0032684621401131153, 0.9964533448219299, -0.10134776681661606, -0.14711761474609375, 1.48388671875, 1.39599609375, 0.0362701416015625, 1.49267578125
28118, 1.003904938697815, -2.695708751678467, 6.492124557495117, 0.12014538049697876, -0.02986830845475197, 0.9041137099266052, 0.33928778767585754, -0.08451076596975327, 0.05134497210383415, -0.17949092388153076, 0.06979310512542725, 0.07019928842782974, -0.5371078456153936, 1.4572514648425, 4.586724712198803, 9362.0, 30146.0, 35388.0, 9362.0, 8.350414276123047, 0.04232684150338173, -0.01328402291983366, -0.32397663593292236, -0.04741313308477402, 0.0022885838989168406, 0.998799204826355, -0.10134776681661606, -0.14711761474609375, 1.48388671875, 1.573974609375, 0.35626220703125, 1.49267578125
28128, 1.0027756690979004, -2.693652868270874, 6.492360591888428, 0.12014538049697876, -0.02986830845475197, 0.9041137099266052, 0.33928778767585754, -0.08451076596975327, 0.05134497210383415, -0.1794935017824173, 0.0698060393333435, 0.07018233090639114, -0.5520507842417594, 1.4571895526332526, 4.59480252009122, 9362.0, 30146.0, 35388.0, 9362.0, 8.350414276123047, 0.04977542534470558, -0.2035217434167862, -0.10616715997457504, -0.0499674491584301, 0.001582477823831141, 1.0010865926742554, -0.10134776681661606, -0.14711761474609375, 1.48388671875, 1.573974609375, 0.35626220703125, 1.49267578125
28148, 1.0038180351257324, -2.6920619010925293, 6.4886274337768555, 0.12014538049697876, -0.02986830845475197, 0.9041137099266052, 0.33928778767585754, -0.08451076596975327, 0.05134497210383415, -0.17947132885456085, 0.06982044875621796, 0.0701495110988617, -0.5535010732859629, 1.443270542603102, 4.592466850601663, 9362.0, 30146.0, 35388.0, 9362.0, 8.350414276123047, 0.12129811942577362, 0.08044206351041794, -0.06260989606380463, -0.04728063568472862, 0.0001652969658607617, 0.9967888593673706, -0.0836266577243805, -0.2187976837158203, 1.47802734375, 1.573974609375, 0.35626220703125, 1.496337890625
28158, 1.0034433603286743, -2.691404342651367, 6.489972114562988, 0.12014538049697876, -0.02986830845475197, 0.9041137099266052, 0.33928778767585754, -0.08451076596975327, 0.05134497210383415, -0.18119055032730103, 0.07437872141599655, 0.07168585807085037, -4.0354970432299035, 2.8929580183538235, 4.542321335295358, 9362.0, 30146.0, 35388.0, 9362.0, 8.350414276123047, -0.2617008686065674, -0.3349855840206146, 0.03320210427045822, -0.04574649780988693, 0.0012440892169252038, 0.9977337718009949, -0.061351314187049866, 0.15752029418945312, 1.5087890625, 1.573974609375, 0.35626220703125, 1.496337890625
28168, 1.0041276216506958, -2.6901333332061768, 6.489365100860596, 0.12014538049697876, -0.02986830845475197, 0.9041137099266052, 0.33928778767585754, -0.08451076596975327, 0.05134497210383415, -0.18119801580905914, 0.07439576089382172, 0.07171086221933365, -4.039084094083861, 2.8789889691778967, 4.549188028728847, 9362.0, 30146.0, 35388.0, 9362.0, 8.350414276123047, 0.05798656865954399, 0.021734047681093216, 0.16148577630519867, -0.04597886651754379, 0.0004924627719447017, 0.998622715473175, -0.061351314187049866, 0.15752029418945312, 1.5087890625, 1.573974609375, 0.35626220703125, 1.4912109375
28178, 1.0033079385757446, -2.690798282623291, 6.488288879394531, 0.14136110246181488, -0.035152215510606766, 0.9071499109268188, 0.3678857684135437, -0.09161721169948578, 0.049691617488861084, -0.18116989731788635, 0.07439397275447845, 0.0717170313000679, -4.0241271744295535, 2.9006414978185546, 4.54631109622285, 9362.0, 30146.0, 35388.0, 9362.0, 8.350414276123047, -0.15629875659942627, -0.014439701102674007, -0.37985196709632874, -0.04814302548766136, 0.0016142966924235225, 1.000197410583496, -0.07097367942333221, 0.0052013397216796875, 1.496337890625, 1.573974609375, 0.35626220703125, 1.4912109375
28188, 1.004780650138855, -2.689126491546631, 6.485403537750244, 0.14136110246181488, -0.035152215510606766, 0.9071499109268188, 0.3678857684135437, -0.09161721169948578, 0.049691617488861084, -0.181184321641922, 0.0744125247001648, 0.07169165462255478, -4.024809543646997, 2.893863658774478, 4.541630417871174, 9362.0, 30146.0, 35388.0, 9362.0, 8.350414276123047, 0.1450549066066742, -0.13508222997188568, -0.2689136564731598, -0.04814302548766136, 0.0016142966924235225, 1.000197410583496, -0.07097367942333221, 0.0052013397216796875, 1.496337890625, 1.573974609375, 0.35626220703125, 1.4912109375
28198, 1.0047450065612793, -2.690483331680298, 6.4842729568481445, 0.14881417155265808, -0.03700830787420273, 0.9081410765647888, 0.37742459774017334, -0.09399210661649704, 0.049472320824861526, -0.18124745786190033, 0.07233474403619766, 0.07226309180259705, -2.232500842291625, 2.4049929893327544, 4.4006874624155685, 9362.0, 30146.0, 35388.0, 9362.0, 8.350414276123047, -0.017757825553417206, 0.30250877141952515, -0.07204025983810425, -0.04906856641173363, 0.003003387013450265, 0.9978542327880859, -0.07445663213729858, -0.08439826965332031, 1.489013671875, 1.573974609375, 0.35626220703125, 1.4912109375
28208, 1.0048167705535889, -2.691413640975952, 6.483548641204834, 0.14881417155265808, -0.03700830787420273, 0.9081410765647888, 0.37742459774017334, -0.09399210661649704, 0.049472320824861526, -0.18120095133781433, 0.07438832521438599, 0.07171671092510223, -4.038623234062277, 2.880183017676927, 4.541834435944679, 9362.0, 30146.0, 35388.0, 9362.0, 8.350414276123047, 0.08044883608818054, 0.1564350426197052, -0.14952166378498077, -0.047744717448949814, 0.0034690911415964365, 0.9969815015792847, -0.07445663213729858, -0.08439826965332031, 1.489013671875, 1.573974609375, 0.35626220703125, 1.4912109375
28218, 1.005588412284851, -2.69399094581604, 6.481669902801514, 0.14881417155265808, -0.03700830787420273, 0.9081410765647888, 0.37742459774017334, -0.09399210661649704, 0.049472320824861526, -0.18119366466999054, 0.07441340386867523, 0.0716976523399353, -4.034570247998384, 2.8907819489833173, 4.541500998274829, 9362.0, 30146.0, 35388.0, 9362.0, 8.350414276123047, -0.021792873740196228, 0.037831395864486694, -0.22181807458400726, -0.04716969281435013, 0.0026728471275418997, 1.0020604133605957, -0.07445663213729858, -0.08439826965332031, 1.489013671875, 1.578369140625, 0.3665008544921875, 1.4912109375
28228, 1.0059009790420532, -2.6962807178497314, 6.480747222900391, 0.14881417155265808, -0.03700830787420273, 0.9081410765647888, 0.37742459774017334, -0.09399210661649704, 0.049472320824861526, -0.18116578459739685, 0.07442346215248108, 0.0717017874121666, -4.032253063920723, 2.9005640372710673, 4.533536233078276, 9362.0, 30146.0, 35388.0, 9362.0, 8.350414276123047, 0.14942355453968048, 0.1355620175600052, -0.2545831799507141, -0.04845593869686127, 0.0010865863878279924, 1.0012876987457275, -0.07445663213729858, -0.08439826965332031, 1.489013671875, 1.578369140625, 0.3665008544921875, 1.4912109375
28238, 1.0054900646209717, -2.6969470977783203, 6.476545333862305, 0.14881417155265808, -0.03700830787420273, 0.9081410765647888, 0.37742459774017334, -0.09399210661649704, 0.049472320824861526, -0.181200310587883, 0.07438579201698303, 0.07174407690763474, -4.046658178550759, 2.8777982600938117, 4.5378755481559905, 9362.0, 30146.0, 35388.0, 9362.0, 8.350414276123047, 0.14942355453968048, 0.1355620175600052, -0.2545831799507141, -0.048617102205753326, 0.0014863096876069903, 0.9992574453353882, -0.07445663213729858, -0.08439826965332031, 1.489013671875, 1.34912109375, 0.015380859375, 1.4912109375
28248, 1.0063601732254028, -2.6977832317352295, 6.475339412689209, 0.14881417155265808, -0.03700830787420273, 0.9081410765647888, 0.37742459774017334, -0.09399210661649704, 0.049472320824861526, -0.1811770647764206, 0.07440491765737534, 0.07172954827547073, -4.04304791286197, 2.8821176894814187, 4.543154261763642, 9362.0, 30146.0, 35388.0, 9362.0, 8.350414276123047, 0.025526544079184532, 0.1866479068994522, 0.025971131399273872, -0.04991797357797623, 0.0023365768138319254, 0.9968894124031067, -0.07445663213729858, -0.08439826965332031, 1.489013671875, 1.34912109375, 0.015380859375, 1.4912109375
28268, 1.0047903060913086, -2.697747230529785, 6.47562837600708, 0.14881417155265808, -0.03700830787420273, 0.9081410765647888, 0.37742459774017334, -0.09399210661649704, 0.049472320824861526, -0.17950358986854553, 0.06983102858066559, 0.07016017287969589, -0.5682211727900346, 1.4692951658990125, 4.591727331885973, 9362.0, 30146.0, 35388.0, 9362.0, 8.350414276123047, 0.023801101371645927, 0.23367901146411896, 0.19235152006149292, -0.047362588346004486, -0.0015689590945839882, 0.9991195201873779, -0.08426635712385178, -0.06647872924804688, 1.490478515625, 1.34912109375, 0.015380859375, 1.4912109375
28288, 1.0045455694198608, -2.6948628425598145, 6.476170063018799, 0.14881417155265808, -0.03700830787420273, 0.9081410765647888, 0.37742459774017334, -0.09399210661649704, 0.049472320824861526, -0.1794770210981369, 0.06982529163360596, 0.07019387930631638, -0.5571163939709743, 1.4499647284241064, 4.594909401097842, 9362.0, 30146.0, 35388.0, 9362.0, 8.350414276123047, -0.007702686823904514, -0.30558422207832336, -0.13700273633003235, -0.047362588346004486, -0.0015689590945839882, 0.9991195201873779, -0.061006754636764526, -0.06647872924804688, 1.490478515625, 1.34912109375, 0.015380859375, 1.48974609375
28328, 1.004849910736084, -2.685173988342285, 6.479130268096924, 0.19753997027873993, -0.04914325475692749, 0.913933515548706, 0.4346886873245239, -0.10825470834970474, 0.04701211676001549, -0.17949646711349487, 0.06980057060718536, 0.07015684992074966, -0.530974367246438, 1.4599488661758926, 4.584842839359241, 9362.0, 30146.0, 35388.0, 9362.0, 8.350414276123047, 0.11952103674411774, -0.26512861251831055, 0.34688109159469604, -0.04753068834543228, 0.0013587833382189274, 0.9996892809867859, -0.05476253852248192, -0.10231781005859375, 1.487548828125, 1.34912109375, 0.015380859375, 1.494873046875
28348, 1.0069184303283691, -2.679539680480957, 6.4836554527282715, 0.19753997027873993, -0.04914325475692749, 0.913933515548706, 0.4346886873245239, -0.10825470834970474, 0.04701211676001549, -0.1794954240322113, 0.06984885036945343, 0.07011857628822327, -0.5682672466591115, 1.4528656589025957, 4.586794217913843, 9362.0, 30146.0, 35388.0, 9362.0, 8.350414276123047, 0.013310273177921772, -0.39881250262260437, 0.039151597768068314, -0.04781157895922661, 0.004250714555382729, 1.0003503561019897, -0.056315772235393524, -0.030637741088867188, 1.493408203125, 1.34912109375, 0.015380859375, 1.49267578125
28368, 1.0092177391052246, -2.6788170337677, 6.484153747558594, 0.21530795097351074, -0.05356849730014801, 0.9157903790473938, 0.4537177085876465, -0.11301392316818237, 0.046217452734708786, -0.17950721085071564, 0.06983427703380585, 0.07014943659305573, -0.5786875736045902, 1.4744584262289209, 4.595690820796363, 9362.0, 30146.0, 35388.0, 9362.0, 8.350414276123047, 0.040254607796669006, -0.10820280015468597, -0.03276515379548073, -0.04754464328289032, 0.0012505537597462535, 0.998767614364624, -0.06215818226337433, -0.08439826965332031, 1.489013671875, 1.34912109375, 0.015380859375, 1.48974609375
28378, 1.010318398475647, -2.678278923034668, 6.480287075042725, 0.21530795097351074, -0.05356849730014801, 0.9157903790473938, 0.4537177085876465, -0.11301392316818237, 0.046217452734708786, -0.17954334616661072, 0.06982839852571487, 0.07016434520483017, -0.5568991205529219, 1.4970879271633066, 4.593448443944347, 9362.0, 30146.0, 35388.0, 9362.0, 8.350414276123047, 0.12812361121177673, 0.0788436084985733, -0.1750255823135376, -0.04932007938623428, 0.0010107681155204773, 1.0005650520324707, -0.06215818226337433, -0.08439826965332031, 1.489013671875, 1.34912109375, 0.015380859375, 1.48974609375
28398, 1.012854814529419, -2.6776928901672363, 6.474939346313477, 0.23383615911006927, -0.05818469822406769, 0.9176187515258789, 0.47269371151924133, -0.11780194193124771, 0.0452369786798954, -0.1793583482503891, 0.06972483545541763, 0.0702594593167305, -0.45532206055296287, 1.36983303467278, 4.571526911678453, 9362.0, 30146.0, 35388.0, 9362.0, 8.350414276123047, -0.06825742870569229, 0.12490399181842804, -0.21630032360553741, -0.048981573432683945, 0.0015730776358395815, 0.9973199963569641, -0.05952785909175873, 0.05000114440917969, 1.5, 1.34912109375, 0.015380859375, 1.48974609375
28418, 1.0160337686538696, -2.675365924835205, 6.470810413360596, 0.24338479340076447, -0.06056476756930351, 0.9185157418251038, 0.48217153549194336, -0.12020713090896606, 0.04453699663281441, -0.17945247888565063, 0.06982006132602692, 0.07012379169464111, -0.5566128186279783, 1.4360161992559597, 4.58603294954685, 9362.0, 30146.0, 35388.0, 9362.0, 8.350414276123047, 0.23100624978542328, 0.10934965312480927, -0.3009447753429413, -0.04816946014761925, 0.001754957134835422, 0.9976782202720642, -0.05917993187904358, -0.07543754577636719, 1.48974609375, 1.34912109375, 0.015380859375, 1.48974609375
28428, 1.0174791812896729, -2.674844741821289, 6.468382358551025, 0.24338479340076447, -0.06056476756930351, 0.9185157418251038, 0.48217153549194336, -0.12020713090896606, 0.04453699663281441, -0.1794712245464325, 0.06982421875, 0.07011338323354721, -0.5808765830885437, 1.443942732958675, 4.6034798708998705, 9362.0, 30146.0, 35388.0, 9362.0, 8.350414276123047, 0.08433856815099716, -0.039446596056222916, -0.14834292232990265, -0.04816946014761925, 0.001754957134835422, 0.9976782202720642, -0.05917993187904358, -0.07543754577636719, 1.48974609375, 1.34912109375, 0.015380859375, 1.48974609375
28448, 1.020704984664917, -2.6740236282348633, 6.46373176574707, 0.24338479340076447, -0.06056476756930351, 0.9185157418251038, 0.48217153549194336, -0.12020713090896606, 0.04453699663281441, -0.1794845014810562, 0.06984490901231766, 0.07014297693967819, -0.5931766869145049, 1.4440417508030805, 4.6195024299040135, 9362.0, 30146.0, 35388.0, 9362.0, 8.350414276123047, 0.2621743381023407, 0.059467166662216187, -0.484259694814682, -0.047640472650527954, 0.00260383659042418, 0.9966577887535095, -0.05917993187904358, -0.07543754577636719, 1.48974609375, 1.34912109375, 0.015380859375, 1.4912109375
28468, 1.0220673084259033, -2.673255681991577, 6.45910120010376, 0.2630504369735718, -0.06546977907419205, 0.9202684164047241, 0.5010997653007507, -0.12504969537258148, 0.04296204820275307, -0.1795407086610794, 0.06980443000793457, 0.07013221830129623, -0.5762716267381456, 1.4760643199372225, 4.6252430040828445, 9362.0, 30146.0, 35388.0, 9362.0, 8.350414276123047, -0.03406470641493797, 0.005543647333979607, -0.3267257809638977, -0.046245403587818146, 0.0009272738243453205, 1.0005356073379517, -0.056690651923418045, -0.05751800537109375, 1.4912109375, 1.34912109375, 0.015380859375, 1.4912109375
28478, 1.022588849067688, -2.677861452102661, 6.457021713256836, 0.2630504369735718, -0.06546977907419205, 0.9202684164047241, 0.5010997653007507, -0.12504969537258148, 0.04296204820275307, -0.17952516674995422, 0.06982831656932831, 0.07012983411550522, -0.588570510576106, 1.4625678583970227, 4.620424223693048, 9362.0, 30146.0, 35388.0, 9362.0, 8.350414276123047, 0.050283364951610565, 0.48427245020866394, -0.35443609952926636, -0.046903982758522034, 0.0029596269596368074, 0.9959896206855774, -0.07434353977441788, -0.04855918884277344, 1.491943359375, 1.34912109375, 0.015380859375, 1.4912109375
28488, 1.0227477550506592, -2.6800119876861572, 6.458834171295166, 0.2630504369735718, -0.06546977907419205, 0.9202684164047241, 0.5010997653007507, -0.12504969537258148, 0.04296204820275307, -0.17951110005378723, 0.06981734931468964, 0.0701168105006218, -0.5764923301906332, 1.4556027401714289, 4.620032219592106, 9362.0, 30146.0, 35388.0, 9362.0, 8.350414276123047, 0.06323882937431335, 0.06352771073579788, 0.7568512558937073, -0.04755854979157448, 0.004064823500812054, 0.9972043037414551, -0.07434353977441788, -0.04855918884277344, 1.491943359375, 1.34912109375, 0.015380859375, 1.491943359375
28498, 1.0215532779693604, -2.6797454357147217, 6.460018634796143, 0.2630504369735718, -0.06546977907419205, 0.9202684164047241, 0.5010997653007507, -0.12504969537258148, 0.04296204820275307, -0.17951685190200806, 0.06983576714992523, 0.07015073299407959, -0.5949469919768718, 1.4627274548933826, 4.62048129242759, 9362.0, 30146.0, 35388.0, 9362.0, 8.350414276123047, -0.0893184170126915, -0.006976037751883268, -0.32775524258613586, -0.04814840108156204, 0.00563427060842514, 1.0003353357315063, -0.0741753950715065, -0.23671722412109375, 1.4765625, 1.16455078125, 0.620697021484375, 1.491943359375
28508, 1.0225436687469482, -2.678239345550537, 6.459239482879639, 0.2630504369735718, -0.06546977907419205, 0.9202684164047241, 0.5010997653007507, -0.12504969537258148, 0.04296204820275307, -0.1795557588338852, 0.06983838975429535, 0.07012318819761276, -0.6034217219468211, 1.487824715886319, 4.629516845621273, 9362.0, 30146.0, 35388.0, 9362.0, 8.350414276123047, -0.10847606509923935, -0.12026029825210571, 0.09184474498033524, -0.05001504719257355, 0.0037678976077586412, 1.000300407409668, -0.0741753950715065, -0.23671722412109375, 1.4765625, 1.16455078125, 0.620697021484375, 1.493408203125
28518, 1.0226693153381348, -2.681140661239624, 6.460662841796875, 0.2939700484275818, -0.07319270819425583, 0.9228110909461975, 0.5295621752738953, -0.13238124549388885, 0.04169725626707077, -0.17950482666492462, 0.0698246881365776, 0.0701594278216362, -0.5872182256943886, 1.458178379814285, 4.623684851024258, 9362.0, 30146.0, 35388.0, 9362.0, 8.350414276123047, -0.05882107466459274, 0.17974692583084106, -0.13542695343494415, -0.050118234008550644, 0.002977128606289625, 0.9990912675857544, -0.056954097002744675, -0.08439826965332031, 1.489013671875, 1.354248046875, 0.0154266357421875, 1.493408203125
28528, 1.0217338800430298, -2.6813576221466064, 6.460546016693115, 0.2939700484275818, -0.07319270819425583, 0.9228110909461975, 0.5295621752738953, -0.13238124549388885, 0.04169725626707077, -0.179493710398674, 0.06979301571846008, 0.07018861174583435, -0.5659317993437264, 1.4826417619551648, 4.617327640374783, 9362.0, 30146.0, 35388.0, 9362.0, 8.350414276123047, -0.05041225999593735, 0.09827400743961334, -0.12243998050689697, -0.04695821925997734, 0.003561146790161729, 0.9987744092941284, -0.056954097002744675, -0.08439826965332031, 1.489013671875, 1.25537109375, 0.146392822265625, 1.493408203125
28548, 1.01809561252594, -2.6823346614837646, 6.4610595703125, 0.31007063388824463, -0.077219158411026, 0.9240532517433167, 0.5438136458396912, -0.13604742288589478, 0.04108499735593796, -0.17945575714111328, 0.06978975981473923, 0.07018757611513138, -0.5573867388315792, 1.4583966038284473, 4.599248945773202, 9362.0, 30146.0, 35388.0, 9362.0, 8.350414276123047, -0.39976993203163147, 0.17548631131649017, 0.14626462757587433, -0.04736332967877388, 0.003983329050242901, 0.9989379048347473, -0.05218930169939995, -0.09335899353027344, 1.48828125, 1.25537109375, 0.146392822265625, 1.493408203125
28558, 1.015318751335144, -2.6824262142181396, 6.46143102645874, 0.31007063388824463, -0.077219158411026, 0.9240532517433167, 0.5438136458396912, -0.13604742288589478, 0.04108499735593796, -0.1794348955154419, 0.06980744004249573, 0.07015079259872437, -0.558785996897362, 1.4279643496060999, 4.5788372075713575, 9362.0, 30146.0, 35388.0, 9362.0, 8.350414276123047, -0.3827309310436249, -0.0820780098438263, 0.16515076160430908, -0.048322372138500214, 0.002256251871585846, 1.0001996755599976, -0.05451697111129761, 0.08584022521972656, 1.5029296875, 1.25537109375, 0.146392822265625, 1.493408203125
28568, 1.0132306814193726, -2.683866262435913, 6.464334487915039, 0.31007063388824463, -0.077219158411026, 0.9240532517433167, 0.5438136458396912, -0.13604742288589478, 0.04108499735593796, -0.1794356405735016, 0.0698576271533966, 0.07016953080892563, -0.5734533099749262, 1.4348877411210594, 4.578847415984063, 9362.0, 30146.0, 35388.0, 9362.0, 8.350414276123047, -0.44788411259651184, -0.021883323788642883, 0.2285558581352234, -0.04571688175201416, 0.002881162567064166, 1.0014382600784302, -0.05451697111129761, 0.08584022521972656, 1.5029296875, 1.25537109375, 0.146392822265625, 1.493408203125
28608, 1.0042226314544678, -2.6871912479400635, 6.463455677032471, 0.337855726480484, -0.08417323231697083, 0.9260882139205933, 0.5675724744796753, -0.14209221303462982, 0.039907414466142654, -0.1794455349445343, 0.06978601962327957, 0.0702049508690834, -0.5177250921209057, 1.432237731189332, 4.582635198324261, 9362.0, 30146.0, 35388.0, 9362.0, 8.350414276123047, -0.2213362753391266, 0.5259592533111572, 0.27320045232772827, -0.048529330641031265, -0.0002414940536255017, 1.0024960041046143, -0.08018626272678375, -0.31735801696777344, 1.469970703125, 1.25537109375, 0.146392822265625, 1.494873046875
28618, 1.00337815284729, -2.6853575706481934, 6.462148189544678, 0.337855726480484, -0.08417323231697083, 0.9260882139205933, 0.5675724744796753, -0.14209221303462982, 0.039907414466142654, -0.17946888506412506, 0.0697547197341919, 0.07021120935678482, -0.49526621644249313, 1.4642840705309084, 4.575900533213896, 9362.0, 30146.0, 35388.0, 9362.0, 8.350414276123047, -0.13013173639774323, -0.4234394431114197, -0.265456885099411, -0.04590857774019241, 0.0013358017895370722, 1.0014052391052246, -0.08018626272678375, -0.31735801696777344, 1.469970703125, 1.25537109375, 0.146392822265625, 1.494873046875
28628, 1.0046472549438477, -2.6866846084594727, 6.463364601135254, 0.337855726480484, -0.08417323231697083, 0.9260882139205933, 0.5675724744796753, -0.14209221303462982, 0.039907414466142654, -0.17944639921188354, 0.06982116401195526, 0.07018426805734634, -0.5482899581239747, 1.442958444603363, 4.5815921403836715, 9362.0, 30146.0, 35388.0, 9362.0, 8.350414276123047, -0.1867476999759674, 0.29897305369377136, 0.23978565633296967, -0.04708854854106903, -0.0026774276047945023, 0.9970231652259827, -0.08018626272678375, -0.31735801696777344, 1.469970703125, 1.25537109375, 0.146392822265625, 1.494873046875
28648, 1.0081511735916138, -2.6860604286193848, 6.459918022155762, 0.36093947291374207, -0.08995245397090912, 0.9276782870292664, 0.5866208672523499, -0.14686432480812073, 0.03965634107589722, -0.17947624623775482, 0.06979463994503021, 0.07019969075918198, -0.5370017989336452, 1.4549880567493005, 4.588891670846645, 9362.0, 30146.0, 35388.0, 9362.0, 8.350414276123047, 0.36189356446266174, 0.022776005789637566, -0.6263502836227417, -0.04795820266008377, 0.0003208500856999308, 0.9959150552749634, -0.08018626272678375, -0.31735801696777344, 1.469970703125, 1.25537109375, 0.146392822265625, 1.494873046875
28668, 1.0160038471221924, -2.6885251998901367, 6.455671310424805, 0.36093947291374207, -0.08995245397090912, 0.9276782870292664, 0.5866208672523499, -0.14686432480812073, 0.03965634107589722, -0.17949680984020233, 0.06987571716308594, 0.07012184709310532, -0.6027452128397427, 1.443216158002599, 4.604222165705294, 9362.0, 30146.0, 35388.0, 9362.0, 8.350414276123047, 0.5092322826385498, 0.2077559232711792, -0.5636398196220398, -0.05127115920186043, -0.0002875294885598123, 1.0008370876312256, -0.09020057320594788, -0.06647872924804688, 1.490478515625, 1.25537109375, 0.146392822265625, 1.49267578125
28678, 1.0215513706207275, -2.6867964267730713, 6.453490734100342, 0.36093947291374207, -0.08995245397090912, 0.9276782870292664, 0.5866208672523499, -0.14686432480812073, 0.03965634107589722, -0.17958787083625793, 0.06989974528551102, 0.07011674344539642, -0.6468050264895434, 1.5051105429270137, 4.631158394081809, 9362.0, 30146.0, 35388.0, 9362.0, 8.350414276123047, 0.636202871799469, -0.3285014033317566, -0.33777064085006714, -0.05023909732699394, 0.00022575107868760824, 1.0014885663986206, -0.07499323040246964, -0.07543754577636719, 1.48974609375, 1.25537109375, 0.146392822265625, 1.49267578125
28708, 1.040508508682251, -2.6830501556396484, 6.441349506378174, 0.36093947291374207, -0.08995245397090912, 0.9276782870292664, 0.5866208672523499, -0.14686432480812073, 0.03965634107589722, -0.17970010638237, 0.06996968388557434, 0.07007414847612381, -0.7073668052779568, 1.5807073405689778, 4.621030062084558, 9362.0, 30146.0, 35388.0, 9362.0, 8.350414276123047, 0.4102590084075928, -0.1789013147354126, -0.2341969609260559, -0.048559051007032394, 0.0013244395377114415, 0.9947099089622498, -0.08386179804801941, 0.07688140869140625, 1.502197265625, 1.25537109375, 0.146392822265625, 1.49560546875
28718, 1.0469915866851807, -2.683443784713745, 6.439303874969482, 0.4093894362449646, -0.10208531469106674, 0.9307326078414917, 0.6246488690376282, -0.15654094517230988, 0.03693542629480362, -0.17961183190345764, 0.06993140280246735, 0.07010629773139954, -0.6557110222288919, 1.527807053944997, 4.604883721037821, 9362.0, 30146.0, 35388.0, 9362.0, 8.350414276123047, 0.5916740298271179, 0.24912826716899872, 0.09064477682113647, -0.04733411595225334, 0.004451151471585035, 1.0005080699920654, -0.05084819346666336, 0.014162063598632812, 1.4970703125, 1.25537109375, 0.146392822265625, 1.49560546875
28738, 1.0534749031066895, -2.681997537612915, 6.4380645751953125, 0.42197754979133606, -0.10524126142263412, 0.9314664602279663, 0.6341743469238281, -0.1590622514486313, 0.036671143025159836, -0.17965829372406006, 0.06996811926364899, 0.070064015686512, -0.6790073103716205, 1.5514192703460878, 4.604067672451514, 9362.0, 30146.0, 35388.0, 9362.0, 8.350414276123047, -0.024073148146271706, -0.2519227862358093, 0.16365402936935425, -0.04890899360179901, 0.004649613052606583, 0.9957937598228455, -0.05084819346666336, 0.014162063598632812, 1.4970703125, 1.25537109375, 0.146392822265625, 1.49560546875
