timeTick, roll, pitch, yaw, stateX, stateY, stateZ, stateVX, stateVY, stateVZ, otX0, otY0, otZ0, otRoll0, otPitch0, otYaw0, left wing, pitch motor, yaw motor, right wing, voltage, roll rate, pitch rate, yaw rate, A_x, A_y, A_z, current, i_raw, v_raw, airflow_voltage, airflow_speed, pot_Pitch
35467, 0.0026694864500313997, 0.0030164243653416634, -0.009332343935966492, 0, 0, 0, 0, 0, 0, -0.5569902658462524, -0.930565357208252, 0.09926944971084595, -1.355126315497487, -0.24452541710044784, -3.805308218568728, 0, 0, 0, 0, 0, 0, 0, 0, 0, 0, 0, 0, 0, 0, 0, 0, 0
35477, 0.0030535461846739054, 0.00565544655546546, -0.010166323743760586, -1.862976972688557e-08, -7.087690789830958e-08, 0.00011632562382146716, -4.957021246809745e-06, -7.86063537816517e-06, 0.00784311257302761, -0.5570098161697388, -0.9305689334869385, 0.09926166385412216, -1.34763252906557, -0.2402321430454606, -3.8022559073485445, 9362.0, 30146.0, 35388.0, 9362.0, 0, 0.024591553956270218, -0.045836083590984344, -0.11774138361215591, -0.08433455973863602, -0.008770628832280636, 1.0236401557922363, 0, 0, 0, 1.465576171875, 0.130889892578125, 0
35487, 0.003835192648693919, 0.005232630763202906, -0.011389261111617088, -1.1778681852092632e-07, -1.7624527970383497e-07, 0.0002065757871605456, -1.4857064343232196e-05, -1.3245079571788665e-05, 0.010207321494817734, -0.5569886565208435, -0.9305827021598816, 0.09927701205015182, -1.3534000682100051, -0.24798180187480057, -3.796820271881091, 9362.0, 30146.0, 35388.0, 9362.0, 0, -0.03283349797129631, -0.4813705384731293, -0.1729906052350998, -0.08324243128299713, -0.00881020724773407, 1.0260199308395386, 0, 0, 0, 1.502197265625, 0.20001220703125, 1.493408203125
35497, 0.004106298554688692, 0.008670898154377937, -0.012918667867779732, -3.122926557352912e-07, -3.423496082177735e-07, 0.0003210516879335046, -2.4193150238716044e-05, -1.998725565499626e-05, 0.012688256800174713, -0.5570023059844971, -0.9305849075317383, 0.09926366806030273, -1.3544600950359371, -0.25452136370367384, -3.80550193529367, 9362.0, 30146.0, 35388.0, 9362.0, 0, -0.049115169793367386, 0.09332460910081863, 0.3789813816547394, -0.08078902214765549, -0.008031580597162247, 1.0273008346557617, 0, 0, 0, 1.8046875, 0.9901275634765625, 1.493408203125
35507, 0.0042008948512375355, 0.00803400669246912, -0.010733846575021744, -6.304843509497005e-07, -5.783157348560053e-07, 0.0004612936172634363, -3.941521936212666e-05, -2.7210980988456868e-05, 0.015360528603196144, -0.5569963455200195, -0.930566132068634, 0.09928666055202484, -1.349635595928608, -0.2536762507917558, -3.802760622826207, 9362.0, 30146.0, 35388.0, 9362.0, 0, 0.16429783403873444, 0.026806289330124855, 0.10219428688287735, -0.08467131108045578, -0.008583538234233856, 1.0276130437850952, 0, 0, 0, 1.622314453125, 0.470672607421875, 1.491943359375
35517, 0.005650907754898071, 0.006820374634116888, -0.00861792266368866, -1.0953098126265104e-06, -8.873628871697292e-07, 0.0006283663678914309, -5.349257116904482e-05, -3.4667158615775406e-05, 0.0180544201284647, -0.5569908618927002, -0.9305834770202637, 0.09927146881818771, -1.3516944810075235, -0.25298463961803463, -3.803183705250201, 9362.0, 30146.0, 35388.0, 9362.0, 0, -0.19749295711517334, 0.15001201629638672, 0.32089105248451233, -0.08238594233989716, -0.007714678533375263, 1.026472806930542, 0, 0, 0, 1.51318359375, 0.2224273681640625, 1.491943359375
35527, 0.005258478689938784, 0.006164475344121456, -0.005650180857628584, -1.6902095012483187e-06, -1.2837097074225312e-06, 0.0008221692987717688, -6.545650830958039e-05, -4.458465991774574e-05, 0.020706553012132645, -0.5569787621498108, -0.9305738210678101, 0.09926888346672058, -1.3492382806056655, -0.2563245187835719, -3.7951500274293557, 9362.0, 30146.0, 35388.0, 9362.0, 0, -0.09719347208738327, 0.17756518721580505, 0.45428377389907837, -0.08137664943933487, -0.008410637266933918, 1.0252231359481812, 0, 0, 0, 1.680908203125, 0.6174774169921875, 1.4912109375
35537, 0.005427115596830845, 0.004271069075912237, -0.002614521188661456, -2.398892775090644e-06, -1.7757115529093426e-06, 0.0010416945442557335, -7.619732787134126e-05, -5.382362360251136e-05, 0.02319887839257717, -0.5570921897888184, -0.9305487275123596, 0.0993490219116211, -1.311261836081129, -0.35082206583825837, -3.856487798725428, 9362.0, 30146.0, 35388.0, 9362.0, 0, -0.16082268953323364, 0.1030401811003685, 0.2044258564710617, -0.08162443339824677, -0.011053794994950294, 1.0230708122253418, 0, 0, 0, 1.19677734375, 0.40228271484375, 1.4912109375
35547, 0.005390197969973087, 0.0015810943441465497, 9.391863568453118e-05, -3.19829860018217e-06, -2.361507540626917e-06, 0.00128530606161803, -8.357426850125194e-05, -6.33344825473614e-05, 0.025523819029331207, -0.5570498704910278, -0.9305247068405151, 0.09943729639053345, -1.3268583695926024, -0.3278936890040143, -3.848083946837031, 9362.0, 30146.0, 35388.0, 9362.0, 0, 0.0953790470957756, 0.690356969833374, 0.5417615175247192, -0.08435457199811935, -0.011135198175907135, 1.024549126625061, 0, 0, 0, 1.8076171875, 1.0009613037109375, 1.489013671875
35557, 0.005903270561248064, -0.005085054785013199, 0.0043180580250918865, -4.0479048948327545e-06, -3.042115622520214e-06, 0.0015524335904046893, -8.606965275248513e-05, -7.280870340764523e-05, 0.027902085334062576, -0.5570715069770813, -0.9305184483528137, 0.09939321130514145, -1.3414520328084907, -0.3238437847072362, -3.836249162093985, 9362.0, 30146.0, 35388.0, 9362.0, 0, 0.14345309138298035, 0.5753927230834961, 0.40611690282821655, -0.08339816331863403, -0.010021825321018696, 1.0274224281311035, 0, 0, 0, 1.588623046875, 0.390350341796875, 1.489013671875
35567, 0.006142205558717251, -0.010046168230473995, 0.008266119286417961, -4.863893991569057e-06, -3.822096005023923e-06, 0.0018446508329361677, -7.689893391216174e-05, -8.319778862642124e-05, 0.030541768297553062, -0.556995153427124, -0.9306368827819824, 0.09934473037719727, -1.3086723500660962, -0.33717241144216814, -3.8142489229015655, 9362.0, 30146.0, 35388.0, 9362.0, 8.152067184448242, -0.21836338937282562, 0.3346368372440338, 0.2929164171218872, -0.08168243616819382, -0.0078086890280246735, 1.0268495082855225, -0.05035638064146042, -0.1291980743408203, 1.4853515625, 1.445068359375, 0.0970306396484375, 1.496337890625
35577, 0.005214708857238293, -0.013701850548386574, 0.011754298582673073, -5.544519353861688e-06, -4.708082087745424e-06, 0.0021634851582348347, -5.905426587560214e-05, -9.395490633323789e-05, 0.033225517719984055, -0.5570130944252014, -0.9306142330169678, 0.09934411197900772, -1.3159806317744607, -0.3184281308148229, -3.7865658579758636, 9362.0, 30146.0, 35388.0, 9362.0, 8.152067184448242, -0.18960466980934143, 0.8015964031219482, 0.30148229002952576, -0.08393415063619614, -0.007486770395189524, 1.0261281728744507, -0.05035638064146042, -0.1291980743408203, 1.4853515625, 1.494140625, 0.183990478515625, 1.496337890625
35587, 0.0032968870364129543, -0.01989133656024933, 0.013692734763026237, -6.014663085807115e-06, -5.693424554920057e-06, 0.0025086617097258568, -3.469502189545892e-05, -0.00010302633018000051, 0.035810187458992004, -0.5569780468940735, -0.9306856393814087, 0.09927290678024292, -1.3293757596927482, -0.30246738637023896, -3.8075807328809343, 9362.0, 30146.0, 35388.0, 9362.0, 8.152067184448242, 0.21355924010276794, 0.7437794208526611, -0.02236473187804222, -0.08556006848812103, -0.008217981085181236, 1.0262064933776855, -0.05035638064146042, -0.1291980743408203, 1.4853515625, 1.808349609375, 1.0036163330078125, 1.493408203125
35597, 0.0038308333605527878, -0.027126338332891464, 0.013469165191054344, -6.186877726577222e-06, -6.752606168447528e-06, 0.0028795581310987473, 5.751634262196603e-07, -0.00010883392678806558, 0.03836947679519653, -0.5569444894790649, -0.9307451844215393, 0.09920681267976761, -1.34268910573955, -0.29180156208880703, -3.789324860143748, 9362.0, 30146.0, 35388.0, 9362.0, 8.152067184448242, 0.08599869906902313, 0.4135904312133789, -0.6458932757377625, -0.08716287463903427, -0.008781673386693, 1.026997685432434, -0.05035638064146042, -0.1291980743408203, 1.4853515625, 1.75634765625, 0.8292083740234375, 1.493408203125
35607, 0.0032374649308621883, -0.031609416007995605, 0.009034190326929092, -5.942656116530998e-06, -7.874565199017525e-06, 0.003276427276432514, 4.8474728828296065e-05, -0.00011553417425602674, 0.0410047210752964, -0.5569738745689392, -0.9307411313056946, 0.09921014308929443, -1.363269657037532, -0.2689821000097936, -3.79085554511699, 9362.0, 30146.0, 35388.0, 9362.0, 8.152067184448242, 0.16769248247146606, 0.548786997795105, -0.6135216355323792, -0.08944754302501678, -0.00935111939907074, 1.0264830589294434, -0.05035638064146042, -0.1291980743408203, 1.4853515625, 1.464111328125, 0.1283111572265625, 1.493408203125
35617, 0.0035438365302979946, -0.03492918238043785, 0.001593494089320302, -5.180153493711259e-06, -9.058310752152465e-06, 0.0036994293332099915, 0.00010417513840366155, -0.00012123579654144123, 0.043596070259809494, -0.556980311870575, -0.9307616949081421, 0.09923344105482101, -1.3320146966375979, -0.2653537108548676, -3.7856612895671815, 9362.0, 30146.0, 35388.0, 9362.0, 8.152067184448242, 0.008148666471242905, 0.5822232365608215, -0.8783488273620605, -0.08940253406763077, -0.008883262053132057, 1.0253089666366577, -0.05035638064146042, -0.1291980743408203, 1.4853515625, 1.297119140625, 0.0532379150390625, 1.493408203125
35627, 0.0035450805444270372, -0.0382799357175827, -0.007737793494015932, -3.831797130260384e-06, -1.0301767360942904e-05, 0.004147824365645647, 0.00016564053657930344, -0.00012746542051900178, 0.046083349734544754, -0.5570266246795654, -0.9308021664619446, 0.09917076677083969, -1.3171947521685365, -0.24184798246849937, -3.7760849830661734, 9362.0, 30146.0, 35388.0, 9362.0, 8.152067184448242, -0.027910375967621803, -0.16641999781131744, -1.5048398971557617, -0.08767535537481308, -0.008495563641190529, 1.0271203517913818, -0.05035638064146042, -0.1291980743408203, 1.4853515625, 1.802490234375, 0.9821929931640625, 1.4970703125
35637, 0.0033767535351216793, -0.03593365103006363, -0.02240755409002304, -1.8389830529486062e-06, -1.1607621672737878e-05, 0.004621685016900301, 0.00023281399626284838, -0.00013371526438277215, 0.048689208924770355, -0.5570367574691772, -0.9307008385658264, 0.09916803240776062, -1.3074848156290868, -0.33036453236590546, -3.861512336283384, 9362.0, 30146.0, 35388.0, 9362.0, 8.152067184448242, -0.08564341068267822, -0.10120873898267746, -1.4523365497589111, -0.08795428276062012, -0.010727820917963982, 1.0296170711517334, -0.05035638064146042, -0.1291980743408203, 1.4853515625, 1.76220703125, 0.8473968505859375, 1.4970703125
35647, 0.0022800606675446033, -0.034951481968164444, -0.03815171867609024, 8.057450031628832e-07, -1.29746495076688e-05, 0.005122890695929527, 0.0002960808342322707, -0.00013965301332063973, 0.05155234411358833, -0.5570418238639832, -0.9306872487068176, 0.09919910877943039, -1.309201184379734, -0.27824425980656997, -3.807104519326628, 9362.0, 30146.0, 35388.0, 9362.0, 8.152067184448242, 0.13193614780902863, -0.30412808060646057, -2.028995990753174, -0.08927229046821594, -0.010585923679172993, 1.0290428400039673, -0.05035638064146042, -0.1291980743408203, 1.4853515625, 1.7431640625, 0.7893218994140625, 1.4912109375
35657, 0.0031821669545024633, -0.03231450542807579, -0.05749116092920303, 4.074534899700666e-06, -1.43914767249953e-05, 0.005652807652950287, 0.00035754352575168014, -0.00014377881598193198, 0.05443143844604492, -0.5570234656333923, -0.9305474162101746, 0.0993867889046669, -1.2838817428825484, -0.29586518078460244, -3.8639734886286297, 9362.0, 30146.0, 35388.0, 9362.0, 8.152067184448242, -0.018350817263126373, -0.17002280056476593, -1.7933822870254517, -0.08699021488428116, -0.008995676413178444, 1.0253137350082397, -0.05035638064146042, -0.1291980743408203, 1.4853515625, 1.404052734375, 0.04400634765625, 1.4912109375
35667, 0.003190278308466077, -0.03116132877767086, -0.07528465986251831, 7.933809683891013e-06, -1.5857503967708908e-05, 0.006209938786923885, 0.000414258218370378, -0.0001494446478318423, 0.05699518322944641, -0.557019829750061, -0.9303990006446838, 0.09945496916770935, -1.28993052279028, -0.29704828786461235, -3.9299968728908694, 9362.0, 30146.0, 35388.0, 9362.0, 8.152067184448242, 0.25501951575279236, -0.3057410717010498, -2.023691415786743, -0.08718898147344589, -0.010378183797001839, 1.0283046960830688, -0.07066615670919418, -0.021678924560546875, 1.494140625, 1.70068359375, 0.6697845458984375, 1.5029296875
35677, 0.0044196248054504395, -0.028429079800844193, -0.09540305286645889, 1.2350481483736075e-05, -1.7380374629283324e-05, 0.006793422624468803, 0.000468945421744138, -0.00015520724991802126, 0.05970199406147003, -0.5570974349975586, -0.9304114580154419, 0.09938778728246689, -1.3321168600619409, -0.2739047857537287, -3.8802261482108724, 9362.0, 30146.0, 35388.0, 9362.0, 8.152067184448242, 0.10430454462766647, -0.5654470920562744, -2.1100869178771973, -0.08609697222709656, -0.012155354022979736, 1.0286827087402344, -0.07066615670919418, -0.021678924560546875, 1.494140625, 1.74755859375, 0.80242919921875, 1.5029296875
35687, 0.004504804033786058, -0.02370840683579445, -0.1164381355047226, 1.729026553221047e-05, -1.8971790268551558e-05, 0.007404584437608719, 0.0005187754286453128, -0.0001630989572731778, 0.0625307559967041, -0.5570892095565796, -0.9303781986236572, 0.09944968670606613, -1.3391820801195817, -0.28045565258008764, -3.873847295931192, 9362.0, 30146.0, 35388.0, 9362.0, 8.152067184448242, 0.33844518661499023, -0.49636828899383545, -1.538178563117981, -0.08629675209522247, -0.010736608877778053, 1.0279650688171387, -0.07066615670919418, -0.021678924560546875, 1.494140625, 1.73876953125, 0.776458740234375, 1.49560546875
35697, 0.006098948419094086, -0.019065583124756813, -0.13399836421012878, 2.2686606826027855e-05, -2.064285217784345e-05, 0.008043675683438778, 0.0005602671299129725, -0.00017120319535024464, 0.06528785824775696, -0.5571257472038269, -0.9303022027015686, 0.09950844943523407, -1.3048147469230666, -0.31250652685685054, -3.893050482812684, 9362.0, 30146.0, 35388.0, 9362.0, 8.152067184448242, 0.0037923138588666916, -0.6943431496620178, -1.504123330116272, -0.08526282012462616, -0.008633717894554138, 1.0261083841323853, -0.07066615670919418, -0.021678924560546875, 1.494140625, 1.27001953125, 0.10626220703125, 1.49560546875
35707, 0.006649555638432503, -0.013387640006840229, -0.14946295320987701, 2.8456708605517633e-05, -2.240887624793686e-05, 0.008709589019417763, 0.0005934919463470578, -0.00018203575746156275, 0.06789524108171463, -0.5571450591087341, -0.9303194880485535, 0.09950718283653259, -1.2880255374770946, -0.30569519145686286, -3.8930581198824803, 9362.0, 30146.0, 35388.0, 9362.0, 8.152067184448242, -0.017506400123238564, -0.568169355392456, -1.460135817527771, -0.08340604603290558, -0.011320313438773155, 1.0257831811904907, -0.07066615670919418, -0.021678924560546875, 1.494140625, 1.494140625, 0.183990478515625, 1.49267578125
35717, 0.0070647248066961765, -0.008197540417313576, -0.16360145807266235, 3.45090520568192e-05, -2.428793959552422e-05, 0.009401236660778522, 0.0006167438114061952, -0.0001938011555466801, 0.07043460756540298, -0.5570939183235168, -0.9303217530250549, 0.0995328277349472, -1.2927482933372474, -0.3284522860784307, -3.913599066255003, 9362.0, 30146.0, 35388.0, 9362.0, 8.152067184448242, 0.28545504808425903, -0.49058908224105835, -1.2221735715866089, -0.08269570767879486, -0.01084062922745943, 1.0257799625396729, -0.07066615670919418, -0.021678924560546875, 1.494140625, 1.442138671875, 0.0926361083984375, 1.49267578125
35727, 0.008113356307148933, -0.0022241694387048483, -0.17631570994853973, 4.0748313040239736e-05, -2.628820584504865e-05, 0.010118317790329456, 0.0006308401352725923, -0.00020630203653126955, 0.07298193871974945, -0.5570924282073975, -0.9303480982780457, 0.09951340407133102, -1.3194895340543726, -0.3269337848363705, -3.8562459619025593, 9362.0, 30146.0, 35388.0, 9362.0, 8.152067184448242, 0.03339054062962532, -0.25328749418258667, -0.8347746729850769, -0.08288318663835526, -0.008884257636964321, 1.0270835161209106, -0.07066615670919418, -0.021678924560546875, 1.494140625, 1.80029296875, 0.974456787109375, 1.49267578125
35737, 0.009021209552884102, 0.0015031816437840462, -0.18654893338680267, 4.707604966824874e-05, -2.8422615287126973e-05, 0.010861357674002647, 0.0006345325382426381, -0.00022062229982111603, 0.0756264328956604, -0.5570855140686035, -0.9304290413856506, 0.09956297278404236, -1.2987470165736028, -0.3536822997456568, -3.852504711094099, 9362.0, 30146.0, 35388.0, 9362.0, 8.152067184448242, 0.3059515655040741, -0.2659864127635956, -0.5267515778541565, -0.08289621770381927, -0.008509725332260132, 1.02717924118042, -0.07066615670919418, -0.021678924560546875, 1.494140625, 1.584228515625, 0.3801727294921875, 1.49267578125
35747, 0.011492839083075523, 0.005429396405816078, -0.19418059289455414, 5.340789721230976e-05, -3.070812817895785e-05, 0.011630979366600513, 0.0006316518411040306, -0.00023659459839109331, 0.07829834520816803, -0.5571622848510742, -0.9304342865943909, 0.09947964549064636, -1.3074573611164204, -0.34741468571246514, -3.842943244483096, 9362.0, 30146.0, 35388.0, 9362.0, 8.152067184448242, 0.07575930655002594, -0.0979069322347641, -0.25427621603012085, -0.08116098493337631, -0.008538410067558289, 1.0269217491149902, -0.07066615670919418, -0.021678924560546875, 1.494140625, 1.7841796875, 0.918548583984375, 1.494873046875
35757, 0.012796368449926376, 0.007439624518156052, -0.19814254343509674, 5.967633114778437e-05, -3.3174972486449406e-05, 0.012427287176251411, 0.0006219397764652967, -0.00025683402782306075, 0.08096367865800858, -0.557134211063385, -0.9304467439651489, 0.0994875505566597, -1.3161157592576669, -0.3288054137036056, -3.843035910672733, 9362.0, 30146.0, 35388.0, 9362.0, 8.152067184448242, -0.03340432792901993, -0.4288436472415924, -0.5673098564147949, -0.08121619373559952, -0.0081159183755517, 1.0251922607421875, -0.07066615670919418, -0.021678924560546875, 1.494140625, 1.44140625, 0.0914459228515625, 1.494873046875
35767, 0.013631352223455906, 0.010469295084476471, -0.20292282104492188, 6.583001959370449e-05, -3.5855442547472194e-05, 0.013249494135379791, 0.0006086630164645612, -0.00027929499628953636, 0.08347813040018082, -0.5571588277816772, -0.9305241107940674, 0.09948589652776718, -1.3296459627646573, -0.32811804806598843, -3.795425944861096, 9362.0, 30146.0, 35388.0, 9362.0, 8.152067184448242, 0.1868305206298828, -0.1601908951997757, -0.09767583757638931, -0.08167529106140137, -0.007143303286284208, 1.026136040687561, -0.05566458776593208, -0.28151702880859375, 1.472900390625, 1.3388671875, 0.017120361328125, 1.491943359375
35777, 0.015369282104074955, 0.012228666804730892, -0.20488755404949188, 7.182426634244621e-05, -3.8767801015637815e-05, 0.014097051694989204, 0.0005901067052036524, -0.00030325338593684137, 0.08603379130363464, -0.5571613907814026, -0.9305057525634766, 0.09946881234645844, -1.3349615599827238, -0.32599092409208197, -3.8078417986133744, 9362.0, 30146.0, 35388.0, 9362.0, 8.152067184448242, 0.016294749453663826, -0.40726712346076965, -0.20114701986312866, -0.08202118426561356, -0.008084360510110855, 1.025754690170288, -0.05566458776593208, -0.28151702880859375, 1.472900390625, 1.64208984375, 0.519073486328125, 1.491943359375
35787, 0.016297398135066032, 0.014669147320091724, -0.20612585544586182, 7.761744200251997e-05, -4.193494896753691e-05, 0.01497015729546547, 0.0005684183561243117, -0.0003302166878711432, 0.08858766406774521, -0.5572050213813782, -0.9305574893951416, 0.09941978752613068, -1.3382878064514108, -0.32929197432920887, -3.8326774837021436, 9362.0, 30146.0, 35388.0, 9362.0, 8.152067184448242, -0.16494381427764893, -0.3125283122062683, 0.02431473508477211, -0.08217497915029526, -0.011178376153111458, 1.0273234844207764, -0.05566458776593208, -0.28151702880859375, 1.472900390625, 1.65966796875, 0.5630340576171875, 1.49267578125
35797, 0.016388460993766785, 0.015485581941902637, -0.20591025054454803, 8.317213359987363e-05, -4.537994391284883e-05, 0.015869300812482834, 0.0005424823029898107, -0.0003587865212466568, 0.09124152362346649, -0.5571824908256531, -0.9305838942527771, 0.09946999698877335, -1.3017232185932621, -0.33845884803724857, -3.8418223632192148, 9362.0, 30146.0, 35388.0, 9362.0, 8.152067184448242, -0.13892805576324463, 0.15266670286655426, 0.481972336769104, -0.08213258534669876, -0.007817602716386318, 1.0276448726654053, -0.05566458776593208, -0.28151702880859375, 1.472900390625, 1.7431640625, 0.7893218994140625, 1.49267578125
35807, 0.01642482727766037, 0.012912489473819733, -0.201734259724617, 8.846018317854032e-05, -4.911151700071059e-05, 0.01679535023868084, 0.0005152522935532033, -0.0003875324036926031, 0.09396859258413315, -0.5571857690811157, -0.9305835962295532, 0.09947247058153152, -1.3040815993785138, -0.33635643532684867, -3.831115083450233, 9362.0, 30146.0, 35388.0, 9362.0, 8.152067184448242, -0.0028217481449246407, 0.024326857179403305, 0.5786591172218323, -0.08223116397857666, -0.008103413507342339, 1.0264219045639038, -0.05566458776593208, -0.28151702880859375, 1.472900390625, 1.16015625, 0.6554412841796875, 1.4912109375
35817, 0.016977733001112938, 0.012088734656572342, -0.1960763931274414, 9.349869651487097e-05, -5.313081419444643e-05, 0.017748160287737846, 0.0004924912936985493, -0.0004163546545896679, 0.09659397602081299, -0.5571904182434082, -0.9305853843688965, 0.09948422014713287, -1.2953091564573447, -0.35546637049580454, -3.841411101381956, 9362.0, 30146.0, 35388.0, 9362.0, 8.152067184448242, -0.1719413548707962, 0.6440625190734863, 0.7389287352561951, -0.08293764293193817, -0.007852197624742985, 1.025032639503479, -0.05566458776593208, -0.28151702880859375, 1.472900390625, 1.727783203125, 0.7447052001953125, 1.4912109375
35827, 0.015363452024757862, 0.007595785427838564, -0.1883060485124588, 9.831695933826268e-05, -5.744305963162333e-05, 0.01872664876282215, 0.00047136296052485704, -0.00044602766865864396, 0.09910405427217484, -0.5572122931480408, -0.9306662678718567, 0.09943549335002899, -1.3178640995555224, -0.2964497199949676, -3.8020513019065043, 9362.0, 30146.0, 35388.0, 9362.0, 8.152067184448242, 0.048876017332077026, -0.14896443486213684, 0.7398788332939148, -0.0824248418211937, -0.008316817693412304, 1.0261839628219604, -0.05566458776593208, -0.28151702880859375, 1.472900390625, 1.792236328125, 0.945953369140625, 1.487548828125
35837, 0.01465646456927061, 0.007462449837476015, -0.18017524480819702, 0.00010296343680238351, -6.203804514370859e-05, 0.01973038539290428, 0.0004579423402901739, -0.0004729400097858161, 0.10164381563663483, -0.5572221279144287, -0.9306889176368713, 0.09951816499233246, -1.3426498515855103, -0.33084811513558066, -3.781089532488176, 9362.0, 30146.0, 35388.0, 9362.0, 8.152067184448242, -0.04132240265607834, 0.24080049991607666, 0.916130006313324, -0.0809883326292038, -0.00820841733366251, 1.0248879194259644, -0.05566458776593208, -0.28151702880859375, 1.472900390625, 1.59375, 0.4024658203125, 1.487548828125
35847, 0.012802458368241787, 0.004767431877553463, -0.17193152010440826, 0.00010747696069302037, -6.689586734864861e-05, 0.02075917460024357, 0.0004448829567991197, -0.0004985476261936128, 0.10411451756954193, -0.5572196245193481, -0.9306930899620056, 0.09953059256076813, -1.3256967901430532, -0.340615487531835, -3.7912291046686435, 9362.0, 30146.0, 35388.0, 9362.0, 8.152067184448242, -0.23512108623981476, 0.6775634288787842, 0.76094651222229, -0.08362098783254623, -0.009844393469393253, 1.0248135328292847, -0.05566458776593208, -0.28151702880859375, 1.472900390625, 1.5234375, 0.2439727783203125, 1.494873046875
35857, 0.010474689304828644, -0.0007209334871731699, -0.1651209145784378, 0.00011188363714609295, -7.199351239250973e-05, 0.021812383085489273, 0.00043668632861226797, -0.0005208858055993915, 0.1065276637673378, -0.5572446584701538, -0.9306892156600952, 0.09950841963291168, -1.340218966116282, -0.31611811928127054, -3.7742649210310395, 9362.0, 30146.0, 35388.0, 9362.0, 8.152067184448242, -0.3520173132419586, 0.4991198182106018, 0.6861698031425476, -0.08817988634109497, -0.011332676745951176, 1.0248494148254395, -0.05566458776593208, -0.28151702880859375, 1.472900390625, 1.59814453125, 0.4127655029296875, 1.494873046875
35867, 0.006498464848846197, -0.004084374755620956, -0.1595533937215805, 0.00011625656043179333, -7.729430944891647e-05, 0.02288997173309326, 0.0004380457103252411, -0.0005391038721427321, 0.10899030417203903, -0.5572327971458435, -0.9307049512863159, 0.09952428191900253, -1.320017513985097, -0.32873435421012687, -3.7929299070092375, 9362.0, 30146.0, 35388.0, 9362.0, 8.152067184448242, -0.35318252444267273, 0.3446170687675476, 0.4356897473335266, -0.08549994230270386, -0.007041174918413162, 1.0267800092697144, -0.04904858395457268, -0.18295860290527344, 1.48095703125, 1.781982421875, 0.9111175537109375, 1.48974609375
35877, 0.0029672894161194563, -0.007646419573575258, -0.15536947548389435, 0.00012067273928551003, -8.274253195850179e-05, 0.02399265766143799, 0.00044534963672049344, -0.0005503829452209175, 0.11154741048812866, -0.5572501420974731, -0.9306972622871399, 0.09954293817281723, -1.3182751464628246, -0.32323908142555524, -3.7843322395130135, 9362.0, 30146.0, 35388.0, 9362.0, 8.152067184448242, -0.23858237266540527, 0.42726659774780273, 0.11335785686969757, -0.08703289180994034, -0.009475457482039928, 1.0267393589019775, -0.04904858395457268, -0.18295860290527344, 1.48095703125, 1.80029296875, 0.974456787109375, 1.48974609375
35887, 0.00016184820560738444, -0.011580433696508408, -0.15383224189281464, 0.0001251934008905664, -8.827263081911951e-05, 0.025121409446001053, 0.0004589645832311362, -0.0005555077805183828, 0.11420348286628723, -0.5572492480278015, -0.9307120442390442, 0.09953828901052475, -1.3199885620658791, -0.32662218982787294, -3.7876784821549303, 9362.0, 30146.0, 35388.0, 9362.0, 8.152067184448242, -0.48019301891326904, 0.24187590181827545, 0.5005432963371277, -0.0872090682387352, -0.011317926459014416, 1.0268012285232544, -0.04904858395457268, -0.18295860290527344, 1.48095703125, 1.78564453125, 0.9235076904296875, 1.48974609375
35897, -0.005257281009107828, -0.012478457763791084, -0.15002098679542542, 0.0001298848510487005, -9.382940334035084e-05, 0.02627665176987648, 0.0004793676780536771, -0.0005555961979553103, 0.11684521287679672, -0.5572209358215332, -0.9307108521461487, 0.09951688349246979, -1.317517015354271, -0.334824356226477, -3.7892169823806405, 9362.0, 30146.0, 35388.0, 9362.0, 8.152067184448242, -0.4083010256290436, 0.38306382298469543, 0.8945950269699097, -0.08997949957847595, -0.009677506983280182, 1.0250041484832764, -0.04904858395457268, -0.18295860290527344, 1.48095703125, 1.537353515625, 0.27386474609375, 1.48974609375
35907, -0.008810744620859623, -0.014730826020240784, -0.14387615025043488, 0.00013478822074830532, -9.933949331752956e-05, 0.027457695454359055, 0.0005014042253606021, -0.0005462632980197668, 0.11936383694410324, -0.5572431683540344, -0.9307008385658264, 0.09952666610479355, -1.3188091885702509, -0.33461125097616673, -3.796019552295281, 9362.0, 30146.0, 35388.0, 9362.0, 8.152067184448242, -0.18572808802127838, -0.11378899216651917, 0.5940833687782288, -0.08887490630149841, -0.011699186637997627, 1.027672290802002, -0.04904858395457268, -0.18295860290527344, 1.48095703125, 1.79443359375, 0.9536285400390625, 1.4912109375
35917, -0.011194889433681965, -0.014073371887207031, -0.1385432630777359, 0.00013993194443173707, -0.00010472499707248062, 0.028664497658610344, 0.0005273105343803763, -0.0005307260435074568, 0.12199699133634567, -0.5572366118431091, -0.9307145476341248, 0.09953746944665909, -1.3202949817089893, -0.32803173021238763, -3.7937810362843494, 9362.0, 30146.0, 35388.0, 9362.0, 8.152067184448242, -0.25594082474708557, -0.41438573598861694, 0.45927464962005615, -0.08729539066553116, -0.010084591805934906, 1.0285773277282715, -0.04904858395457268, -0.18295860290527344, 1.48095703125, 1.77685546875, 0.8942413330078125, 1.4912109375
35927, -0.01388645451515913, -0.010514889843761921, -0.1323854923248291, 0.00014532922068610787, -0.00010993397881975397, 0.029898500069975853, 0.0005519678234122694, -0.0005109349731355906, 0.12480378150939941, -0.557219922542572, -0.9307066202163696, 0.09947879612445831, -1.327487394905647, -0.323621263560284, -3.7819751649261644, 9362.0, 30146.0, 35388.0, 9362.0, 8.152067184448242, -0.10883912444114685, -0.1714898943901062, 0.6830618381500244, -0.08516564965248108, -0.0097832465544343, 1.0274238586425781, -0.04904858395457268, -0.18295860290527344, 1.48095703125, 1.42236328125, 0.0649566650390625, 1.49267578125
35937, -0.015116775408387184, -0.008094191551208496, -0.12499482929706573, 0.00015094167611096054, -0.00011492139310576022, 0.03116004355251789, 0.0005704063805751503, -0.0004864862421527505, 0.1275053322315216, -0.5572127103805542, -0.9307153820991516, 0.09955403208732605, -1.3192002395345361, -0.35245823767277784, -3.7815675624279907, 9362.0, 30146.0, 35388.0, 9362.0, 8.152067184448242, -0.1640758067369461, -0.36520057916641235, 0.3754775822162628, -0.08789382129907608, -0.01223747618496418, 1.0255237817764282, -0.04904858395457268, -0.18295860290527344, 1.48095703125, 1.779052734375, 0.9015045166015625, 1.49267578125
35947, -0.016822991892695427, -0.00435157585889101, -0.12052121758460999, 0.0001567170984344557, -0.00011965368321398273, 0.032447654753923416, 0.0005845120758749545, -0.0004598957020789385, 0.13001738488674164, -0.5572080612182617, -0.9307228922843933, 0.09952912479639053, -1.3242632130702918, -0.3572250294075445, -3.752357471136618, 9362.0, 30146.0, 35388.0, 9362.0, 8.152067184448242, 0.05622325465083122, -0.3838687837123871, 0.7258078455924988, -0.08801206201314926, -0.012878772802650928, 1.0263855457305908, -0.04904858395457268, -0.18295860290527344, 1.48095703125, 1.6083984375, 0.437225341796875, 1.494873046875
35957, -0.016793612390756607, -0.0004939938080497086, -0.1136089414358139, 0.0001626007433515042, -0.00012410497583914548, 0.03376050293445587, 0.0005920433322899044, -0.0004303631721995771, 0.13255299627780914, -0.5572265386581421, -0.930708646774292, 0.09952207654714584, -1.3257786926179382, -0.35386003914919684, -3.7567633308689388, 9362.0, 30146.0, 35388.0, 9362.0, 8.152067184448242, 0.07998764514923096, -0.6765619516372681, 0.27503296732902527, -0.08855168521404266, -0.012332217767834663, 1.0285395383834839, -0.04904858395457268, -0.18295860290527344, 1.48095703125, 1.779052734375, 0.9015045166015625, 1.494873046875
35967, -0.016581116244196892, 0.00555233983322978, -0.11099480837583542, 0.00016852581757120788, -0.00012826082820538431, 0.035099729895591736, 0.000592681230045855, -0.0004008178657386452, 0.1352924406528473, -0.5571972131729126, -0.9307065010070801, 0.09955684095621109, -1.3277091026238215, -0.35982548179038076, -3.754776418939803, 9362.0, 30146.0, 35388.0, 9362.0, 8.152067184448242, 0.16857029497623444, -0.5572862029075623, -0.015643995255231857, -0.08641839027404785, -0.011869784444570541, 1.0287951231002808, -0.049326296895742416, -0.2187976837158203, 1.47802734375, 1.74462890625, 0.793792724609375, 1.4970703125
35977, -0.015832748264074326, 0.0106383441016078, -0.11141103506088257, 0.00017440400552004576, -0.00013212287740316242, 0.03646678850054741, 0.0005827068234793842, -0.00037162756780162454, 0.13811972737312317, -0.5572068691253662, -0.9307515025138855, 0.09959596395492554, -1.3234261244092336, -0.36395514514461524, -3.75650358304245, 9362.0, 30146.0, 35388.0, 9362.0, 8.152067184448242, 0.10060634464025497, -0.9032549262046814, -0.5256839990615845, -0.08309692144393921, -0.01142076961696148, 1.026516079902649, -0.049326296895742416, -0.2187976837158203, 1.47802734375, 1.761474609375, 0.844970703125, 1.4970703125
35987, -0.014772300608456135, 0.018339434638619423, -0.1153033897280693, 0.000180137823917903, -0.0001356997963739559, 0.03786115720868111, 0.0005637055146507919, -0.00034380238503217697, 0.14075429737567902, -0.5572370290756226, -0.9307149648666382, 0.09958675503730774, -1.3130711856004678, -0.36702253822468833, -3.764191318954858, 9362.0, 30146.0, 35388.0, 9362.0, 8.152067184448242, 0.0874115377664566, -1.1041691303253174, 0.1333037167787552, -0.08336115628480911, -0.01384519599378109, 1.0259522199630737, -0.049326296895742416, -0.2187976837158203, 1.47802734375, 1.5205078125, 0.237762451171875, 1.4912109375
35997, -0.013670620508491993, 0.028259094804525375, -0.11433976143598557, 0.00018561401520855725, -0.0001390077086398378, 0.03928157687187195, 0.0005310871638357639, -0.00031782977748662233, 0.14333021640777588, -0.557229220867157, -0.9307310581207275, 0.09961894899606705, -1.3124354667004527, -0.3555878708763771, -3.7549027153906653, 9362.0, 30146.0, 35388.0, 9362.0, 8.152067184448242, 0.4161677062511444, -0.7967986464500427, 0.16830672323703766, -0.08219943195581436, -0.011847470887005329, 1.0252646207809448, -0.049326296895742416, -0.2187976837158203, 1.47802734375, 1.76806640625, 0.8657684326171875, 1.4912109375
36007, -0.01112030353397131, 0.03682601824402809, -0.11361829936504364, 0.00019067701941821724, -0.0001420654880348593, 0.04072742536664009, 0.0004811380640603602, -0.00029383707442320883, 0.1458396166563034, -0.5572022199630737, -0.9306602478027344, 0.09955450147390366, -1.3067055074131977, -0.32994967255461916, -3.772465326709492, 9362.0, 30146.0, 35388.0, 9362.0, 8.152067184448242, 0.3562139868736267, -0.48561891913414, -0.06359398365020752, -0.08294600993394852, -0.01040270458906889, 1.0258028507232666, -0.049326296895742416, -0.2187976837158203, 1.47802734375, 1.74609375, 0.7981414794921875, 1.4970703125
36017, -0.008072083815932274, 0.04266770929098129, -0.11474616825580597, 0.00019516532483976334, -0.0001449055998818949, 0.04219827800989151, 0.00041626946767792106, -0.0002743162040133029, 0.14833171665668488, -0.5572206974029541, -0.9306299686431885, 0.09955673664808273, -1.2995484823764794, -0.34165490656781117, -3.769330520002984, 9362.0, 30146.0, 35388.0, 9362.0, 8.152067184448242, 0.44917041063308716, -0.9077388048171997, 0.6374298334121704, -0.08084408938884735, -0.011117996647953987, 1.0278282165527344, -0.049326296895742416, -0.2187976837158203, 1.47802734375, 1.80615234375, 0.995513916015625, 1.4970703125
36027, -0.005003973376005888, 0.050572190433740616, -0.11067871749401093, 0.00019895279547199607, -0.0001475769968237728, 0.04369514808058739, 0.00034085012157447636, -0.0002601121086627245, 0.15104249119758606, -0.5572178363800049, -0.9306408166885376, 0.09956540912389755, -1.3055209592862143, -0.31176966678435747, -3.755023490267125, 9362.0, 30146.0, 35388.0, 9362.0, 8.152067184448242, 0.3552555739879608, -0.32228031754493713, 0.5923267602920532, -0.08063504844903946, -0.009489668533205986, 1.0272769927978516, -0.049326296895742416, -0.2187976837158203, 1.47802734375, 1.37548828125, 0.021820068359375, 1.4912109375
36037, -0.0034226670395582914, 0.055064909160137177, -0.10508963465690613, 0.00020191668590996414, -0.00015013325901236385, 0.04521889612078667, 0.00025171716697514057, -0.000251221121288836, 0.15370744466781616, -0.5572203397750854, -0.930558979511261, 0.09949896484613419, -1.3249274435829317, -0.2888402524150706, -3.7971164794854375, 9362.0, 30146.0, 35388.0, 9362.0, 8.152067184448242, 0.22269679605960846, -0.4602704644203186, 0.47578370571136475, -0.08239907026290894, -0.011017072945833206, 1.0285611152648926, -0.049326296895742416, -0.2187976837158203, 1.47802734375, 1.72998046875, 0.7509765625, 1.4912109375
36047, -0.0009746558498591185, 0.05990966036915779, -0.09957986325025558, 0.00020394909370224923, -0.00015261444787029177, 0.04676992446184158, 0.00015452895604539663, -0.00024514374672435224, 0.15649853646755219, -0.5572018623352051, -0.9305614829063416, 0.09948796778917313, -1.3128943911285207, -0.29738437866927825, -3.8160510974360826, 9362.0, 30146.0, 35388.0, 9362.0, 8.152067184448242, 0.14055556058883667, -0.5779507756233215, 0.13073627650737762, -0.08180856704711914, -0.009163866750895977, 1.0278743505477905, -0.049326296895742416, -0.2187976837158203, 1.47802734375, 1.45166015625, 0.107452392578125, 1.494140625
36057, 0.0005384105606935918, 0.06561895459890366, -0.09832112491130829, 0.00020394909370224923, -0.00015261444787029177, 0.04676992446184158, 0.00015452895604539663, -0.00024514374672435224, 0.15649853646755219, -0.557192325592041, -0.9305500984191895, 0.09954099357128143, -1.322576980736886, -0.28983777467746563, -3.8136778405310334, 9362.0, 30146.0, 35388.0, 9362.0, 8.152067184448242, 0.06429821997880936, -0.00480414554476738, -0.19600458443164825, -0.08146835118532181, -0.006506068632006645, 1.027991533279419, -0.049326296895742416, -0.2187976837158203, 1.47802734375, 1.787109375, 0.92840576171875, 1.494140625
36077, 0.0018028966151177883, 0.07037413120269775, -0.10535229742527008, 0.00020487802976276726, -0.00015749332669656724, 0.0499546080827713, -6.679250509478152e-05, -0.0002441088145133108, 0.16196417808532715, -0.5571989417076111, -0.9305227994918823, 0.09944738447666168, -1.3170198817556813, -0.3178161201457783, -3.8017960666044255, 9362.0, 30146.0, 35388.0, 9362.0, 8.152067184448242, 0.06952933967113495, 0.5238940119743347, -0.3142474591732025, -0.08011066913604736, -0.010285275056958199, 1.0251564979553223, -0.049326296895742416, -0.2187976837158203, 1.47802734375, 1.658203125, 0.5592803955078125, 1.494140625
36097, 0.0028397112619131804, 0.06572216749191284, -0.11626847833395004, 0.00019741457072086632, -0.0001649432524573058, 0.054931070655584335, -0.00042909965850412846, -0.0002539421839173883, 0.16961267590522766, -0.5572026371955872, -0.9305332899093628, 0.09950962662696838, -1.30958846068531, -0.3024066522877149, -3.8008395789264497, 9362.0, 30146.0, 35388.0, 9362.0, 8.152067184448242, -0.08714165538549423, 0.06863442063331604, -0.8427145481109619, -0.08215957880020142, -0.010691381059587002, 1.027045488357544, -0.049326296895742416, -0.2187976837158203, 1.47802734375, 1.76220703125, 0.8473968505859375, 1.494140625
36117, 0.0024169471580535173, 0.06330793350934982, -0.13001948595046997, 0.0001865301455836743, -0.00017011874297168106, 0.05837517976760864, -0.0006585060036741197, -0.00026372569845989347, 0.17477478086948395, -0.5572047233581543, -0.9305182695388794, 0.09944253414869308, -1.308375014934279, -0.30410267989717, -3.809872799233835, 9362.0, 30146.0, 35388.0, 9362.0, 8.152067184448242, -0.11856944113969803, 0.2586703598499298, -0.1875007152557373, -0.08333379775285721, -0.010827098973095417, 1.0237786769866943, -0.049326296895742416, -0.2187976837158203, 1.47802734375, 1.53955078125, 0.278778076171875, 1.494140625
36127, 0.0011171553051099181, 0.06085219234228134, -0.13378842175006866, 0.0001865301455836743, -0.00017011874297168106, 0.05837517976760864, -0.0006585060036741197, -0.00026372569845989347, 0.17477478086948395, -0.557197093963623, -0.9305244088172913, 0.09949158132076263, -1.3158950633304949, -0.30708034936398576, -3.806350333553077, 9362.0, 30146.0, 35388.0, 9362.0, 8.152067184448242, 0.017049279063940048, 0.7393267750740051, -0.7498683333396912, -0.08333379775285721, -0.010827098973095417, 1.0237786769866943, -0.049326296895742416, -0.2187976837158203, 1.47802734375, 1.41357421875, 0.0542449951171875, 1.494140625
36137, 0.0008524334407411516, 0.05446505546569824, -0.1405891329050064, 0.0001865301455836743, -0.00017011874297168106, 0.05837517976760864, -0.0006585060036741197, -0.00026372569845989347, 0.17477478086948395, -0.557187557220459, -0.9305189251899719, 0.09953001141548157, -1.313831992342772, -0.30732697672863196, -3.8096996820748132, 9362.0, 30146.0, 35388.0, 9362.0, 8.152067184448242, -0.1448376625776291, 0.19109703600406647, -0.6971014142036438, -0.0830436572432518, -0.0085859764367342, 1.0251110792160034, -0.049326296895742416, -0.2187976837158203, 1.47802734375, 1.41357421875, 0.0542449951171875, 1.494140625
36157, -0.001027148449793458, 0.047341909259557724, -0.15414685010910034, 0.00016192511247936636, -0.00017816066974774003, 0.06372589617967606, -0.0009713683393783867, -0.0002705428341869265, 0.1820150911808014, -0.5572109222412109, -0.9305086135864258, 0.0994584932923317, -1.3076652510070386, -0.30506778924006994, -3.8091915928422226, 9362.0, 30146.0, 35388.0, 9362.0, 8.152067184448242, -0.0030034540686756372, -0.08349518477916718, -0.8039548397064209, -0.08321858197450638, -0.012407012283802032, 1.0259132385253906, -0.049326296895742416, -0.2187976837158203, 1.47802734375, 1.783447265625, 0.91607666015625, 1.48828125
36177, -0.0021119301673024893, 0.04379557445645332, -0.1659950464963913, 0.00012887484626844525, -0.0001862148055806756, 0.06930061429738998, -0.0012270165607333183, -0.00026466112467460334, 0.18967720866203308, -0.557209849357605, -0.9305171966552734, 0.09944170713424683, -1.3113995907747262, -0.3053890064113318, -3.812243974898804, 9362.0, 30146.0, 35388.0, 9362.0, 8.152067184448242, -0.2145300656557083, -0.2745349705219269, -0.378754198551178, -0.08525227010250092, -0.012164438143372536, 1.027063250541687, -0.046190593391656876, -0.10231781005859375, 1.487548828125, 1.783447265625, 0.91607666015625, 1.48828125
36187, -0.004055521916598082, 0.04410654678940773, -0.16938915848731995, 0.00011621952580753714, -0.00018884173186961561, 0.0712108388543129, -0.0013040617341175675, -0.0002606270427349955, 0.19236816465854645, -0.5572037696838379, -0.9305557608604431, 0.09951359033584595, -1.2980765593281764, -0.30648210488547534, -3.8033806103146848, 9362.0, 30146.0, 35388.0, 9362.0, 8.152067184448242, 0.05739692598581314, -0.04270617663860321, 0.2989385724067688, -0.08525227010250092, -0.012164438143372536, 1.027063250541687, -0.046190593391656876, -0.10231781005859375, 1.487548828125, 1.783447265625, 0.91607666015625, 1.496337890625
36237, -0.003613803070038557, 0.05642188340425491, -0.14781421422958374, 7.357507274718955e-05, -0.0001963423128472641, 0.07710086554288864, -0.0015418498078361154, -0.0002392036549281329, 0.20056642591953278, -0.5572360754013062, -0.9305285215377808, 0.09946423768997192, -1.307119952041442, -0.28889306814451743, -3.801298590929322, 9362.0, 30146.0, 35388.0, 9362.0, 8.152067184448242, -0.07297365367412567, -0.3034379780292511, 0.7591912150382996, -0.08671658486127853, -0.00942271575331688, 1.0283243656158447, -0.046190593391656876, -0.10231781005859375, 1.487548828125, 1.357177734375, 0.0157928466796875, 1.4912109375
36247, -0.0037317390087991953, 0.06080681085586548, -0.1404426395893097, 7.357507274718955e-05, -0.0001963423128472641, 0.07710086554288864, -0.0015418498078361154, -0.0002392036549281329, 0.20056642591953278, -0.5572257041931152, -0.930531919002533, 0.09948398172855377, -1.3063166722946893, -0.2844344354736279, -3.809707641257149, 9362.0, 30146.0, 35388.0, 9362.0, 8.152067184448242, -0.009012674912810326, 0.18368498980998993, 1.1445212364196777, -0.08671658486127853, -0.00942271575331688, 1.0283243656158447, -0.046190593391656876, -0.10231781005859375, 1.487548828125, 1.80615234375, 0.995513916015625, 1.4912109375
36277, -0.00024649625993333757, 0.07346133887767792, -0.11149939149618149, -1.496492768637836e-05, -0.00020727039373014122, 0.08746328204870224, -0.002027805894613266, -0.00020061024406459183, 0.2141316682100296, -0.5572733283042908, -0.9305291175842285, 0.09945052862167358, -1.302453613417623, -0.27809166143299535, -3.8032023218609226, 9362.0, 30146.0, 35388.0, 9362.0, 8.152067184448242, -0.1563965231180191, -0.7464379668235779, 0.8187023997306824, -0.08375009149312973, -0.012828515842556953, 1.0264925956726074, -0.046190593391656876, -0.10231781005859375, 1.487548828125, 1.52490234375, 0.247039794921875, 1.493408203125
36287, -0.0011162920854985714, 0.07911363244056702, -0.10214591771364212, -1.496492768637836e-05, -0.00020727039373014122, 0.08746328204870224, -0.002027805894613266, -0.00020061024406459183, 0.2141316682100296, -0.5572574138641357, -0.9305378198623657, 0.09949879348278046, -1.294500660995646, -0.2808365756317812, -3.815026054788392, 9362.0, 30146.0, 35388.0, 9362.0, 8.152067184448242, 0.32819831371307373, -0.2874762713909149, 0.9117963314056396, -0.08087331056594849, -0.008764045313000679, 1.0259255170822144, -0.046190593391656876, -0.10231781005859375, 1.487548828125, 1.666259765625, 0.5798492431640625, 1.493408203125
36297, 0.0005621546879410744, 0.08200164139270782, -0.09264835715293884, -1.496492768637836e-05, -0.00020727039373014122, 0.08746328204870224, -0.002027805894613266, -0.00020061024406459183, 0.2141316682100296, -0.5572345852851868, -0.9305306077003479, 0.09948091953992844, -1.3054608666189513, -0.27455154619767086, -3.8167755186849317, 9362.0, 30146.0, 35388.0, 9362.0, 8.152067184448242, -0.06383119523525238, -0.8639038801193237, 0.8869454860687256, -0.08192113786935806, -0.006426169537007809, 1.0265883207321167, -0.046190593391656876, -0.10231781005859375, 1.487548828125, 1.762939453125, 0.8495025634765625, 1.493408203125
36307, 0.0005064798169769347, 0.08876394480466843, -0.08406651020050049, -1.496492768637836e-05, -0.00020727039373014122, 0.08746328204870224, -0.002027805894613266, -0.00020061024406459183, 0.2141316682100296, -0.5572627186775208, -0.9305343627929688, 0.09945522248744965, -1.3039209174104245, -0.2821599588376671, -3.809305653955742, 9362.0, 30146.0, 35388.0, 9362.0, 8.152067184448242, 0.16225944459438324, -0.4398042857646942, 0.5697780847549438, -0.08192113786935806, -0.006426169537007809, 1.0265883207321167, -0.046190593391656876, -0.10231781005859375, 1.487548828125, 1.45751953125, 0.117095947265625, 1.494140625
36337, 0.0028654183261096478, 0.10263773053884506, -0.06558891385793686, -0.00016070829587988555, -0.00021909600764047354, 0.10077475756406784, -0.0028835278935730457, -0.00019920553313568234, 0.2297220230102539, -0.5572472214698792, -0.9305423498153687, 0.09948740899562836, -1.3021082809854334, -0.280462586057979, -3.804034552468446, 9362.0, 30146.0, 35388.0, 9362.0, 8.152067184448242, -0.16579248011112213, 0.002152777276933193, 0.42954808473587036, -0.08255013078451157, -0.008194628171622753, 1.0263025760650635, -0.046190593391656876, -0.10231781005859375, 1.487548828125, 1.745361328125, 0.7959136962890625, 1.493408203125
36377, -0.0018185555236414075, 0.10686195641756058, -0.062168773263692856, -0.0002902450505644083, -0.00022736038954462856, 0.11017138510942459, -0.003601876087486744, -0.00021090680093038827, 0.24008521437644958, -0.5572350025177002, -0.9305626749992371, 0.0994851365685463, -1.30470896131938, -0.2866384863599194, -3.8169663890767573, 9362.0, 30146.0, 35388.0, 9362.0, 8.152067184448242, -0.1368226706981659, -0.39961495995521545, -0.04741659760475159, -0.08368212729692459, -0.011237251572310925, 1.0294559001922607, -0.046190593391656876, -0.10231781005859375, 1.487548828125, 1.63037109375, 0.490264892578125, 1.490478515625
36397, -0.002817707136273384, 0.10633482038974762, -0.06919924914836884, -0.00040675647323951125, -0.00023359741317108274, 0.11749938875436783, -0.004167227540165186, -0.00020295857393648475, 0.2485308200120926, -0.5572424530982971, -0.9305201172828674, 0.09944068640470505, -1.3125183745773534, -0.2971125572331914, -3.818145630859113, 9362.0, 30146.0, 35388.0, 9362.0, 8.152067184448242, -0.34205156564712524, -0.017227111384272575, -0.29977595806121826, -0.08266407996416092, -0.010071305558085442, 1.0272459983825684, -0.046190593391656876, -0.10231781005859375, 1.487548828125, 1.58935546875, 0.3920440673828125, 1.49560546875
36407, -0.0058052074164152145, 0.10527754575014114, -0.07239260524511337, -0.00040675647323951125, -0.00023359741317108274, 0.11749938875436783, -0.004167227540165186, -0.00020295857393648475, 0.2485308200120926, -0.5572247505187988, -0.9305301308631897, 0.09944415837526321, -1.3174056966866532, -0.29458470243412194, -3.8092951109468256, 9362.0, 30146.0, 35388.0, 9362.0, 8.152067184448242, -0.07362327724695206, 0.17154937982559204, -0.38699114322662354, -0.08266407996416092, -0.010071305558085442, 1.0272459983825684, -0.046190593391656876, -0.10231781005859375, 1.487548828125, 1.48681640625, 0.1698150634765625, 1.49560546875
36417, -0.007168898358941078, 0.10458594560623169, -0.07665213942527771, -0.00040675647323951125, -0.00023359741317108274, 0.11749938875436783, -0.004167227540165186, -0.00020295857393648475, 0.2485308200120926, -0.5572106838226318, -0.9305280447006226, 0.09949757903814316, -1.3178780059353878, -0.3048954417494656, -3.8078011725608314, 9362.0, 30146.0, 35388.0, 9362.0, 8.152067184448242, -0.026910509914159775, 0.11066850274801254, -0.2859622538089752, -0.08321664482355118, -0.009834285825490952, 1.025370478630066, -0.046190593391656876, -0.10231781005859375, 1.487548828125, 1.75048828125, 0.8112640380859375, 1.49560546875
36457, -0.009332092478871346, 0.09783442318439484, -0.09640567004680634, -0.0006899217260070145, -0.0002438937808619812, 0.13287261128425598, -0.005258402321487665, -0.00012653494195546955, 0.2635776400566101, -0.5572388172149658, -0.9305399656295776, 0.09946218878030777, -1.3073367015164925, -0.29318722154570764, -3.808781555285531, 9362.0, 30146.0, 35388.0, 9362.0, 8.152067184448242, 0.053358495235443115, -0.006586314644664526, -0.5868593454360962, -0.0847184956073761, -0.010921663604676723, 1.0246716737747192, -0.046190593391656876, -0.10231781005859375, 1.487548828125, 1.458984375, 0.1195831298828125, 1.491943359375
36467, -0.008931129239499569, 0.09625830501317978, -0.10103140026330948, -0.0006899217260070145, -0.0002438937808619812, 0.13287261128425598, -0.005258402321487665, -0.00012653494195546955, 0.2635776400566101, -0.5572533011436462, -0.930545449256897, 0.09943392127752304, -1.3115461832234807, -0.2874534530893129, -3.8103380650556575, 9362.0, 30146.0, 35388.0, 9362.0, 8.152067184448242, 0.053358495235443115, -0.006586314644664526, -0.5868593454360962, -0.08660241961479187, -0.01008966937661171, 1.0280755758285522, -0.046190593391656876, -0.10231781005859375, 1.487548828125, 1.458984375, 0.1195831298828125, 1.49560546875
36477, -0.009799678809940815, 0.09647354483604431, -0.10499940812587738, -0.0006899217260070145, -0.0002438937808619812, 0.13287261128425598, -0.005258402321487665, -0.00012653494195546955, 0.2635776400566101, -0.5572476983070374, -0.9305433630943298, 0.0994488000869751, -1.307760898738054, -0.2900207968218069, -3.8158745898784465, 9362.0, 30146.0, 35388.0, 9362.0, 8.152067184448242, -0.004466569982469082, -0.10599859803915024, -0.48250696063041687, -0.0851135104894638, -0.01204660814255476, 1.0285162925720215, -0.046190593391656876, -0.10231781005859375, 1.487548828125, 1.767333984375, 0.8634033203125, 1.49560546875
36497, -0.009654254652559757, 0.09992211312055588, -0.10892247408628464, -0.0009139236644841731, -0.0002476113731972873, 0.14363473653793335, -0.0059419916942715645, -5.7450219173915684e-05, 0.2745441496372223, -0.5572383403778076, -0.9305368661880493, 0.09945240616798401, -1.310221368959654, -0.2826382148720086, -3.8123705791321685, 9362.0, 30146.0, 35388.0, 9362.0, 8.152067184448242, 0.16351179778575897, -0.40766778588294983, 0.10604522377252579, -0.08570726215839386, -0.01039047259837389, 1.0272616147994995, -0.046190593391656876, -0.10231781005859375, 1.487548828125, 1.63037109375, 0.490264892578125, 1.49267578125
36517, -0.006427946034818888, 0.1036330908536911, -0.10993135720491409, -0.0009139236644841731, -0.0002476113731972873, 0.14363473653793335, -0.0059419916942715645, -5.7450219173915684e-05, 0.2745441496372223, -0.5572603344917297, -0.9305437207221985, 0.09946763515472412, -1.3089276285087421, -0.2758721470233354, -3.8110972374564165, 9362.0, 30146.0, 35388.0, 9362.0, 8.152067184448242, 0.33703067898750305, -0.021861469373106956, -0.20162692666053772, -0.08227476477622986, -0.008667604066431522, 1.026534080505371, -0.046190593391656876, -0.10231781005859375, 1.487548828125, 1.765869140625, 0.8588104248046875, 1.49560546875
36537, -0.0044243428856134415, 0.10948614776134491, -0.10362602025270462, -0.0011659518349915743, -0.00024868964101187885, 0.1548336297273636, -0.006670617964118719, -1.6156988067450584e-06, 0.28558990359306335, -0.5572535395622253, -0.9305549263954163, 0.0994616225361824, -1.3043886081260443, -0.27843250398331065, -3.8089097589540013, 9362.0, 30146.0, 35388.0, 9362.0, 8.152067184448242, 0.1425333321094513, -0.4862845242023468, 0.5491924285888672, -0.08313283324241638, -0.010418364778161049, 1.026422142982483, -0.046190593391656876, -0.10231781005859375, 1.487548828125, 1.676513671875, 0.606201171875, 1.49560546875
36557, -0.001949936617165804, 0.1195349171757698, -0.09556002914905548, -0.0013032573042437434, -0.0002485758741386235, 0.16059884428977966, -0.0070641799829900265, 1.1387680387997534e-05, 0.29092663526535034, -0.5572729706764221, -0.9305502772331238, 0.09943674504756927, -1.2983265702055378, -0.28061011039019945, -3.817682854949763, 9362.0, 30146.0, 35388.0, 9362.0, 8.152067184448242, 0.3416742980480194, -0.5013511776924133, 0.4713299572467804, -0.08231571316719055, -0.009764880873262882, 1.027380108833313, -0.046190593391656876, -0.10231781005859375, 1.487548828125, 1.75048828125, 0.8112640380859375, 1.49560546875
36577, 0.0019006329821422696, 0.12782582640647888, -0.09294212609529495, -0.00144878588616848, -0.00024829618632793427, 0.16647109389305115, -0.0074925837107002735, 1.4282983102020808e-05, 0.2962665259838104, -0.5572588443756104, -0.9305485486984253, 0.09947159141302109, -1.3020779216870082, -0.2816544017872218, -3.801933002804835, 9362.0, 30146.0, 35388.0, 9362.0, 8.152067184448242, -0.0018814440118148923, -0.43906646966934204, 0.5078219175338745, -0.07910630106925964, -0.009023057296872139, 1.0274440050125122, -0.046190593391656876, -0.10231781005859375, 1.487548828125, 1.60693359375, 0.4335479736328125, 1.491943359375
36607, 0.002288220450282097, 0.13511984050273895, -0.0859396681189537, -0.001683835405856371, -0.0002480083203408867, 0.17548057436943054, -0.00818357802927494, 5.056306690676138e-06, 0.30443140864372253, -0.5572443604469299, -0.9305345416069031, 0.09944341331720352, -1.308891147455743, -0.28832495248627765, -3.810530134618085, 9362.0, 30146.0, 35388.0, 9362.0, 8.152067184448242, -0.0344291627407074, -0.029658112674951553, 0.2983716130256653, -0.08090605586767197, -0.008850696496665478, 1.0284956693649292, -0.046190593391656876, -0.10231781005859375, 1.487548828125, 1.3212890625, 0.026214599609375, 1.49560546875
36617, 0.001603154931217432, 0.13639967143535614, -0.08273988962173462, -0.001683835405856371, -0.0002480083203408867, 0.17548057436943054, -0.00818357802927494, 5.056306690676138e-06, 0.30443140864372253, -0.5572400093078613, -0.9305319786071777, 0.09944138675928116, -1.3042587604596052, -0.28311028472887756, -3.812299956752986, 9362.0, 30146.0, 35388.0, 9362.0, 8.152067184448242, -0.07448891550302505, -0.1056443303823471, 0.08246881514787674, -0.07879676669836044, -0.007978652603924274, 1.0277769565582275, -0.046190593391656876, -0.10231781005859375, 1.487548828125, 1.808349609375, 1.0036163330078125, 1.49560546875
36627, 0.001974794315174222, 0.13790573179721832, -0.08109220117330551, -0.001683835405856371, -0.0002480083203408867, 0.17548057436943054, -0.00818357802927494, 5.056306690676138e-06, 0.30443140864372253, -0.5572381019592285, -0.930536150932312, 0.09945133328437805, -1.3148729999249278, -0.2931039953677441, -3.8124698126937813, 9362.0, 30146.0, 35388.0, 9362.0, 8.152067184448242, -0.09899100661277771, 0.34550732374191284, 0.23733602464199066, -0.07974332571029663, -0.007282651960849762, 1.0263172388076782, -0.046190593391656876, -0.10231781005859375, 1.487548828125, 1.582763671875, 0.3765869140625, 1.49560546875
36637, 0.0008208124781958759, 0.13505913317203522, -0.07991255074739456, -0.001683835405856371, -0.0002480083203408867, 0.17548057436943054, -0.00818357802927494, 5.056306690676138e-06, 0.30443140864372253, -0.5572465062141418, -0.930538535118103, 0.09946325421333313, -1.3143799851784734, -0.2814687478854694, -3.808166250787515, 9362.0, 30146.0, 35388.0, 9362.0, 8.152067184448242, -0.13861656188964844, 0.08012353628873825, -0.20474742352962494, -0.07974332571029663, -0.007282651960849762, 1.0263172388076782, -0.046190593391656876, -0.10231781005859375, 1.487548828125, 1.447998046875, 0.1016693115234375, 1.49560546875
36657, -0.0011781045468524098, 0.1346152126789093, -0.08364521712064743, -0.002122921170666814, -0.0002480917319189757, 0.1910390853881836, -0.009377075359225273, -3.4539193620730657e-06, 0.31772011518478394, -0.5572378635406494, -0.9305288791656494, 0.09946104884147644, -1.314284152720077, -0.28717862137739303, -3.808333790149427, 9362.0, 30146.0, 35388.0, 9362.0, 8.152067184448242, 0.002610580762848258, 0.2489907294511795, -0.04508311673998833, -0.07974332571029663, -0.007282651960849762, 1.0263172388076782, -0.046190593391656876, -0.10231781005859375, 1.487548828125, 1.51171875, 0.21942138671875, 1.49560546875
36667, -0.0022206702269613743, 0.13200508058071136, -0.08451101928949356, -0.002122921170666814, -0.0002480917319189757, 0.1910390853881836, -0.009377075359225273, -3.4539193620730657e-06, 0.31772011518478394, -0.5572275519371033, -0.9305217862129211, 0.09945327043533325, -1.3142355879537289, -0.28641011911042824, -3.8146851139844755, 9362.0, 30146.0, 35388.0, 9362.0, 8.152067184448242, 0.002610580762848258, 0.2489907294511795, -0.04508311673998833, -0.0812821090221405, -0.009613794274628162, 1.0288444757461548, -0.03529215604066849, 0.10376167297363281, 1.50439453125, 1.51171875, 0.21942138671875, 1.49560546875
36677, -0.003518018638715148, 0.12568368017673492, -0.08599276095628738, -0.002122921170666814, -0.0002480917319189757, 0.1910390853881836, -0.009377075359225273, -3.4539193620730657e-06, 0.31772011518478394, -0.5572392344474792, -0.9305254817008972, 0.09943344444036484, -1.314107797222371, -0.29333395089687997, -3.810930385606747, 9362.0, 30146.0, 35388.0, 9362.0, 8.152067184448242, -0.022958900779485703, 0.44291436672210693, -0.3556239604949951, -0.0812821090221405, -0.009613794274628162, 1.0288444757461548, -0.03529215604066849, 0.10376167297363281, 1.50439453125, 1.803955078125, 0.987579345703125, 1.49560546875
36697, -0.005488342139869928, 0.11934288591146469, -0.09076617658138275, -0.002122921170666814, -0.0002480917319189757, 0.1910390853881836, -0.009377075359225273, -3.4539193620730657e-06, 0.31772011518478394, -0.5572257041931152, -0.9305412769317627, 0.09944906830787659, -1.317805764053891, -0.293859473906366, -3.8044061619965097, 9362.0, 30146.0, 35388.0, 9362.0, 8.152067184448242, -0.17451836168766022, 0.21700021624565125, -0.1459004133939743, -0.0812821090221405, -0.009613794274628162, 1.0288444757461548, -0.03529215604066849, 0.10376167297363281, 1.50439453125, 1.5029296875, 0.201446533203125, 1.49560546875
36727, -0.009186025708913803, 0.11484188586473465, -0.09593343734741211, -0.00283421971835196, -0.0002468392194714397, 0.21393340826034546, -0.010897031985223293, 5.624145342153497e-05, 0.3364323675632477, -0.557236909866333, -0.9305466413497925, 0.09947294741868973, -1.3042413318226733, -0.29456732988765566, -3.7996331702557122, 9362.0, 30146.0, 35388.0, 9362.0, 8.152067184448242, -0.2693101763725281, 0.09556949883699417, -0.08402995020151138, -0.08499564230442047, -0.01041650865226984, 1.029111385345459, -0.03529215604066849, 0.10376167297363281, 1.50439453125, 1.81640625, 1.0338287353515625, 1.49267578125
36737, -0.010479684919118881, 0.11412292718887329, -0.09692572057247162, -0.00283421971835196, -0.0002468392194714397, 0.21393340826034546, -0.010897031985223293, 5.624145342153497e-05, 0.3364323675632477, -0.5572202801704407, -0.9305309653282166, 0.09944681823253632, -1.3149091219681441, -0.2952355078532207, -3.804197406177284, 9362.0, 30146.0, 35388.0, 9362.0, 8.152067184448242, 0.02088032476603985, 0.32597166299819946, 0.2477622628211975, -0.08548985421657562, -0.012845807708799839, 1.0260862112045288, -0.03529215604066849, 0.10376167297363281, 1.50439453125, 1.81640625, 1.0338287353515625, 1.49267578125
