timeTick, roll, pitch, yaw, stateX, stateY, stateZ, stateVX, stateVY, stateVZ, otX0, otY0, otZ0, otRoll0, otPitch0, otYaw0, left wing, pitch motor, yaw motor, right wing, voltage, roll rate, pitch rate, yaw rate, A_x, A_y, A_z, current, i_raw, v_raw, airflow_voltage, airflow_speed, pot_Pitch
48995, -0.0010724307503551245, 0.001240830635651946, 0.0019714564550668, 0, 0, 0, 0, 0, 0, -0.8558444380760193, -1.1557157039642334, 0.10796070843935013, -0.8517155914839835, -1.1592276214725814, -8.521402525007796, 0, 0, 0, 0, 0, 0, 0, 0, 0, 0, 0, 0, 0, 0, 0, 0, 0
49005, -0.0015863045118749142, 0.004873523488640785, 0.003056198125705123, -1.2736918186817547e-08, 6.180814082767938e-09, 4.7312467359006405e-05, -2.482968739059288e-06, 1.2227462775626918e-06, 0.004607206676155329, -0.8558955788612366, -1.1556923389434814, 0.10792724788188934, -0.8459533674176462, -1.1397250373651389, -8.515284620823557, 9362.0, 30146.0, 35388.0, 9362.0, 0, 0.08231090754270554, -0.2911090850830078, 0.06071068346500397, -0.09129828959703445, -0.0014276675647124648, 1.0237568616867065, 0, 0, 0, 0, 0, 0
49015, -0.00103279622271657, 0.00729752890765667, 0.0023086294531822205, -4.841029621616144e-08, 2.777963992173227e-08, 0.00010357977589592338, -4.781040843226947e-06, 3.1152637802733807e-06, 0.0066466424614191055, -0.8558235764503479, -1.15559983253479, 0.10782934725284576, -0.9107267092753824, -1.217394678900348, -8.472177463464178, 9362.0, 30146.0, 35388.0, 9362.0, 0, 0.039947260171175, 0.30865249037742615, 0.07169923186302185, -0.0906970277428627, -0.0033903310541063547, 1.0257055759429932, 0, 0, 0, 1.50732421875, 0.2104644775390625, 0
49025, -0.0012142244959250093, 0.006360562052577734, 0.0035860941279679537, -1.3888417527141428e-07, 7.281645508783186e-08, 0.0001811112742871046, -1.3407334336079657e-05, 5.87082331549027e-06, 0.008860056288540363, -0.8560217618942261, -1.1552115678787231, 0.10789808630943298, -0.8825441084545238, -1.239225255945712, -8.721964972185324, 9362.0, 30146.0, 35388.0, 9362.0, 0, 0.037295952439308167, 0.003559147473424673, 0.09392248839139938, -0.09142397344112396, -0.0018806479638442397, 1.0250378847122192, 0, 0, 0, 1.3388671875, 0.017120361328125, 1.48974609375
49035, -0.0009679125505499542, 0.005604949779808521, 0.005227114539593458, -3.370035983607522e-07, 1.405862803949276e-07, 0.0002820590743795037, -2.617620884848293e-05, 7.690677193750162e-06, 0.011329912580549717, -0.8556431531906128, -1.1556739807128906, 0.10792624950408936, -0.8164243359264205, -1.3043460740508976, -8.633179917657328, 9362.0, 30146.0, 35388.0, 9362.0, 0, 0.2163512259721756, -0.5136231184005737, -0.2633526921272278, -0.09045693278312683, -0.002951201284304261, 1.0242011547088623, 0, 0, 0, 1.26416015625, 0.121337890625, 1.48974609375
49045, -0.00043731133337132633, 0.008786838501691818, 0.003502055536955595, -6.546091526615783e-07, 2.281498723277764e-07, 0.00040788803016766906, -3.731192191480659e-05, 9.810949450184125e-06, 0.013836275786161423, -0.8556628823280334, -1.1556873321533203, 0.10792147368192673, -0.7964988489978293, -1.2982634516898486, -8.629893557964621, 9362.0, 30146.0, 35388.0, 9362.0, 0, 0.0708848237991333, -0.18347090482711792, 0.2027186006307602, -0.094561867415905, -0.002984614809975028, 1.0219773054122925, 0, 0, 0, 1.094970703125, 1.3307952880859375, 1.497802734375
49055, 0.000683064863551408, 0.010219622403383255, 0.005108654033392668, -1.0768823131002137e-06, 3.347430492794956e-07, 0.0005582104786299169, -4.727548730443232e-05, 1.1485813956824131e-05, 0.01622861623764038, -0.856038510799408, -1.1556110382080078, 0.10771635919809341, -0.9043140668545679, -1.1779292848287355, -8.38748490001823, 9362.0, 30146.0, 35388.0, 9362.0, 0, -0.27670687437057495, -0.012761376798152924, 0.1710406392812729, -0.09329141676425934, -0.003534591756761074, 1.0247809886932373, 0, 0, 0, 1.53515625, 0.2692413330078125, 1.497802734375
49065, 0.00026228255592286587, 0.010566028766334057, 0.00548649113625288, -1.6265714748442406e-06, 4.5342540033743717e-07, 0.0007316547562368214, -6.271817983360961e-05, 1.2206588507979177e-05, 0.018460633233189583, -0.8560190796852112, -1.1551861763000488, 0.10797926038503647, -0.870598433707541, -1.2635820138379188, -8.724386052892706, 9362.0, 30146.0, 35388.0, 9362.0, 0, -0.023268887773156166, -0.16040484607219696, 0.16619089245796204, -0.09296704828739166, -0.002993594855070114, 1.0257066488265991, 0, 0, 0, 1.3330078125, 0.0191650390625, 1.494873046875
49075, 0.0014634253457188606, 0.013184957206249237, 0.005113057792186737, -2.3433105980075197e-06, 5.694973879144527e-07, 0.0009278617799282074, -8.064367284532636e-05, 1.1024729246855713e-05, 0.020781170576810837, -0.856050968170166, -1.1557354927062988, 0.10774511843919754, -0.8786867564481206, -1.1544634434893908, -8.414759943919, 9362.0, 30146.0, 35388.0, 9362.0, 0, 0.014515431597828865, 0.04210735112428665, 0.26260480284690857, -0.09015711396932602, -0.0024950227234512568, 1.023954153060913, 0, 0, 0, 1.547607421875, 0.296478271484375, 1.494873046875
49085, 0.0023216274566948414, 0.014332350343465805, 0.00612553721293807, -3.242541424697265e-06, 6.774323537683813e-07, 0.0011483627604320645, -9.931849490385503e-05, 1.0509168532735202e-05, 0.023319417610764503, -0.8559413552284241, -1.1556737422943115, 0.10781198740005493, -0.854146897075106, -1.1175579726789238, -8.510988093527729, 9362.0, 30146.0, 35388.0, 9362.0, 0, -0.02019296959042549, 0.10438661277294159, 0.11048921197652817, -0.09129650145769119, -0.0026290726382285357, 1.022167444229126, 0, 0, 0, 1.4384765625, 0.0871429443359375, 1.494873046875
49095, 0.001796863623894751, 0.014105532318353653, 0.006869895849376917, -4.35140827903524e-06, 7.696738180129614e-07, 0.0013937614858150482, -0.00012250371219124645, 7.902161087258719e-06, 0.025760715827345848, -0.8560084700584412, -1.1551648378372192, 0.10799261182546616, -0.8684258832581493, -1.2615158957824235, -8.723353467263411, 9362.0, 30146.0, 35388.0, 9362.0, 8.390083312988281, 0.15682989358901978, -0.2057221680879593, -0.24092429876327515, -0.09053925424814224, -0.0042452504858374596, 1.0234450101852417, 0, 0, 0, 1.271484375, 0.1027679443359375, 1.494873046875
49105, 0.0020733100827783346, 0.017372822389006615, 0.006152370944619179, -5.701873760699527e-06, 8.28364136395976e-07, 0.0016622957773506641, -0.0001475806930102408, 3.855598606605781e-06, 0.02794652432203293, -0.8560729622840881, -1.1551971435546875, 0.10785021632909775, -0.8342680640100403, -1.2127059013217547, -8.74298632861178, 9362.0, 30146.0, 35388.0, 9362.0, 8.390083312988281, 0.10949261486530304, -0.31745603680610657, 0.11191229522228241, -0.09291689842939377, -0.003928340505808592, 1.0249072313308716, -0.09066648781299591, -0.27255821228027344, 1.4736328125, 1.494873046875, 0.185455322265625, 1.491943359375
49115, 0.0025875938590615988, 0.01996663212776184, 0.007229360286146402, -7.301191999431467e-06, 8.511713645020791e-07, 0.0019529627170413733, -0.00017241072782780975, 6.953209776838776e-07, 0.030187265947461128, -0.8560774326324463, -1.15520179271698, 0.10784469544887543, -0.8477810490070059, -1.214018390388759, -8.735539879128588, 9362.0, 30146.0, 35388.0, 9362.0, 8.390083312988281, 0.228646382689476, 0.14139187335968018, -0.2752698063850403, -0.09194315969944, -0.0018479198915883899, 1.0250835418701172, -0.09066648781299591, -0.27255821228027344, 1.4736328125, 1.51611328125, 0.2286224365234375, 1.491943359375
49125, 0.003507231827825308, 0.019450604915618896, 0.00500455591827631, -9.177661013382021e-06, 8.399248372370494e-07, 0.0022668319288641214, -0.00020299162133596838, -2.9667342005268438e-06, 0.03258694335818291, -0.8560557961463928, -1.1552261114120483, 0.10787810385227203, -0.8526119939305519, -1.2117814248864534, -8.702452907261717, 9362.0, 30146.0, 35388.0, 9362.0, 8.390083312988281, 0.04811669513583183, 0.04525701701641083, -0.08458003401756287, -0.09219719469547272, -0.002621882129460573, 1.0242993831634521, -0.09066648781299591, -0.27255821228027344, 1.4736328125, 1.58935546875, 0.3920440673828125, 1.49267578125
49135, 0.003976942505687475, 0.01956399343907833, 0.0035235416144132614, -1.1382848242647015e-05, 7.875206051721761e-07, 0.002605163026601076, -0.00023802359646651894, -7.552740044047823e-06, 0.03507966548204422, -0.8559259176254272, -1.1556063890457153, 0.10767573118209839, -0.880064722512313, -1.1660493403210523, -8.471880450673872, 9362.0, 30146.0, 35388.0, 9362.0, 8.390083312988281, 0.03697061166167259, -0.013499760068953037, -0.06658609211444855, -0.09069148451089859, -0.001861106720753014, 1.0227081775665283, -0.09066648781299591, -0.27255821228027344, 1.4736328125, 1.32568359375, 0.0232086181640625, 1.49267578125
49145, 0.004380068741738796, 0.01933319866657257, 0.0012806938029825687, -1.3933600712334737e-05, 6.812311426074302e-07, 0.0029677599668502808, -0.00027213184512220323, -1.3723617485084105e-05, 0.03744009882211685, -0.8561223745346069, -1.1551096439361572, 0.10798424482345581, -0.8478795289834574, -1.2408598683907428, -8.763804297714627, 9362.0, 30146.0, 35388.0, 9362.0, 8.390083312988281, -0.08508282154798508, -0.11253578960895538, -0.07131423056125641, -0.09268637001514435, -0.002838823478668928, 1.0237149000167847, -0.09066648781299591, -0.27255821228027344, 1.4736328125, 1.578369140625, 0.3665008544921875, 1.5
49155, 0.003307816106826067, 0.020146211609244347, 0.0011302379425615072, -1.6826223145471886e-05, 5.091616230856744e-07, 0.003353352891281247, -0.000306383881252259, -2.0704688722616993e-05, 0.03967889025807381, -0.8560598492622375, -1.1551744937896729, 0.10787883400917053, -0.8618759685098794, -1.2398289212196403, -8.740571850993831, 9362.0, 30146.0, 35388.0, 9362.0, 8.390083312988281, 0.17348983883857727, 0.19514554738998413, 0.1809113770723343, -0.09371879696846008, -0.0021020350977778435, 1.0248692035675049, -0.09066648781299591, -0.27255821228027344, 1.4736328125, 1.458251953125, 0.1184234619140625, 1.5
49165, 0.004110582172870636, 0.01862475834786892, 0.0018790408503264189, -2.0059465896338224e-05, 2.637314366893406e-07, 0.0037616845220327377, -0.00034029720700345933, -2.8338065021671355e-05, 0.04198785126209259, -0.8559962511062622, -1.1551477909088135, 0.10801778733730316, -0.8813896630599855, -1.2897230743426746, -8.731299300514609, 9362.0, 30146.0, 35388.0, 9362.0, 8.390083312988281, 0.3484870493412018, 0.3720824420452118, -0.16207349300384521, -0.09282633662223816, -0.0010431141126900911, 1.0230350494384766, -0.09066648781299591, -0.27255821228027344, 1.4736328125, 1.34619140625, 0.015594482421875, 1.494873046875
49175, 0.005331825464963913, 0.015418888069689274, 0.0005195834673941135, -2.363907879043836e-05, -4.8655465434421785e-08, 0.004193429835140705, -0.00037556231836788356, -3.417303378228098e-05, 0.044361650943756104, -0.8559525609016418, -1.1556341648101807, 0.1078619435429573, -0.8474835465942788, -1.1108639312736557, -8.521027275697868, 9362.0, 30146.0, 35388.0, 9362.0, 8.390083312988281, 0.03801662474870682, 0.38014715909957886, 0.25915661454200745, -0.09336142987012863, -0.003397808177396655, 1.0244163274765015, -0.09066648781299591, -0.27255821228027344, 1.4736328125, 1.60546875, 0.43011474609375, 1.494873046875
49185, 0.003997455351054668, 0.01313278079032898, 0.0016766119515523314, -2.755793866526801e-05, -4.264183814939315e-07, 0.004648716188967228, -0.00040807915502227843, -4.142848410992883e-05, 0.046695999801158905, -0.8559800386428833, -1.1551365852355957, 0.1080302894115448, -0.9041150085599038, -1.29932576630722, -8.737130697358472, 9362.0, 30146.0, 35388.0, 9362.0, 8.390083312988281, 0.08229558914899826, -0.16362321376800537, 0.16945309937000275, -0.09412401914596558, -0.0021816310472786427, 1.0257925987243652, -0.09066648781299591, -0.27255821228027344, 1.4736328125, 1.557861328125, 0.3195037841796875, 1.4970703125
49195, 0.0039049366023391485, 0.012394436635077, 0.002326398389413953, -3.1773837690707296e-05, -8.8742422121868e-07, 0.005127226933836937, -0.0004350082017481327, -5.0719470891635865e-05, 0.04900657385587692, -0.8559737205505371, -1.1556397676467896, 0.10781954228878021, -0.8584438474351017, -1.1085534985664367, -8.526412079210946, 9362.0, 30146.0, 35388.0, 9362.0, 8.390083312988281, -0.29164987802505493, -0.167119562625885, 0.01801547035574913, -0.09586423635482788, -0.0012661328073590994, 1.0256043672561646, -0.09066648781299591, -0.27255821228027344, 1.4736328125, 1.508056640625, 0.211883544921875, 1.4970703125
49205, 0.0025508790276944637, 0.01319581177085638, 0.002832154044881463, -3.623917655204423e-05, -1.4297056623036042e-06, 0.005629644729197025, -0.00045802787644788623, -5.773309385403991e-05, 0.051477376371622086, -0.8559741377830505, -1.155625820159912, 0.107826367020607, -0.8582218571117143, -1.1122251288214784, -8.528778936694424, 9362.0, 30146.0, 35388.0, 9362.0, 8.390083312988281, -0.047882676124572754, -0.0702638030052185, 0.29088544845581055, -0.09484710544347763, -0.0016331484075635672, 1.0249264240264893, -0.07282476127147675, -0.07543754577636719, 1.48974609375, 1.505126953125, 0.205902099609375, 1.4912109375
49215, 0.002415599999949336, 0.014795985072851181, 0.0043614632450044155, -4.092834933544509e-05, -2.0413490346982144e-06, 0.006157307419925928, -0.0004798426234629005, -6.453486275859177e-05, 0.05405557155609131, -0.8559648990631104, -1.1551045179367065, 0.10803690552711487, -0.9082248430331539, -1.307128387780807, -8.732802220268903, 9362.0, 30146.0, 35388.0, 9362.0, 8.390083312988281, 0.2292032092809677, -0.2521638572216034, 0.30214816331863403, -0.09498698264360428, -0.0031777415424585342, 1.022996187210083, -0.07282476127147675, -0.07543754577636719, 1.48974609375, 1.089111328125, 1.407745361328125, 1.4912109375
49225, 0.0037800143472850323, 0.014468010514974594, 0.0064597842283546925, -4.5842560211895034e-05, -2.709085947572021e-06, 0.006710102781653404, -0.0005030679167248309, -6.900735024828464e-05, 0.056503914296627045, -0.8559936881065369, -1.155122995376587, 0.1079835295677185, -0.9205790089178366, -1.3095922235198714, -8.724217927095205, 9362.0, 30146.0, 35388.0, 9362.0, 8.390083312988281, 0.040848273783922195, -0.0946708470582962, 0.11702415347099304, -0.0920550525188446, -0.0023642266169190407, 1.023437738418579, -0.07282476127147675, -0.07543754577636719, 1.48974609375, 1.6083984375, 0.437225341796875, 1.49560546875
49235, 0.004467275459319353, 0.015322213061153889, 0.0063217938877642155, -5.100288399262354e-05, -3.4203353607153986e-06, 0.007286680396646261, -0.0005289834807626903, -7.329841901082546e-05, 0.058812033385038376, -0.8559903502464294, -1.1551097631454468, 0.10800795257091522, -0.9052814082696033, -1.3059579820944123, -8.749811631129152, 9362.0, 30146.0, 35388.0, 9362.0, 8.390083312988281, 0.2060355842113495, 0.23400788009166718, 0.454723596572876, -0.09573431313037872, -0.0013019563630223274, 1.023006796836853, -0.07282476127147675, -0.07543754577636719, 1.48974609375, 1.571044921875, 0.349578857421875, 1.49560546875
49245, 0.005128262098878622, 0.01517039630562067, 0.00942193903028965, -5.641940515488386e-05, -4.186433670838596e-06, 0.007886016741394997, -0.0005543543375097215, -7.994812040124089e-05, 0.061055589467287064, -0.856012761592865, -1.1551485061645508, 0.10803629457950592, -0.8946500008823928, -1.298459471265204, -8.709932091218732, 9362.0, 30146.0, 35388.0, 9362.0, 8.390083312988281, 0.052938126027584076, -0.3231613337993622, 0.21464866399765015, -0.08958081901073456, 0.00026080154930241406, 1.0234119892120361, -0.07282476127147675, -0.07543754577636719, 1.48974609375, 1.20703125, 0.34527587890625, 1.493408203125
49255, 0.0055206287652254105, 0.01643173024058342, 0.008945222944021225, -6.209712591953576e-05, -5.025050086260308e-06, 0.008507817052304745, -0.0005811827722936869, -8.780253119766712e-05, 0.0633048340678215, -0.8560102581977844, -1.1556800603866577, 0.1078195795416832, -0.8004298163017477, -1.0814524362131976, -8.547352474491987, 9362.0, 30146.0, 35388.0, 9362.0, 8.390083312988281, -0.06657734513282776, 0.1627269685268402, -0.057371050119400024, -0.09201116114854813, -0.001844031154178083, 1.0243808031082153, -0.07282476127147675, -0.07543754577636719, 1.48974609375, 1.368896484375, 0.01885986328125, 1.493408203125
49265, 0.004680889658629894, 0.01661422662436962, 0.010813776403665543, -6.804180884500965e-05, -5.948010311840335e-06, 0.009152157232165337, -0.0006078032893128693, -9.680473158368841e-05, 0.06556358933448792, -0.8559635281562805, -1.1556684970855713, 0.10790964961051941, -0.8293113186899272, -1.0825859267309283, -8.534874549068155, 9362.0, 30146.0, 35388.0, 9362.0, 8.390083312988281, -0.02368362806737423, 0.22818730771541595, 0.33626484870910645, -0.09199413657188416, -0.003082423936575651, 1.0232795476913452, -0.07282476127147675, -0.07543754577636719, 1.48974609375, 1.10595703125, 1.194122314453125, 1.49267578125
49275, 0.00486907409504056, 0.013764125294983387, 0.01434770505875349, -7.426389493048191e-05, -6.964479780435795e-06, 0.00981961004436016, -0.0006366207380779088, -0.00010645549627952278, 0.06792724877595901, -0.8559674024581909, -1.155147671699524, 0.10805246978998184, -0.8886988296549139, -1.2926255242962554, -8.71403835396623, 9362.0, 30146.0, 35388.0, 9362.0, 8.390083312988281, -0.1618424952030182, -0.2967495322227478, -0.058266546577215195, -0.0932881310582161, -0.0027081971056759357, 1.0225834846496582, -0.07282476127147675, -0.07543754577636719, 1.48974609375, 1.55859375, 0.3211212158203125, 1.49267578125
49285, 0.004010521341115236, 0.015155562199652195, 0.014418361708521843, -8.077576057985425e-05, -8.070102012425195e-06, 0.010510722175240517, -0.0006656339392066002, -0.00011467857257230207, 0.0702955350279808, -0.8558936715126038, -1.155669093132019, 0.10796625167131424, -0.8371049959406693, -1.118980295572527, -8.525754614754444, 9362.0, 30146.0, 35388.0, 9362.0, 8.390083312988281, 0.06364855915307999, 0.04370669275522232, 0.154831662774086, -0.0913986936211586, -0.0016117560444399714, 1.0241791009902954, -0.07282476127147675, -0.07543754577636719, 1.48974609375, 1.097900390625, 1.2933502197265625, 1.494140625
49295, 0.0035130924079567194, 0.015812726691365242, 0.014465552754700184, -8.755259477766231e-05, -9.259546459361445e-06, 0.011224801652133465, -0.0006897868006490171, -0.00012317707296460867, 0.07252074778079987, -0.8558701276779175, -1.1556771993637085, 0.1079733595252037, -0.8451595979396307, -1.1328326671028606, -8.527370084641824, 9362.0, 30146.0, 35388.0, 9362.0, 8.390083312988281, 0.002891002455726266, 0.0025053664576262236, 0.024290040135383606, -0.09105096012353897, -0.0009656425099819899, 1.0268634557724, -0.07282476127147675, -0.07543754577636719, 1.48974609375, 1.5146484375, 0.225494384765625, 1.494140625
49305, 0.0033329706639051437, 0.01614251360297203, 0.012641046196222305, -9.458319254918024e-05, -1.052647530741524e-05, 0.011961319483816624, -0.0007163582486100495, -0.00013018918980378658, 0.07478318363428116, -0.8559001684188843, -1.1551220417022705, 0.10814523696899414, -0.8934732358784592, -1.318845697144269, -8.742637460907893, 9362.0, 30146.0, 35388.0, 9362.0, 8.390083312988281, 0.11328566074371338, -4.7064138925634325e-05, 0.2787327468395233, -0.09378261864185333, -0.004485356621444225, 1.0235544443130493, -0.06087181344628334, -0.2187976837158203, 1.47802734375, 1.5703125, 0.34783935546875, 1.48828125
49315, 0.003012862289324403, 0.016794834285974503, 0.01580103114247322, -0.00010188560554524884, -1.1859247024403885e-05, 0.012721708975732327, -0.0007441385532729328, -0.0001363564224448055, 0.07729508727788925, -0.8559100031852722, -1.15510094165802, 0.10812944173812866, -0.896741357291557, -1.3310551955551375, -8.76927278019982, 9362.0, 30146.0, 35388.0, 9362.0, 8.390083312988281, 0.062265194952487946, 0.017204655334353447, 0.14540918171405792, -0.09204602986574173, -0.0032163842115551233, 1.0253288745880127, -0.06087181344628334, -0.2187976837158203, 1.47802734375, 1.5263671875, 0.2502899169921875, 1.48828125
49325, 0.0033330614678561687, 0.016535183414816856, 0.016603974625468254, -0.00010946867405436933, -1.3252098142402247e-05, 0.013507074676454067, -0.0007725034956820309, -0.00014220141747500747, 0.07977848500013351, -0.8557685613632202, -1.1556400060653687, 0.10808508098125458, -0.8757743878105189, -1.1735243892416634, -8.538873663563997, 9362.0, 30146.0, 35388.0, 9362.0, 8.390083312988281, 0.21856963634490967, -0.06993912160396576, -0.05833869427442551, -0.09094240516424179, -0.000368665176210925, 1.0239737033843994, -0.06087181344628334, -0.2187976837158203, 1.47802734375, 1.0927734375, 1.3592987060546875, 1.496337890625
49335, 0.00477524334564805, 0.017403176054358482, 0.016744770109653473, -0.00011734103463822976, -1.4700583051308058e-05, 0.01431698352098465, -0.0008019573870114982, -0.00014750953414477408, 0.082203708589077, -0.8559145927429199, -1.1556298732757568, 0.10784058272838593, -0.8755959609028247, -1.1182572911098987, -8.526005178873286, 9362.0, 30146.0, 35388.0, 9362.0, 8.390083312988281, 0.06953604519367218, -0.046924762427806854, 0.09519165009260178, -0.08932443708181381, -0.0031202291138470173, 1.025952696800232, -0.06087181344628334, -0.2187976837158203, 1.47802734375, 1.153564453125, 0.709808349609375, 1.496337890625
49345, 0.00570827629417181, 0.01743452437222004, 0.016134027391672134, -0.00012550556857604533, -1.6204941857722588e-05, 0.015150833874940872, -0.0008309843251481652, -0.00015342164260800928, 0.08456672728061676, -0.8559715747833252, -1.1551258563995361, 0.10801775753498077, -0.9175698894715594, -1.3155427786117855, -8.73900083690424, 9362.0, 30146.0, 35388.0, 9362.0, 8.390083312988281, 0.04610619321465492, -0.03859161585569382, -0.16964301466941833, -0.09207615256309509, -0.002687889151275158, 1.0245091915130615, -0.06087181344628334, -0.2187976837158203, 1.47802734375, 1.250244140625, 0.162445068359375, 1.494140625
49355, 0.006071708630770445, 0.016757812350988388, 0.01590058021247387, -0.00013396817666944116, -1.7781123460736126e-05, 0.016008974984288216, -0.0008615382830612361, -0.00016185478307306767, 0.08706182986497879, -0.8559914231300354, -1.155115008354187, 0.10796891897916794, -0.909674909599723, -1.3127644376703245, -8.744341407146537, 9362.0, 30146.0, 35388.0, 9362.0, 8.390083312988281, 0.07787209004163742, 0.13660988211631775, 0.3316384255886078, -0.09117912501096725, -0.00306463404558599, 1.021167516708374, -0.06087181344628334, -0.2187976837158203, 1.47802734375, 1.40478515625, 0.0446624755859375, 1.494140625
49365, 0.0063721914775669575, 0.013554862700402737, 0.01802208460867405, -0.0001427365787094459, -1.9449818864814006e-05, 0.016892004758119583, -0.000892112439032644, -0.00017189982463605702, 0.08954446762800217, -0.8559720516204834, -1.1551200151443481, 0.10799186676740646, -0.9048844665970059, -1.3035327930775793, -8.722774675562155, 9362.0, 30146.0, 35388.0, 9362.0, 8.390083312988281, 0.31453508138656616, 0.09800019860267639, 0.23710837960243225, -0.09042643755674362, -0.002694933209568262, 1.0237520933151245, -0.06087181344628334, -0.2187976837158203, 1.47802734375, 1.5322265625, 0.2628021240234375, 1.48974609375
49375, 0.0069535463117063046, 0.011320794001221657, 0.01908380724489689, -0.00015180435730144382, -2.1221998395049013e-05, 0.01779841259121895, -0.0009213202283717692, -0.0001825487706810236, 0.09173765033483505, -0.8560051321983337, -1.1550583839416504, 0.1081092357635498, -0.9067485570210688, -1.3161536705562185, -8.740199452936373, 9362.0, 30146.0, 35388.0, 9362.0, 8.390083312988281, 0.3994060158729553, 0.5250148177146912, 0.36616167426109314, -0.092243492603302, -0.0037443621549755335, 1.024388074874878, -0.06087181344628334, -0.2187976837158203, 1.47802734375, 1.317626953125, 0.0291900634765625, 1.48974609375
49385, 0.009036649018526077, 0.009451671503484249, 0.020148348063230515, -0.0001611362094990909, -2.310331183252856e-05, 0.018726913258433342, -0.0009449644130654633, -0.00019373696704860777, 0.09396304190158844, -0.8558076024055481, -1.1555676460266113, 0.10784779489040375, -0.94244741269567, -1.222756690708053, -8.43589628467132, 9362.0, 30146.0, 35388.0, 9362.0, 8.390083312988281, 0.20637738704681396, 0.527669370174408, 0.35247802734375, -0.09260377287864685, -0.0038521667011082172, 1.0261255502700806, -0.06087181344628334, -0.2187976837158203, 1.47802734375, 1.388671875, 0.03033447265625, 1.491943359375
49395, 0.010307964868843555, 0.0071544102393090725, 0.022879337891936302, -0.00017068511806428432, -2.5101693609030917e-05, 0.019678499549627304, -0.0009647377301007509, -0.00020602665608748794, 0.09635477513074875, -0.8559908866882324, -1.1551580429077148, 0.10799293220043182, -0.9163733371577225, -1.2924704164793468, -8.69046122466952, 9362.0, 30146.0, 35388.0, 9362.0, 8.390083312988281, -0.043296847492456436, 0.00261927442625165, 0.27390116453170776, -0.09482836723327637, -0.0007057890761643648, 1.0237830877304077, -0.06087181344628334, -0.2187976837158203, 1.47802734375, 1.03271484375, 2.3103179931640625, 1.491943359375
49405, 0.00919155590236187, 0.006944833789020777, 0.02499586157500744, -0.00018041545990854502, -2.724134174059145e-05, 0.020654678344726562, -0.0009812298230826855, -0.00022196004283614457, 0.09888128191232681, -0.8558219075202942, -1.155592918395996, 0.10782471299171448, -0.9469256073447504, -1.2299023510808524, -8.423827654429234, 9362.0, 30146.0, 35388.0, 9362.0, 8.390083312988281, -0.05642874538898468, 0.2711872160434723, 0.19598621129989624, -0.09064497798681259, -0.0003250068984925747, 1.023006558418274, -0.10280898213386536, -0.3890361785888672, 1.464111328125, 1.11767578125, 1.0591888427734375, 1.493408203125
49415, 0.008623090572655201, 0.003793144365772605, 0.025492005050182343, -0.00019029043323826045, -2.9551312763942406e-05, 0.021655166521668434, -0.00099375459831208, -0.00023998913820832968, 0.10121682286262512, -0.8560148477554321, -1.1550536155700684, 0.10811245441436768, -0.9042093258231961, -1.3042268907844914, -8.73871953968261, 9362.0, 30146.0, 35388.0, 9362.0, 8.390083312988281, -0.15682609379291534, 0.01787160523235798, 0.04406757652759552, -0.0948292464017868, -0.0025434941053390503, 1.0227835178375244, -0.10280898213386536, -0.3890361785888672, 1.464111328125, 1.045166015625, 2.0843963623046875, 1.493408203125
49425, 0.008706487715244293, 0.002983693964779377, 0.02528991736471653, -0.00020028882136102766, -3.203180676791817e-05, 0.022679097950458527, -0.0010057941544800997, -0.00025608614669181406, 0.10357001423835754, -0.8559367060661316, -1.1556369066238403, 0.10784310102462769, -0.8661644960835467, -1.114818987309235, -8.516664192329467, 9362.0, 30146.0, 35388.0, 9362.0, 8.390083312988281, 0.048706017434597015, 0.27498942613601685, -0.387802392244339, -0.08995404839515686, -0.003517378121614456, 1.0250526666641235, -0.10280898213386536, -0.3890361785888672, 1.464111328125, 1.0869140625, 1.4374237060546875, 1.49267578125
49435, 0.008471769280731678, 9.187433170154691e-05, 0.023868534713983536, -0.00021037993428763002, -3.466817724984139e-05, 0.02372591197490692, -0.0010123976971954107, -0.00027119097649119794, 0.10579316318035126, -0.8559401631355286, -1.1556559801101685, 0.10783674567937851, -0.8624291784107442, -1.107790151818989, -8.507702781795018, 9362.0, 30146.0, 35388.0, 9362.0, 8.390083312988281, -0.07899593561887741, 0.2847652733325958, 0.391510009765625, -0.09296197444200516, -0.0034054226707667112, 1.0263242721557617, -0.10280898213386536, -0.3890361785888672, 1.464111328125, 1.27587890625, 0.092620849609375, 1.49267578125
49445, 0.007304119877517223, -0.001167088863439858, 0.026273608207702637, -0.00022053004067856818, -3.7456455174833536e-05, 0.024795837700366974, -0.0010175039060413837, -0.0002864547132048756, 0.1081923320889473, -0.8559370636940002, -1.1556507349014282, 0.10782884061336517, -0.8681910316304048, -1.1114393392898592, -8.49105038978686, 9362.0, 30146.0, 35388.0, 9362.0, 8.390083312988281, -0.09004158526659012, 0.30152663588523865, -0.7778733968734741, -0.09225189685821533, 0.0006687201093882322, 1.020897626876831, -0.10280898213386536, -0.3890361785888672, 1.464111328125, 1.6171875, 0.4583282470703125, 1.493408203125
49455, 0.005152272526174784, -0.00577485840767622, 0.021661845967173576, -0.00023070586030371487, -4.039545456180349e-05, 0.02589079551398754, -0.0010176013456657529, -0.0003012922534253448, 0.1107996478676796, -0.8559423089027405, -1.1556626558303833, 0.10783177614212036, -0.8560804203859406, -1.1119811722557813, -8.509708210132874, 9362.0, 30146.0, 35388.0, 9362.0, 8.390083312988281, 0.056900106370449066, 0.3691788613796234, 0.07844940572977066, -0.09570655971765518, 0.000899636943358928, 1.0215246677398682, -0.10280898213386536, -0.3890361785888672, 1.464111328125, 1.51318359375, 0.2224273681640625, 1.493408203125
49465, 0.004601259715855122, -0.009153859689831734, 0.02400709129869938, -0.00024087162455543876, -4.3472362449392676e-05, 0.0270102359354496, -0.001015368034131825, -0.0003140028566122055, 0.11308867484331131, -0.8559850454330444, -1.155521035194397, 0.10799110680818558, -0.8827066791369548, -1.1009515372052192, -8.557096049393529, 9362.0, 30146.0, 35388.0, 9362.0, 8.390083312988281, -0.19307126104831696, -0.4582734704017639, -1.0330318212509155, -0.09394095838069916, -0.003155630547553301, 1.0235482454299927, -0.10280898213386536, -0.3890361785888672, 1.464111328125, 1.6083984375, 0.437225341796875, 1.494140625
49475, 0.002728545805439353, -0.008492234162986279, 0.01818668097257614, -0.0002509748446755111, -4.665738742914982e-05, 0.02815121039748192, -0.0010051545687019825, -0.00032298231963068247, 0.11510664224624634, -0.8558309674263, -1.155560851097107, 0.10783667862415314, -0.9407073903973744, -1.2434607989395943, -8.43354105494607, 9362.0, 30146.0, 35388.0, 9362.0, 8.390083312988281, 0.008224502205848694, 0.2929324507713318, 1.2642701864242554, -0.09333759546279907, -0.004450999666005373, 1.0239002704620361, -0.10280898213386536, -0.3890361785888672, 1.464111328125, 1.587158203125, 0.3869171142578125, 1.494140625
49485, 0.003186833346262574, -0.01195463165640831, 0.021700363606214523, -0.000260946195339784, -4.9927475629374385e-05, 0.0293135829269886, -0.000989144085906446, -0.00033096320112235844, 0.11736811697483063, -0.8557958006858826, -1.1555768251419067, 0.10784908384084702, -0.9474679117739655, -1.239066307966283, -8.428264621030173, 9362.0, 30146.0, 35388.0, 9362.0, 8.390083312988281, -0.06415265798568726, 0.17322032153606415, -0.19244787096977234, -0.09221001714468002, -0.002198820933699608, 1.0222941637039185, -0.10280898213386536, -0.3890361785888672, 1.464111328125, 1.36669921875, 0.01806640625, 1.4970703125
49505, 0.0034257250372320414, -0.014242182485759258, 0.015003521926701069, -0.00027076315018348396, -5.3261013817973435e-05, 0.030499227344989777, -0.0009741030517034233, -0.00033576248097233474, 0.11976137012243271, -0.8559645414352417, -1.1551148891448975, 0.1079753190279007, -0.9137276831829337, -1.3011219298382173, -8.711906132305554, 9362.0, 30146.0, 35388.0, 9362.0, 8.390083312988281, 0.19973379373550415, 0.04527558013796806, -0.40559208393096924, -0.09564024955034256, -0.004376256372779608, 1.024518609046936, -0.10280898213386536, -0.3890361785888672, 1.464111328125, 1.31982421875, 0.0273590087890625, 1.496337890625
49525, 0.006143978796899319, -0.012874208390712738, 0.009705726988613605, -0.0002989874337799847, -6.358467362588271e-05, 0.034190695732831955, -0.0009048394858837128, -0.00035279826261103153, 0.12633571028709412, -0.8559542298316956, -1.1551029682159424, 0.10799704492092133, -0.916651916916161, -1.2984177052945256, -8.71093614902218, 9362.0, 30146.0, 35388.0, 9362.0, 8.390083312988281, 0.09199563413858414, -0.06770339608192444, 0.10004700720310211, -0.09307219088077545, -0.004129789769649506, 1.0251811742782593, -0.10280898213386536, -0.3890361785888672, 1.464111328125, 0.8818359375, 6.565155029296875, 1.496337890625
49535, 0.007090028841048479, -0.012659158557653427, 0.008415701799094677, -0.0002989874337799847, -6.358467362588271e-05, 0.034190695732831955, -0.0009048394858837128, -0.00035279826261103153, 0.12633571028709412, -0.8559147715568542, -1.1556220054626465, 0.10784292966127396, -0.8751028065621894, -1.1238122774614396, -8.509239141121403, 9362.0, 30146.0, 35388.0, 9362.0, 8.390083312988281, -0.061834339052438736, 0.09096872061491013, 0.028826730325818062, -0.09415038675069809, -0.0015066454652696848, 1.0226552486419678, -0.10280898213386536, -0.3890361785888672, 1.464111328125, 1.00341796875, 2.907745361328125, 1.496337890625
49545, 0.007532131392508745, -0.01289959903806448, 0.00760359363630414, -0.0003165876551065594, -7.080676004989073e-05, 0.03677036613225937, -0.0008566748001612723, -0.00037114915903657675, 0.131648451089859, -0.8559299111366272, -1.155617594718933, 0.10785520821809769, -0.8651775798492041, -1.1197272129323323, -8.521884014395114, 9362.0, 30146.0, 35388.0, 9362.0, 8.390083312988281, 0.3207317888736725, 0.19315409660339355, -0.009390875697135925, -0.09054026007652283, -0.000511315418407321, 1.0232237577438354, -0.10280898213386536, -0.3890361785888672, 1.464111328125, 1.4208984375, 0.063079833984375, 1.496337890625
49555, 0.009008717723190784, -0.012643142603337765, 0.006099137011915445, -0.0003165876551065594, -7.080676004989073e-05, 0.03677036613225937, -0.0008566748001612723, -0.00037114915903657675, 0.131648451089859, -0.8559340238571167, -1.1556262969970703, 0.10784080624580383, -0.8854606754871857, -1.1278519795795034, -8.520643235938282, 9362.0, 30146.0, 35388.0, 9362.0, 8.390083312988281, 0.1318214237689972, 0.0032842170912772417, -0.19134052097797394, -0.09476136416196823, -0.0013292403891682625, 1.0225074291229248, -0.10280898213386536, -0.3890361785888672, 1.464111328125, 1.4208984375, 0.063079833984375, 1.496337890625
49565, 0.009588925167918205, -0.010512538254261017, 0.0038112869951874018, -0.0003165876551065594, -7.080676004989073e-05, 0.03677036613225937, -0.0008566748001612723, -0.00037114915903657675, 0.131648451089859, -0.8560301065444946, -1.1550498008728027, 0.10806374251842499, -0.9160524277485829, -1.3278568937714965, -8.745786227943782, 9362.0, 30146.0, 35388.0, 9362.0, 8.390083312988281, 0.15795491635799408, -0.7241834402084351, -0.7989962697029114, -0.09219325333833694, -0.001806381274946034, 1.0228939056396484, -0.10280898213386536, -0.3890361785888672, 1.464111328125, 1.04736328125, 2.0461883544921875, 1.496337890625
49575, 0.011729342862963676, -0.005657237488776445, 9.846164903137833e-05, -0.00034128405968658626, -8.25291353976354e-05, 0.04082012549042702, -0.0007898580515757203, -0.00041261964361183345, 0.1383364200592041, -0.8559050559997559, -1.1556261777877808, 0.10782663524150848, -0.8881566709196617, -1.1214212812377014, -8.520343866128481, 9362.0, 30146.0, 35388.0, 9362.0, 8.390083312988281, 0.27695566415786743, 0.31239691376686096, 0.05964988097548485, -0.09455166012048721, -0.0022803389001637697, 1.0233129262924194, -0.10280898213386536, -0.3890361785888672, 1.464111328125, 1.04736328125, 2.0461883544921875, 1.496337890625
49585, 0.014145869761705399, -0.006634233053773642, -0.0013982680393382907, -0.00034128405968658626, -8.25291353976354e-05, 0.04082012549042702, -0.0007898580515757203, -0.00041261964361183345, 0.1383364200592041, -0.8559246063232422, -1.1556237936019897, 0.10784883052110672, -0.8833705047144284, -1.1217126020827095, -8.512725608892813, 9362.0, 30146.0, 35388.0, 9362.0, 8.390083312988281, 0.03167138248682022, -0.06025039777159691, -0.44849708676338196, -0.0925876721739769, -0.0009154601139016449, 1.024979829788208, -0.10280898213386536, -0.3890361785888672, 1.464111328125, 1.163818359375, 0.6264495849609375, 1.496337890625
49595, 0.015746714547276497, -0.007028649561107159, -0.0034733456559479237, -0.00035675737308338284, -9.113703708862886e-05, 0.04363206773996353, -0.0007616924121975899, -0.00045013113413006067, 0.14282040297985077, -0.8559163212776184, -1.155626654624939, 0.10787183046340942, -0.875901444101977, -1.1168584251470577, -8.515687390048189, 9362.0, 30146.0, 35388.0, 9362.0, 8.390083312988281, 0.03167138248682022, -0.06025039777159691, -0.44849708676338196, -0.09286345541477203, -0.0025718549732118845, 1.0267940759658813, -0.10280898213386536, -0.3890361785888672, 1.464111328125, 1.163818359375, 0.6264495849609375, 1.496337890625
49605, 0.015104981139302254, -0.006536572705954313, -0.0031569218263030052, -0.00035675737308338284, -9.113703708862886e-05, 0.04363206773996353, -0.0007616924121975899, -0.00045013113413006067, 0.14282040297985077, -0.8559141755104065, -1.1556391716003418, 0.10788533091545105, -0.8808664280931114, -1.1274586200106569, -8.513675733341055, 9362.0, 30146.0, 35388.0, 9362.0, 8.390083312988281, 0.22919410467147827, -0.19570279121398926, 0.19116520881652832, -0.0913655236363411, -0.0020863828249275684, 1.0256661176681519, -0.10280898213386536, -0.3890361785888672, 1.464111328125, 1.163818359375, 0.6264495849609375, 1.496337890625
49615, 0.017970256507396698, -0.006895557977259159, -0.0017984288278967142, -0.00037175475154072046, -0.00010065099195344374, 0.04653780907392502, -0.0007377134170383215, -0.0005026528961025178, 0.14779745042324066, -0.8559231758117676, -1.1556077003479004, 0.10784239321947098, -0.870687245247672, -1.1216861553352828, -8.531815688156996, 9362.0, 30146.0, 35388.0, 9362.0, 8.390083312988281, 0.10657210648059845, -0.07161682099103928, 0.06622016429901123, -0.08934898674488068, -0.0002945495944004506, 1.023303508758545, -0.10280898213386536, -0.3890361785888672, 1.464111328125, 1.163818359375, 0.6264495849609375, 1.496337890625
49625, 0.019684938713908195, -0.006631329655647278, 0.0009932209504768252, -0.00037175475154072046, -0.00010065099195344374, 0.04653780907392502, -0.0007377134170383215, -0.0005026528961025178, 0.14779745042324066, -0.8560026288032532, -1.15510094165802, 0.10800088942050934, -0.9096035101573792, -1.3050922981085193, -8.745079916806091, 9362.0, 30146.0, 35388.0, 9362.0, 8.390083312988281, -0.047296617180109024, -0.15283367037773132, 0.41945359110832214, -0.0927339419722557, -0.0018503169994801283, 1.0226776599884033, -0.10280898213386536, -0.3890361785888672, 1.464111328125, 1.36083984375, 0.016387939453125, 1.496337890625
49635, 0.019871292635798454, -0.005825096275657415, 0.0028450367972254753, -0.00037175475154072046, -0.00010065099195344374, 0.04653780907392502, -0.0007377134170383215, -0.0005026528961025178, 0.14779745042324066, -0.8559766411781311, -1.1551061868667603, 0.10799229145050049, -0.8936066711931557, -1.2994096421881522, -8.749363872622958, 9362.0, 30146.0, 35388.0, 9362.0, 8.390083312988281, 0.033990826457738876, 0.13424046337604523, 0.2180178463459015, -0.0898187905550003, -0.0016356933629140258, 1.0233471393585205, -0.10280898213386536, -0.3890361785888672, 1.464111328125, 1.152099609375, 0.7223052978515625, 1.496337890625
49645, 0.0203815009444952, -0.006402326747775078, 0.005318935960531235, -0.00037175475154072046, -0.00010065099195344374, 0.04653780907392502, -0.0007377134170383215, -0.0005026528961025178, 0.14779745042324066, -0.8559985756874084, -1.1551086902618408, 0.1079900711774826, -0.8994787454363711, -1.3057832679186845, -8.738133277506096, 9362.0, 30146.0, 35388.0, 9362.0, 8.390083312988281, 0.18911220133304596, 0.04272350296378136, -0.09999139606952667, -0.08926138281822205, -0.004922114312648773, 1.0251392126083374, -0.10280898213386536, -0.3890361785888672, 1.464111328125, 1.168212890625, 0.59271240234375, 1.496337890625
49655, 0.021548312157392502, -0.007845231331884861, 0.007249962538480759, -0.00040033363620750606, -0.0001231708301929757, 0.0526457242667675, -0.000692318077199161, -0.000630210735835135, 0.15725016593933105, -0.8559842705726624, -1.1551064252853394, 0.10800966620445251, -0.9055841249732992, -1.295705951990982, -8.744584746635878, 9362.0, 30146.0, 35388.0, 9362.0, 8.390083312988281, -0.031384024769067764, 0.10536925494670868, 0.376802533864975, -0.09033621847629547, -0.0031717089004814625, 1.0254762172698975, -0.10280898213386536, -0.3890361785888672, 1.464111328125, 1.168212890625, 0.59271240234375, 1.496337890625
49665, 0.020779069513082504, -0.009064823389053345, 0.01221491675823927, -0.0004072006558999419, -0.00012965170026291162, 0.054230283945798874, -0.0006810216000303626, -0.000666012812871486, 0.15966196358203888, -0.8558135628700256, -1.15557062625885, 0.10785605013370514, -0.9345011402276533, -1.2244312756966167, -8.441610446496497, 9362.0, 30146.0, 35388.0, 9362.0, 8.390083312988281, 0.13710354268550873, 0.09635569900274277, -0.31133878231048584, -0.09292476624250412, -0.001341657480224967, 1.0206334590911865, -0.10280898213386536, -0.3890361785888672, 1.464111328125, 1.168212890625, 0.59271240234375, 1.496337890625
49685, 0.021011944860219955, -0.012281636707484722, 0.01627171039581299, -0.00042053440120071173, -0.00014372113218996674, 0.057472504675388336, -0.0006512279505841434, -0.0007402318879030645, 0.1644238978624344, -0.8559567332267761, -1.1556280851364136, 0.10782483965158463, -0.8630818609538181, -1.1234724579451836, -8.541354498645795, 9362.0, 30146.0, 35388.0, 9362.0, 8.390083312988281, 0.083419069647789, -0.24521924555301666, -0.1294710338115692, -0.0899738296866417, 0.0006675826734863222, 1.0265154838562012, -0.10280898213386536, -0.3890361785888672, 1.464111328125, 1.168212890625, 0.59271240234375, 1.4970703125
49695, 0.02180567942559719, -0.010873612016439438, 0.014742535538971424, -0.00042053440120071173, -0.00014372113218996674, 0.057472504675388336, -0.0006512279505841434, -0.0007402318879030645, 0.1644238978624344, -0.8559567332267761, -1.1551413536071777, 0.10801683366298676, -0.9059296692036501, -1.289380316172469, -8.708588967066735, 9362.0, 30146.0, 35388.0, 9362.0, 8.390083312988281, 0.083419069647789, -0.24521924555301666, -0.1294710338115692, -0.09225711226463318, 0.0002369006397202611, 1.0265222787857056, -0.10280898213386536, -0.3890361785888672, 1.464111328125, 1.168212890625, 0.59271240234375, 1.4970703125
49705, 0.021895257756114006, -0.011293076910078526, 0.017816605046391487, -0.00042053440120071173, -0.00014372113218996674, 0.057472504675388336, -0.0006512279505841434, -0.0007402318879030645, 0.1644238978624344, -0.8559819459915161, -1.155121922492981, 0.10799617320299149, -0.9025437824756892, -1.297986986406272, -8.743732332442566, 9362.0, 30146.0, 35388.0, 9362.0, 8.390083312988281, -0.3179444670677185, 0.2739253044128418, -0.01902351900935173, -0.09076081216335297, -0.0026672868989408016, 1.024836540222168, -0.10280898213386536, -0.3890361785888672, 1.464111328125, 1.44287109375, 0.0936279296875, 1.4970703125
49715, 0.019873447716236115, -0.012988251633942127, 0.01821199432015419, -0.00042053440120071173, -0.00014372113218996674, 0.057472504675388336, -0.0006512279505841434, -0.0007402318879030645, 0.1644238978624344, -0.8559926152229309, -1.155109167098999, 0.10799024254083633, -0.8967710983785159, -1.302186923564875, -8.736022311831347, 9362.0, 30146.0, 35388.0, 9362.0, 8.390083312988281, -0.04678315669298172, 0.023397408425807953, -0.2680371403694153, -0.08902028203010559, -0.00029201098368503153, 1.021877646446228, -0.10280898213386536, -0.3890361785888672, 1.464111328125, 1.077392578125, 1.570770263671875, 1.4970703125
49735, 0.018566766753792763, -0.016771025955677032, 0.017846841365098953, -0.00045059266267344356, -0.00018541909230407327, 0.065984345972538, -0.0005487776361405849, -0.0009260652586817741, 0.17628568410873413, -0.8559210896492004, -1.1556150913238525, 0.10787725448608398, -0.8672531933913162, -1.1176371811094157, -8.516126491445192, 9362.0, 30146.0, 35388.0, 9362.0, 8.390083312988281, -0.22409005463123322, 0.23003049194812775, 0.2754615545272827, -0.09416183829307556, -0.001631766208447516, 1.0261642932891846, -0.10280898213386536, -0.3890361785888672, 1.464111328125, 1.077392578125, 1.570770263671875, 1.491943359375
49745, 0.01666451431810856, -0.01781618222594261, 0.017401358112692833, -0.0004559630178846419, -0.0001948432473000139, 0.06775818765163422, -0.0005251660477370024, -0.0009587613167241216, 0.17848308384418488, -0.8557578921318054, -1.155617117881775, 0.10807760804891586, -0.876874392405635, -1.1631935478641822, -8.53529999772968, 9362.0, 30146.0, 35388.0, 9362.0, 8.390083312988281, -0.4141659736633301, 0.23213161528110504, -0.2799888253211975, -0.08947301656007767, -0.004300170578062534, 1.0263694524765015, -0.10280898213386536, -0.3890361785888672, 1.464111328125, 1.077392578125, 1.570770263671875, 1.491943359375
49765, 0.012506751343607903, -0.02150023728609085, 0.016089128330349922, -0.00046586786629632115, -0.0002146524639101699, 0.07137691229581833, -0.0004643405263777822, -0.0010203949641436338, 0.18351437151432037, -0.8558974266052246, -1.155105471611023, 0.10813601315021515, -0.9018126193665861, -1.3142343902145512, -8.786836830030465, 9362.0, 30146.0, 35388.0, 9362.0, 8.390083312988281, -0.05730786174535751, -0.01920447126030922, -0.1766621172428131, -0.0920681282877922, -0.0008767571416683495, 1.0222899913787842, -0.10280898213386536, -0.3890361785888672, 1.464111328125, 1.077392578125, 1.570770263671875, 1.497802734375
49775, 0.011898769997060299, -0.022860901430249214, 0.013610229827463627, -0.00046586786629632115, -0.0002146524639101699, 0.07137691229581833, -0.0004643405263777822, -0.0010203949641436338, 0.18351437151432037, -0.8559057116508484, -1.1551142930984497, 0.10815352201461792, -0.8946988348608265, -1.3125448897811793, -8.780934251843103, 9362.0, 30146.0, 35388.0, 9362.0, 8.390083312988281, -0.0319785550236702, 0.5412154793739319, -0.21883295476436615, -0.09431950747966766, -0.0038880796637386084, 1.0235521793365479, -0.10280898213386536, -0.3890361785888672, 1.464111328125, 1.077392578125, 1.570770263671875, 1.497802734375
49785, 0.010773297399282455, -0.02579391375184059, 0.01275322213768959, -0.00046586786629632115, -0.0002146524639101699, 0.07137691229581833, -0.0004643405263777822, -0.0010203949641436338, 0.18351437151432037, -0.8557890057563782, -1.1556342840194702, 0.10805951058864594, -0.8683357004855866, -1.1548503165521993, -8.529940901453232, 9362.0, 30146.0, 35388.0, 9362.0, 8.390083312988281, -0.11264284700155258, 0.23310309648513794, -0.3456023037433624, -0.09492177516222, -0.004863899201154709, 1.0252490043640137, -0.10280898213386536, -0.3890361785888672, 1.464111328125, 1.14990234375, 0.7412872314453125, 1.497802734375
49805, 0.009563065133988857, -0.0304583627730608, 0.006220220122486353, -0.00046586786629632115, -0.0002146524639101699, 0.07137691229581833, -0.0004643405263777822, -0.0010203949641436338, 0.18351437151432037, -0.8559274673461914, -1.1551023721694946, 0.1081024706363678, -0.8961118988050383, -1.310042268206331, -8.769103089622725, 9362.0, 30146.0, 35388.0, 9362.0, 8.390083312988281, -0.06719198822975159, -0.24173428118228912, 0.6267293691635132, -0.09150587022304535, -0.003473799442872405, 1.0221271514892578, -0.07984273135662079, -0.27255821228027344, 1.4736328125, 1.055419921875, 1.9101409912109375, 1.497802734375
49815, 0.009757863357663155, -0.02954331785440445, 0.009246362373232841, -0.00048436957877129316, -0.00026841452927328646, 0.08084878325462341, -0.00025755600654520094, -0.001123950001783669, 0.19524292647838593, -0.8558546900749207, -1.1556140184402466, 0.10800188034772873, -0.8551592217931308, -1.1613751290191203, -8.54959372360869, 9362.0, 30146.0, 35388.0, 9362.0, 8.390083312988281, 0.030042491853237152, 0.18399305641651154, -0.427268385887146, -0.09392813593149185, -0.004213021136820316, 1.0282715559005737, -0.07984273135662079, -0.27255821228027344, 1.4736328125, 1.055419921875, 1.9101409912109375, 1.497802734375
49825, 0.009247634559869766, -0.02998054027557373, 0.004630574956536293, -0.0004866787639912218, -0.0002797376364469528, 0.08281180262565613, -0.0002043115528067574, -0.0011406755074858665, 0.19736061990261078, -0.8559312224388123, -1.1551148891448975, 0.10810606926679611, -0.8872951872611484, -1.304811238052224, -8.777239944838682, 9362.0, 30146.0, 35388.0, 9362.0, 8.390083312988281, -0.022606540471315384, 0.5261980891227722, -0.30216163396835327, -0.09172528982162476, -0.003246565815061331, 1.0282421112060547, -0.07984273135662079, -0.27255821228027344, 1.4736328125, 1.055419921875, 1.9101409912109375, 1.49560546875
49845, 0.007908165454864502, -0.03429124131798744, 0.0022270556073635817, -0.000489722122438252, -0.0003028894425369799, 0.08681163191795349, -9.934974514180794e-05, -0.0011740224435925484, 0.20277608931064606, -0.8558626770973206, -1.1556583642959595, 0.10795015096664429, -0.8540317044096786, -1.1274829416035743, -8.524699268695286, 9362.0, 30146.0, 35388.0, 9362.0, 8.390083312988281, -0.07575544714927673, -0.41342684626579285, -0.6266586780548096, -0.09092798084020615, -0.0025685334112495184, 1.0215133428573608, -0.07984273135662079, -0.27255821228027344, 1.4736328125, 1.046630859375, 2.0588836669921875, 1.494873046875
49855, 0.007462432142347097, -0.03149120509624481, 0.0003815505187958479, -0.000489722122438252, -0.0003028894425369799, 0.08681163191795349, -9.934974514180794e-05, -0.0011740224435925484, 0.20277608931064606, -0.8558822870254517, -1.1556620597839355, 0.10798197239637375, -0.8477370167070265, -1.1211596258559098, -8.517963255605878, 9362.0, 30146.0, 35388.0, 9362.0, 8.390083312988281, 0.1887475848197937, -0.425192266702652, 0.35565412044525146, -0.09068222343921661, -0.0014912174083292484, 1.022207498550415, -0.07984273135662079, -0.27255821228027344, 1.4736328125, 1.055419921875, 1.9101409912109375, 1.494873046875
49875, 0.008221990428864956, -0.02911319211125374, -0.0026420727372169495, -0.0004905087407678366, -0.0003266507410444319, 0.0909140482544899, 2.056519042525906e-05, -0.00120195047929883, 0.20732320845127106, -0.8559394478797913, -1.1556717157363892, 0.10788427293300629, -0.8346803243131362, -1.1052721685326787, -8.529742577190216, 9362.0, 30146.0, 35388.0, 9362.0, 8.390083312988281, 0.3404546082019806, -0.1736023724079132, 0.16234615445137024, -0.09170228987932205, -0.00355548202060163, 1.0250322818756104, -0.07984273135662079, -0.27255821228027344, 1.4736328125, 1.264892578125, 0.119354248046875, 1.493408203125
49885, 0.009507453069090843, -0.028686873614788055, -0.002039546612650156, -0.0004890122800134122, -0.0003509588132146746, 0.09510455280542374, 0.0001274401438422501, -0.0012296162312850356, 0.21181772649288177, -0.8559272289276123, -1.155638337135315, 0.10790562629699707, -0.8335003120143002, -1.0985306761731124, -8.537013736592492, 9362.0, 30146.0, 35388.0, 9362.0, 8.390083312988281, 0.08915895968675613, -0.15926501154899597, -0.22849957644939423, -0.09317491948604584, -0.0023118078242987394, 1.0216195583343506, -0.07984273135662079, -0.27255821228027344, 1.4736328125, 1.105224609375, 1.202972412109375, 1.493408203125
49905, 0.01369677297770977, -0.028362415730953217, -0.005788036156445742, -0.00048748229164630175, -0.0003633271553553641, 0.09723522514104843, 0.0001785372878657654, -0.001244109938852489, 0.21431642770767212, -0.8559920191764832, -1.1556689739227295, 0.10782044380903244, -0.8270921360972314, -1.0956117696800902, -8.52005820166806, 9362.0, 30146.0, 35388.0, 9362.0, 8.390083312988281, 0.21921852231025696, -0.13478712737560272, 0.0804780051112175, -0.09116441756486893, -0.00285004498437047, 1.0272196531295776, -0.07984273135662079, -0.27255821228027344, 1.4736328125, 1.330810546875, 0.0203399658203125, 1.493408203125
49915, 0.015528839081525803, -0.02813669666647911, -0.006416148040443659, -0.0004829243116546422, -0.0003885529877152294, 0.10156472027301788, 0.00027568763471208513, -0.0012796148657798767, 0.21857230365276337, -0.8559948801994324, -1.155699372291565, 0.10781726241111755, -0.8230523663045048, -1.090313019158856, -8.516051058538944, 9362.0, 30146.0, 35388.0, 9362.0, 8.390083312988281, 0.12923334538936615, -0.27692317962646484, 0.000455563043942675, -0.09038887917995453, -0.0020448947325348854, 1.0235936641693115, -0.07984273135662079, -0.27255821228027344, 1.4736328125, 1.330810546875, 0.0203399658203125, 1.493408203125
49925, 0.017599020153284073, -0.027787698432803154, -0.006803060416132212, -0.00047991840983740985, -0.00040146944229491055, 0.10376303642988205, 0.0003254830662626773, -0.0013037541648373008, 0.2210911214351654, -0.8560053706169128, -1.155171513557434, 0.10800395160913467, -0.893082134285752, -1.2895647940115111, -8.693706562762562, 9362.0, 30146.0, 35388.0, 9362.0, 8.390083312988281, 0.11313891410827637, 0.15345798432826996, -0.07876728475093842, -0.08941125124692917, -0.0003159132902510464, 1.0236419439315796, -0.07984273135662079, -0.27255821228027344, 1.4736328125, 1.330810546875, 0.0203399658203125, 1.493408203125
49935, 0.019437121227383614, -0.029628021642565727, -0.005343852564692497, -0.0004764167533721775, -0.00041464323294349015, 0.1059861034154892, 0.0003748340532183647, -0.0013310947688296437, 0.22352318465709686, -0.8559947609901428, -1.1556897163391113, 0.10783852636814117, -0.8158228800918746, -1.0753784687337884, -8.519366742613665, 9362.0, 30146.0, 35388.0, 9362.0, 8.390083312988281, 0.09141785651445389, -0.22259850800037384, -0.21674847602844238, -0.09102130681276321, -0.001441325293853879, 1.0238308906555176, -0.07984273135662079, -0.27255821228027344, 1.4736328125, 1.083251953125, 1.487762451171875, 1.493408203125
49945, 0.02086758054792881, -0.028588522225618362, -0.006978727411478758, -0.00047242516302503645, -0.00042810829472728074, 0.10823243856430054, 0.0004235563683323562, -0.0013619849923998117, 0.22574390470981598, -0.8560167551040649, -1.1551820039749146, 0.10797404497861862, -0.8970536884404615, -1.2942860259551594, -8.689189548272955, 9362.0, 30146.0, 35388.0, 9362.0, 8.390083312988281, -0.03941280394792557, 0.1664932370185852, -0.38493210077285767, -0.09231634438037872, -0.0012285654665902257, 1.022986888885498, -0.07984273135662079, -0.27255821228027344, 1.4736328125, 1.083251953125, 1.487762451171875, 1.493408203125
49955, 0.021476244553923607, -0.02941153384745121, -0.008074200712144375, -0.00047242516302503645, -0.00042810829472728074, 0.10823243856430054, 0.0004235563683323562, -0.0013619849923998117, 0.22574390470981598, -0.8560148477554321, -1.1557172536849976, 0.10773582756519318, -0.8117460363996314, -1.063246958448957, -8.514146689690586, 9362.0, 30146.0, 35388.0, 9362.0, 8.390083312988281, 0.04516695439815521, -0.11605769395828247, 0.569663941860199, -0.09405381977558136, -0.002578222192823887, 1.0244463682174683, -0.07984273135662079, -0.27255821228027344, 1.4736328125, 0.8935546875, 6.1177825927734375, 1.493408203125
49965, 0.022101853042840958, -0.03005872666835785, -0.004190295934677124, -0.0004629249160643667, -0.00045604267506860197, 0.11279399693012238, 0.000525553070474416, -0.0014327068347483873, 0.23034828901290894, -0.8560095429420471, -1.15516197681427, 0.10794395208358765, -0.8876975510757282, -1.2973867002203576, -8.720923119798337, 9362.0, 30146.0, 35388.0, 9362.0, 8.390083312988281, 0.0016885355580598116, 0.49219849705696106, 0.11692311614751816, -0.09269583970308304, -0.0008391392766498029, 1.0240275859832764, -0.07984273135662079, -0.27255821228027344, 1.4736328125, 0.8935546875, 6.1177825927734375, 1.493408203125
49975, 0.022941725328564644, -0.032647162675857544, -0.0025815293192863464, -0.0004574116028379649, -0.00047055803588591516, 0.11510922014713287, 0.0005771393771283329, -0.0014703873312100768, 0.23269620537757874, -0.8559276461601257, -1.1556249856948853, 0.10779870301485062, -0.8660305179379086, -1.1114135062797743, -8.517660707807018, 9362.0, 30146.0, 35388.0, 9362.0, 8.390083312988281, -0.044093746691942215, 0.30118656158447266, 0.16239583492279053, -0.09078740328550339, -0.0036190703976899385, 1.0265945196151733, -0.07984273135662079, -0.27255821228027344, 1.4736328125, 1.55126953125, 0.304718017578125, 1.493408203125
49985, 0.023381194099783897, -0.03387041762471199, -0.001989887095987797, -0.00045137671986594796, -0.00048545567551627755, 0.11744797974824905, 0.000629947695415467, -0.0015091768000274897, 0.23505644500255585, -0.8559445142745972, -1.155624508857727, 0.10781190544366837, -0.8600390129670804, -1.127457756380295, -8.546631688501593, 9362.0, 30146.0, 35388.0, 9362.0, 8.390083312988281, -0.02276836894452572, 0.22603149712085724, -0.005653437692672014, -0.08901841193437576, -0.0018724327674135566, 1.0259336233139038, -0.07984273135662079, -0.27255821228027344, 1.4736328125, 1.17041015625, 0.5762939453125, 1.493408203125
50005, 0.022555792704224586, -0.037291087210178375, -0.0028420938178896904, -0.0004447905521374196, -0.0005007489235140383, 0.11981120705604553, 0.0006873411475680768, -0.0015494924737140536, 0.2375899851322174, -0.8559771180152893, -1.1551324129104614, 0.1079658716917038, -0.9080044912688293, -1.3033576821206623, -8.734503072974217, 9362.0, 30146.0, 35388.0, 9362.0, 8.390083312988281, 0.014049441553652287, 0.5306516289710999, -0.14009736478328705, -0.09171982854604721, -0.003967900760471821, 1.0228294134140015, -0.07984273135662079, -0.27255821228027344, 1.4736328125, 1.0341796875, 2.28289794921875, 1.493408203125
50025, 0.021902183070778847, -0.04291076958179474, -0.004567735828459263, -0.00042145169572904706, -0.0005490714684128761, 0.12705156207084656, 0.0008726734668016434, -0.0016709499759599566, 0.24491974711418152, -0.8559169173240662, -1.155605673789978, 0.10781397670507431, -0.8705819733987086, -1.1056299018887614, -8.539385859908508, 9362.0, 30146.0, 35388.0, 9362.0, 8.390083312988281, -0.1009073480963707, 0.05678216740489006, 0.1642286777496338, -0.09047689288854599, -0.0012062059249728918, 1.0229345560073853, -0.07984273135662079, -0.27255821228027344, 1.4736328125, 1.0341796875, 2.28289794921875, 1.493408203125
50045, 0.01885964162647724, -0.04676029458642006, -0.0024840461555868387, -0.00040253548650071025, -0.0005832642782479525, 0.13199421763420105, 0.001020404975861311, -0.001748064300045371, 0.249391108751297, -0.8559492230415344, -1.1551610231399536, 0.10800624638795853, -0.911707196365788, -1.2945836422047705, -8.70596028731631, 9362.0, 30146.0, 35388.0, 9362.0, 8.390083312988281, 0.058411985635757446, 0.6541008949279785, 0.24800875782966614, -0.09257414191961288, -0.0024831509217619896, 1.025436520576477, -0.07984273135662079, -0.27255821228027344, 1.4736328125, 1.20263671875, 0.368988037109375, 1.493408203125
50055, 0.018597202375531197, -0.05057636648416519, -0.0014190060319378972, -0.00040253548650071025, -0.0005832642782479525, 0.13199421763420105, 0.001020404975861311, -0.001748064300045371, 0.249391108751297, -0.855976939201355, -1.1551451683044434, 0.10796332359313965, -0.9077204261611993, -1.2992211505169848, -8.721702325870455, 9362.0, 30146.0, 35388.0, 9362.0, 8.390083312988281, -0.08541431277990341, 0.18524323403835297, 0.20122891664505005, -0.09239580482244492, -0.0013448256067931652, 1.0240330696105957, -0.07984273135662079, -0.27255821228027344, 1.4736328125, 1.20263671875, 0.368988037109375, 1.493408203125
50065, 0.017277792096138, -0.052708353847265244, -0.0006791350315324962, -0.00040253548650071025, -0.0005832642782479525, 0.13199421763420105, 0.001020404975861311, -0.001748064300045371, 0.249391108751297, -0.8560060858726501, -1.1551299095153809, 0.1079641580581665, -0.9020496677362245, -1.309289711803956, -8.729482783475058, 9362.0, 30146.0, 35388.0, 9362.0, 8.390083312988281, -0.16875481605529785, -0.01018974557518959, -0.0942784994840622, -0.09540052711963654, -0.002305598696693778, 1.0246448516845703, -0.07984273135662079, -0.27255821228027344, 1.4736328125, 1.292724609375, 0.060089111328125, 1.496337890625
50075, 0.01547397579997778, -0.05271244794130325, -0.0010102881351485848, -0.00040253548650071025, -0.0005832642782479525, 0.13199421763420105, 0.001020404975861311, -0.001748064300045371, 0.249391108751297, -0.8559167385101318, -1.1556156873703003, 0.10780706256628036, -0.8737046819791924, -1.1184143765792385, -8.534292387106765, 9362.0, 30146.0, 35388.0, 9362.0, 8.390083312988281, -0.14332306385040283, -0.156878262758255, -0.28965240716934204, -0.09292754530906677, -0.003052579239010811, 1.022882103919983, -0.07984273135662079, -0.27255821228027344, 1.4736328125, 1.153564453125, 0.709808349609375, 1.496337890625
