timeTick, roll, pitch, yaw, stateX, stateY, stateZ, stateVX, stateVY, stateVZ, otX0, otY0, otZ0, otRoll0, otPitch0, otYaw0, left wing, pitch motor, yaw motor, right wing, voltage, roll rate, pitch rate, yaw rate, A_x, A_y, A_z, current, i_raw, v_raw, airflow_voltage, airflow_speed, pot_Pitch
50296, 0.0003488768998067826, -0.0022856988944113255, -0.0014607090270146728, 0, 0, 0, 0, 0, 0, -0.3222757875919342, -1.1032638549804688, 0.10332001745700836, -0.44428014557065265, 0.49415672846222947, -5.143368950624524, 0, 0, 0, 0, 0, 0, 0, 0, 0, 0, 0, 0, 0, 0, 0, 0, 0
50306, 0.0018542819889262319, -0.0033857536036521196, -0.0035270042717456818, 0.0, 0.0, 1.2660282664000988e-05, 1.0101073399937377e-07, -1.5420344112726525e-08, 0.0025320479180663824, -0.32226598262786865, -1.1032440662384033, 0.10335119813680649, -0.4437301891473377, 0.47659640527143665, -5.151051583142484, 9362.0, 30146.0, 35388.0, 9362.0, 0, 0.06266847997903824, 0.07463887333869934, -0.261248916387558, -0.08440321683883667, -0.01612734980881214, 1.0267213582992554, 0, 0, 0, 0, 0, 0
50316, 0.0015569656388834119, -0.0031296887900680304, -0.004011793993413448, 2.108320096283478e-08, -3.2185707432574873e-09, 5.065533332526684e-05, 4.1642797441454604e-06, -6.950524493731791e-07, 0.005067355465143919, -0.32226067781448364, -1.1032556295394897, 0.103355772793293, -0.44000577078947484, 0.48071767336963944, -5.139474136624391, 9362.0, 30146.0, 35388.0, 9362.0, 0, 0.016417330130934715, 0.10610023885965347, 0.03314138203859329, -0.08288000524044037, -0.016843002289533615, 1.0251294374465942, 0, 0, 0, 1.412841796875, 0.0534515380859375, 0
50326, 0.0011595278047025204, -0.0032100477255880833, -0.005177703220397234, 9.246226539971758e-08, -2.6457158242010337e-08, 0.00011405994882807136, 1.0100125109602232e-05, -3.9395008570863865e-06, 0.007613964378833771, -0.3222730755805969, -1.1032594442367554, 0.10332214832305908, -0.44185850318978015, 0.48999012635530903, -5.144492561143853, 9362.0, 30146.0, 35388.0, 9362.0, 0, -0.1649092137813568, 0.10933926701545715, -0.05773291364312172, -0.08016002178192139, -0.016396066173911095, 1.0243803262710571, 0, 0, 0, 1.43408203125, 0.080810546875, 1.489013671875
50336, 0.001612940919585526, -0.0047779991291463375, -0.005972614046186209, 2.2092231688475295e-07, -7.951480540668854e-08, 0.00020240922458469868, 1.559525480843149e-05, -6.655201104877051e-06, 0.010056288912892342, -0.32226642966270447, -1.1032500267028809, 0.10333581268787384, -0.44419372589365796, 0.4830963595945832, -5.141974454228842, 9362.0, 30146.0, 35388.0, 9362.0, 0, 0.04141201451420784, 0.08161219954490662, 0.04467326030135155, -0.08010980486869812, -0.01682821661233902, 1.0269039869308472, 0, 0, 0, 1.604736328125, 0.428436279296875, 1.489013671875
50346, 0.0014010791201144457, -0.00262914109043777, -0.006044039037078619, 4.0506790810468374e-07, -1.5625352034476236e-07, 0.00031570211285725236, 2.1303514586179517e-05, -8.712774615560193e-06, 0.012602687813341618, -0.3222668170928955, -1.103251576423645, 0.103358194231987, -0.44629951344236857, 0.479817019571243, -5.1407537793251725, 9362.0, 30146.0, 35388.0, 9362.0, 0, -0.012224928475916386, -0.007565942592918873, 0.12817324697971344, -0.07929864525794983, -0.01648116670548916, 1.0248143672943115, 0, 0, 0, 1.474365234375, 0.14654541015625, 1.4912109375
50356, 0.0028949594125151634, -0.0031655800994485617, -0.0043455492705106735, 6.600499773412594e-07, -2.5754641796993383e-07, 0.00045425613643601537, 2.9598933906527236e-05, -1.153654284280492e-05, 0.015108517371118069, -0.3222580850124359, -1.1032568216323853, 0.10334444046020508, -0.44800622132887874, 0.4850555155077245, -5.146748633345604, 9362.0, 30146.0, 35388.0, 9362.0, 0, 0.13034716248512268, 0.13962280750274658, 0.06380318105220795, -0.0812300518155098, -0.01470186933875084, 1.0241738557815552, 0, 0, 0, 1.471435546875, 0.14129638671875, 1.4912109375
50366, 0.003229978494346142, -0.0034431908279657364, -0.004165650345385075, 9.790901458472945e-07, -3.851988310543675e-07, 0.000617206038441509, 3.4231383324367926e-05, -1.4055676729185507e-05, 0.017481863498687744, -0.3222629129886627, -1.103262186050415, 0.10333963483572006, -0.44841009510469715, 0.46482741101459624, -5.14775159114958, 9362.0, 30146.0, 35388.0, 9362.0, 0, -0.001911657745949924, 0.027566906064748764, -0.08615251630544662, -0.08053931593894958, -0.014885883778333664, 1.0254669189453125, 0, 0, 0, 1.481689453125, 0.1600799560546875, 1.496337890625
50376, 0.003347960999235511, -0.004722849000245333, -0.0055863866582512856, 1.3491729760062299e-06, -5.511544713954208e-07, 0.0008041663677431643, 3.979695975431241e-05, -1.9149632862536237e-05, 0.019910598173737526, -0.32227492332458496, -1.103252649307251, 0.10334185510873795, -0.4498211448410769, 0.4801081534782554, -5.143895753214865, 9362.0, 30146.0, 35388.0, 9362.0, 0, 0.14829927682876587, 0.11915208399295807, -0.15813465416431427, -0.08168594539165497, -0.019988400861620903, 1.0236095190048218, 0, 0, 0, 1.42822265625, 0.0726470947265625, 1.496337890625
50386, 0.005481061525642872, -0.005053424742072821, -0.0058977920562028885, 1.777357965693227e-06, -7.7099917916712e-07, 0.0010155981872230768, 4.589494346873835e-05, -2.482453601260204e-05, 0.02237617038190365, -0.3222578465938568, -1.103249192237854, 0.10334234684705734, -0.44550028988977575, 0.47882700029663283, -5.143918780666152, 9362.0, 30146.0, 35388.0, 9362.0, 0, 0.20455506443977356, -0.13730935752391815, -0.16829298436641693, -0.08170745521783829, -0.018120963126420975, 1.0255334377288818, 0, 0, 0, 1.3681640625, 0.0185394287109375, 1.493408203125
50396, 0.0063446746207773685, -0.0040107183158397675, -0.004663977771997452, 2.2777232970838668e-06, -1.0486096471140627e-06, 0.001251335721462965, 5.4191910749068484e-05, -3.078678128076717e-05, 0.024771733209490776, -0.3222618103027344, -1.1032702922821045, 0.10334862023591995, -0.44699624891643325, 0.4882014660036589, -5.1362686578236465, 9362.0, 30146.0, 35388.0, 9362.0, 8.370248794555664, -0.07345481961965561, -0.26862379908561707, 0.0546279139816761, -0.08392905443906784, -0.020052896812558174, 1.0244981050491333, -0.05571523681282997, 0.023120880126953125, 1.497802734375, 1.497802734375, 0.19122314453125, 1.493408203125
50406, 0.005849439650774002, -0.000845861155539751, -0.0070460219867527485, 2.8639676656894153e-06, -1.4045635907677934e-06, 0.0015111682005226612, 6.301306711975485e-05, -4.0440303564537317e-05, 0.027195164933800697, -0.32225778698921204, -1.1032463312149048, 0.10333696007728577, -0.44907869816424956, 0.48021973988124955, -5.150789691660881, 9362.0, 30146.0, 35388.0, 9362.0, 8.370248794555664, -0.20164978504180908, -0.17751960456371307, -0.1948702335357666, -0.08352859318256378, -0.01821616291999817, 1.025119423866272, -0.05571523681282997, 0.023120880126953125, 1.497802734375, 1.458984375, 0.1195831298828125, 1.493408203125
50416, 0.0054116337560117245, -0.002477488946169615, -0.00727579602971673, 3.529286004777532e-06, -1.8646411490408354e-06, 0.0017953640781342983, 6.99149095453322e-05, -5.1554347010096535e-05, 0.029644407331943512, -0.3222750425338745, -1.1032732725143433, 0.1033177524805069, -0.4460156326853397, 0.4850120738181829, -5.143866485093978, 9362.0, 30146.0, 35388.0, 9362.0, 8.370248794555664, -0.2565268874168396, 0.40862396359443665, 0.12184349447488785, -0.08033230900764465, -0.018523816019296646, 1.0277177095413208, -0.05571523681282997, 0.023120880126953125, 1.497802734375, 1.3271484375, 0.022308349609375, 1.493408203125
50426, 0.006163557060062885, -0.003147811396047473, -0.006931364070624113, 4.2358587961643934e-06, -2.4315677364938892e-06, 0.002104600425809622, 7.147248106775805e-05, -6.1811413615942e-05, 0.03220328688621521, -0.3222552239894867, -1.1032596826553345, 0.10334601253271103, -0.44374225574899173, 0.47572175466029876, -5.136872781966465, 9362.0, 30146.0, 35388.0, 9362.0, 8.370248794555664, 0.07661277800798416, -0.16985775530338287, -0.0020828598644584417, -0.08093993365764618, -0.017685934901237488, 1.0277069807052612, -0.05571523681282997, 0.023120880126953125, 1.497802734375, 1.3037109375, 0.04412841796875, 1.49267578125
50436, 0.006582765374332666, -0.005070200189948082, -0.006889509968459606, 4.972381248080637e-06, -3.097310809607734e-06, 0.0024403752759099007, 7.586419815197587e-05, -7.137322972994298e-05, 0.03495205193758011, -0.32226431369781494, -1.1032509803771973, 0.10334689170122147, -0.44722866694612773, 0.4805279811772607, -5.142695336893591, 9362.0, 30146.0, 35388.0, 9362.0, 8.370248794555664, 0.02786504104733467, 0.4501239061355591, 0.16063250601291656, -0.08312513679265976, -0.01718813367187977, 1.0241044759750366, -0.05571523681282997, 0.023120880126953125, 1.497802734375, 1.48388671875, 0.1642303466796875, 1.49267578125
50446, 0.006627545226365328, -0.008230195380747318, -0.006278252694755793, 5.758654879173264e-06, -3.865162852889625e-06, 0.0028024548664689064, 8.147474727593362e-05, -8.221552707254887e-05, 0.03746428340673447, -0.32227256894111633, -1.1032668352127075, 0.10332702845335007, -0.4498771469990266, 0.4811565958788151, -5.13845494760604, 9362.0, 30146.0, 35388.0, 9362.0, 8.370248794555664, 0.2642838656902313, 0.2585693895816803, 0.09591870754957199, -0.0817144364118576, -0.016429217532277107, 1.0254393815994263, -0.05571523681282997, 0.023120880126953125, 1.497802734375, 1.494873046875, 0.185455322265625, 1.49267578125
50456, 0.006696135271340609, -0.009911468252539635, -0.004680501762777567, 6.617863618885167e-06, -4.745057594846003e-06, 0.003189108334481716, 9.049956133821979e-05, -9.376519301440567e-05, 0.039866816252470016, -0.32226327061653137, -1.1032493114471436, 0.10333473980426788, -0.44984938992821233, 0.48263689883302163, -5.142458913524073, 9362.0, 30146.0, 35388.0, 9362.0, 8.370248794555664, -0.12135221809148788, 0.1343906968832016, 0.17547065019607544, -0.08080768585205078, -0.018654802814126015, 1.02426278591156, -0.05571523681282997, 0.023120880126953125, 1.497802734375, 1.510986328125, 0.217864990234375, 1.49267578125
50466, 0.007522727362811565, -0.010363483801484108, -0.005058076698333025, 7.595067472720984e-06, -5.740869710280094e-06, 0.0036000097170472145, 0.0001050133359967731, -0.00010539979848545045, 0.042313847690820694, -0.32225942611694336, -1.103249192237854, 0.1033388078212738, -0.4441688045712088, 0.4784865752854728, -5.132461387784623, 9362.0, 30146.0, 35388.0, 9362.0, 8.370248794555664, 0.03578775376081467, -0.2604670524597168, 0.2760906517505646, -0.08240976929664612, -0.017909910529851913, 1.0258867740631104, -0.05571523681282997, 0.023120880126953125, 1.497802734375, 1.534423828125, 0.267578125, 1.491943359375
50476, 0.0076873223297297955, -0.008947093971073627, -0.004136727191507816, 8.732158676139079e-06, -6.8536264734575525e-06, 0.004035356920212507, 0.00012242408411111683, -0.00011718682799255475, 0.044756002724170685, -0.3222653269767761, -1.1032592058181763, 0.10335011035203934, -0.44994530017167417, 0.48215919713814515, -5.145456068716608, 9362.0, 30146.0, 35388.0, 9362.0, 8.370248794555664, 0.05262856185436249, 0.21115809679031372, -0.03466532379388809, -0.08039087802171707, -0.016706958413124084, 1.0259634256362915, -0.05571523681282997, 0.023120880126953125, 1.497802734375, 1.37548828125, 0.021820068359375, 1.491943359375
50486, 0.008178776130080223, -0.00973872747272253, -0.0022526157554239035, 1.0047492651210632e-05, -8.091630661510862e-06, 0.004496068228036165, 0.00014057794760446995, -0.00013042120554018766, 0.04738662764430046, -0.3222593069076538, -1.1032487154006958, 0.10336434841156006, -0.45190986153899554, 0.47510767712677193, -5.140232376001686, 9362.0, 30146.0, 35388.0, 9362.0, 8.370248794555664, 0.110847108066082, 0.19366158545017242, 0.024087712168693542, -0.0800478532910347, -0.01586262695491314, 1.025132179260254, -0.05571523681282997, 0.023120880126953125, 1.497802734375, 1.5498046875, 0.3014678955078125, 1.493408203125
50496, 0.007922393269836903, -0.009800425730645657, -0.0013542143860831857, 1.1531789823493455e-05, -9.463315109314863e-06, 0.004982281941920519, 0.00015631610585842282, -0.0001439363113604486, 0.04985648766160011, -0.3222697377204895, -1.1032626628875732, 0.10334606468677521, -0.45268470096690794, 0.48182106265696234, -5.140277167361708, 9362.0, 30146.0, 35388.0, 9362.0, 8.370248794555664, 0.1266472488641739, -0.024491405114531517, -0.007253861986100674, -0.0780099555850029, -0.016157371923327446, 1.0237846374511719, -0.05309726670384407, -0.10231781005859375, 1.487548828125, 1.53369140625, 0.265960693359375, 1.493408203125
50506, 0.008007118478417397, -0.008052381686866283, -0.0011304245563223958, 1.3180349924368784e-05, -1.0974404176522512e-05, 0.005492792464792728, 0.00017339878831990063, -0.00015827051538508385, 0.05224600061774254, -0.3222549855709076, -1.1032472848892212, 0.10336097329854965, -0.44883323475775794, 0.47932899264503703, -5.150329644097211, 9362.0, 30146.0, 35388.0, 9362.0, 8.370248794555664, -0.14583291113376617, -0.3604886829853058, 0.14167611300945282, -0.082085981965065, -0.01763204112648964, 1.0236843824386597, -0.05309726670384407, -0.10231781005859375, 1.487548828125, 1.509521484375, 0.2148895263671875, 1.494140625
50516, 0.008335665799677372, -0.00729560200124979, -0.0006417061085812747, 1.5000212442828342e-05, -1.2626531315618195e-05, 0.00602680491283536, 0.0001905032549984753, -0.00017215822299476713, 0.05455687269568443, -0.3222559690475464, -1.1032524108886719, 0.10333871096372604, -0.44624931206190593, 0.4832413550809349, -5.140101740063612, 9362.0, 30146.0, 35388.0, 9362.0, 8.370248794555664, 0.28235331177711487, 0.0388391837477684, 0.14532902836799622, -0.08138349652290344, -0.01624768227338791, 1.0246092081069946, -0.05309726670384407, -0.10231781005859375, 1.487548828125, 1.307373046875, 0.039581298828125, 1.494140625
50526, 0.007971352897584438, -0.00799454003572464, -0.0005109109915792942, 1.6975845937849954e-05, -1.441832137061283e-05, 0.006584241054952145, 0.00020459237566683441, -0.0001862132194219157, 0.056930769234895706, -0.32226067781448364, -1.1032521724700928, 0.1033502072095871, -0.44469893330815546, 0.47683314119015563, -5.150890023389372, 9362.0, 30146.0, 35388.0, 9362.0, 8.370248794555664, -0.20231366157531738, 0.0974883884191513, 0.02415544167160988, -0.0806107372045517, -0.015554134733974934, 1.0256929397583008, -0.05309726670384407, -0.10231781005859375, 1.487548828125, 1.27587890625, 0.092620849609375, 1.48974609375
50536, 0.008565598167479038, -0.00972861796617508, 0.0007111256127245724, 1.9085822714259848e-05, -1.635363878449425e-05, 0.0071660908870399, 0.00021743356774095446, -0.00020083437266293913, 0.059439610689878464, -0.3222511410713196, -1.1032531261444092, 0.10333895683288574, -0.4530619033507074, 0.47662131184608825, -5.143537249038913, 9362.0, 30146.0, 35388.0, 9362.0, 8.370248794555664, 0.21091115474700928, 0.20505131781101227, 0.29893115162849426, -0.07734735310077667, -0.015026880428195, 1.025409460067749, -0.05309726670384407, -0.10231781005859375, 1.487548828125, 1.543212890625, 0.286834716796875, 1.48974609375
50546, 0.00851950142532587, -0.008441329002380371, 0.0010017631575465202, 2.1330331946955994e-05, -1.8431954231346026e-05, 0.00777291227132082, 0.0002315436868229881, -0.000214854022487998, 0.06192506477236748, -0.3222529888153076, -1.103258490562439, 0.1033167615532875, -0.45369463739057225, 0.48272853526376025, -5.137440639799305, 9362.0, 30146.0, 35388.0, 9362.0, 8.370248794555664, 0.05730626732110977, -0.34470096230506897, -0.02779683656990528, -0.07922982424497604, -0.018043063580989838, 1.0262302160263062, -0.05309726670384407, -0.10231781005859375, 1.487548828125, 1.51904296875, 0.2346954345703125, 1.49267578125
50556, 0.0071548521518707275, -0.01087228860706091, 0.001504884217865765, 2.3731234250590205e-05, -2.0655741536756977e-05, 0.008405002765357494, 0.0002485793665982783, -0.00022990131401456892, 0.06449339538812637, -0.322250634431839, -1.1032562255859375, 0.10331926494836807, -0.44683577582254, 0.47449754580151193, -5.138463843773464, 9362.0, 30146.0, 35388.0, 9362.0, 8.370248794555664, -0.1280796378850937, 0.29787394404411316, 0.20475079119205475, -0.08215049654245377, -0.019050614908337593, 1.0272855758666992, -0.05309726670384407, -0.10231781005859375, 1.487548828125, 1.534423828125, 0.267578125, 1.49267578125
50566, 0.009110444225370884, -0.014532185159623623, 0.0014553733635693789, 2.62912581092678e-05, -2.3029670046526007e-05, 0.009063266217708588, 0.0002635385899338871, -0.00024482066510245204, 0.06715962290763855, -0.3222498893737793, -1.1032434701919556, 0.10338181257247925, -0.44365852889422003, 0.47207382601217773, -5.139839932248468, 9362.0, 30146.0, 35388.0, 9362.0, 8.370248794555664, 0.19899138808250427, 0.28157708048820496, -0.1029767394065857, -0.08271512389183044, -0.01757924258708954, 1.0267752408981323, -0.05309726670384407, -0.10231781005859375, 1.487548828125, 1.39453125, 0.035003662109375, 1.493408203125
50576, 0.007238077465444803, -0.016490494832396507, 0.0016743723535910249, 2.902230880863499e-05, -2.5540828573866747e-05, 0.009748497977852821, 0.00028284575091674924, -0.0002575041144154966, 0.06988715380430222, -0.32223689556121826, -1.1032514572143555, 0.10335448384284973, -0.44673599887770565, 0.4801344560522409, -5.136848197363783, 9362.0, 30146.0, 35388.0, 9362.0, 8.370248794555664, -0.07010913640260696, 0.044768981635570526, -0.013729388825595379, -0.08113895356655121, -0.01871245913207531, 1.0252926349639893, -0.05309726670384407, -0.10231781005859375, 1.487548828125, 1.546875, 0.2949676513671875, 1.493408203125
50586, 0.007306708488613367, -0.014848587103188038, 0.001291335909627378, 3.197835394530557e-05, -2.8195852792123333e-05, 0.010459903627634048, 0.00030844929278828204, -0.00027341870008967817, 0.07239435613155365, -0.32226184010505676, -1.1032490730285645, 0.10333302617073059, -0.44604804821541344, 0.47559308284490953, -5.141547365290731, 9362.0, 30146.0, 35388.0, 9362.0, 8.370248794555664, 0.05507728084921837, -0.17980127036571503, -0.01730256900191307, -0.08302412182092667, -0.017669077962636948, 1.0249814987182617, -0.05309726670384407, -0.10231781005859375, 1.487548828125, 1.48095703125, 0.1587677001953125, 1.493408203125
50596, 0.007710251957178116, -0.012743592262268066, 0.0002916236117016524, 3.520756581565365e-05, -3.099355672020465e-05, 0.011196165345609188, 0.0003373226209077984, -0.0002861250250134617, 0.07485833764076233, -0.32224059104919434, -1.1032495498657227, 0.10335969924926758, -0.44562402996083356, 0.473300102781792, -5.140875657125026, 9362.0, 30146.0, 35388.0, 9362.0, 8.370248794555664, -0.23216356337070465, -0.13250719010829926, -0.3209919333457947, -0.07986123114824295, -0.018331971019506454, 1.0235410928726196, -0.09267088025808334, -0.11127853393554688, 1.48681640625, 1.263427734375, 0.1233062744140625, 1.493408203125
50606, 0.007060997188091278, -0.013231378979980946, -0.0019222316332161427, 3.87110048905015e-05, -3.391888094483875e-05, 0.011956699192523956, 0.00036327767884358764, -0.0002989568456541747, 0.07724879682064056, -0.3222517967224121, -1.1032493114471436, 0.10335300862789154, -0.4556736492558332, 0.4781833145376311, -5.145696117975616, 9362.0, 30146.0, 35388.0, 9362.0, 8.370248794555664, -0.12269067019224167, 0.4171085059642792, 0.1275412142276764, -0.07908401638269424, -0.01813160628080368, 1.0247342586517334, -0.09267088025808334, -0.11127853393554688, 1.48681640625, 1.54541015625, 0.291656494140625, 1.491943359375
50616, 0.006286518648266792, -0.013816850259900093, 0.0010642418637871742, 4.2455467337276787e-05, -3.69760200555902e-05, 0.012740823440253735, 0.00038563384441658854, -0.00031244565616361797, 0.07957649976015091, -0.3222586512565613, -1.1032589673995972, 0.10333962738513947, -0.445268936371014, 0.47853484744845787, -5.1467763974220135, 9362.0, 30146.0, 35388.0, 9362.0, 8.370248794555664, -0.12764976918697357, -0.1816893070936203, 0.4045419991016388, -0.08152250945568085, -0.01553357020020485, 1.0264992713928223, -0.09267088025808334, -0.11127853393554688, 1.48681640625, 1.51904296875, 0.2346954345703125, 1.491943359375
50626, 0.005900644697248936, -0.013648861087858677, 0.0008803298696875572, 4.642804924515076e-05, -4.016251477878541e-05, 0.01354946382343769, 0.00040890948730520904, -0.0003248174616601318, 0.08215202391147614, -0.32225170731544495, -1.1032612323760986, 0.10333625972270966, -0.455794956833253, 0.4746102827975278, -5.145671683765423, 9362.0, 30146.0, 35388.0, 9362.0, 8.370248794555664, -0.06045740097761154, -0.10974130779504776, 0.08982820808887482, -0.08342822641134262, -0.01545027457177639, 1.0256311893463135, -0.09267088025808334, -0.11127853393554688, 1.48681640625, 1.5380859375, 0.2755889892578125, 1.494140625
50636, 0.006054602563381195, -0.012948298826813698, -0.00018409285985399038, 5.063852950115688e-05, -4.346591595094651e-05, 0.014383837580680847, 0.00043317890958860517, -0.00033584542688913643, 0.08472318947315216, -0.32224684953689575, -1.1032449007034302, 0.10334204137325287, -0.4413947697463738, 0.4796125904215103, -5.15011129661527, 9362.0, 30146.0, 35388.0, 9362.0, 8.370248794555664, -0.038920119404792786, 0.12305205315351486, -0.05030849948525429, -0.08112358301877975, -0.016427703201770782, 1.0255733728408813, -0.09267088025808334, -0.11127853393554688, 1.48681640625, 1.351318359375, 0.0153350830078125, 1.494140625
50646, 0.006178510840982199, -0.014957016333937645, -0.0017550381598994136, 5.509014590643346e-05, -4.687617183662951e-05, 0.015243589878082275, 0.0004571139579638839, -0.00034621302620507777, 0.08722757548093796, -0.32226067781448364, -1.103251576423645, 0.10334361344575882, -0.450128080742279, 0.4844490842439768, -5.144260206290982, 9362.0, 30146.0, 35388.0, 9362.0, 8.370248794555664, -0.061258770525455475, 0.08928580582141876, -0.29912781715393066, -0.08179657906293869, -0.01559063233435154, 1.02545166015625, -0.09267088025808334, -0.11127853393554688, 1.48681640625, 1.521240234375, 0.2393646240234375, 1.494140625
50656, 0.0061852284707129, -0.014851285144686699, -0.002707876032218337, 5.97749458393082e-05, -5.0391448894515634e-05, 0.016128303483128548, 0.0004799326998181641, -0.00035684843896888196, 0.08971566706895828, -0.32225868105888367, -1.103249430656433, 0.103337861597538, -0.44926320578359863, 0.4733394445503336, -5.142348641021871, 9362.0, 30146.0, 35388.0, 9362.0, 8.370248794555664, -0.050280582159757614, -0.15614241361618042, -0.36864039301872253, -0.08008238673210144, -0.016911493614315987, 1.025132179260254, -0.09267088025808334, -0.11127853393554688, 1.48681640625, 1.481689453125, 0.1600799560546875, 1.494140625
50666, 0.006018908228725195, -0.015820572152733803, -0.004109220579266548, 6.470556400017813e-05, -5.4014170018490404e-05, 0.01703789085149765, 0.000506185635458678, -0.00036769674625247717, 0.09220238775014877, -0.3222496509552002, -1.1032627820968628, 0.10331794619560242, -0.4477528171856738, 0.4786308451108141, -5.145191118409293, 9362.0, 30146.0, 35388.0, 9362.0, 8.370248794555664, -0.24819187819957733, -0.06068378686904907, 0.024048371240496635, -0.08093917369842529, -0.01684722863137722, 1.02675461769104, -0.09267088025808334, -0.11127853393554688, 1.48681640625, 1.43408203125, 0.080810546875, 1.497802734375
50676, 0.004969766829162836, -0.015838956460356712, -0.004029504023492336, 6.989780376898125e-05, -5.7745444792089984e-05, 0.01797243021428585, 0.000532303936779499, -0.0003785516892094165, 0.09470580518245697, -0.32225874066352844, -1.1032524108886719, 0.1033216044306755, -0.4558564695613128, 0.47946663930753175, -5.142850369203498, 9362.0, 30146.0, 35388.0, 9362.0, 8.370248794555664, -0.15462243556976318, 0.12361437827348709, 0.16258643567562103, -0.08320637792348862, -0.01780189946293831, 1.0264596939086914, -0.09267088025808334, -0.11127853393554688, 1.48681640625, 1.531494140625, 0.26129150390625, 1.497802734375
50686, 0.004400050733238459, -0.01724921353161335, -0.0032698677387088537, 7.535987970186397e-05, -6.158386531751603e-05, 0.018932528793811798, 0.0005601116572506726, -0.00038908529677428305, 0.09731420129537582, -0.3222530782222748, -1.103258490562439, 0.10332620143890381, -0.445710876073331, 0.4794136856895648, -5.144048788775537, 9362.0, 30146.0, 35388.0, 9362.0, 8.370248794555664, 0.08034773170948029, 0.23658029735088348, 0.1615191400051117, -0.08095776289701462, -0.01705438643693924, 1.0240403413772583, -0.09267088025808334, -0.11127853393554688, 1.48681640625, 1.462646484375, 0.125823974609375, 1.496337890625
50696, 0.006002475973218679, -0.015465009957551956, -0.00421612523496151, 8.110006456263363e-05, -6.551836122525856e-05, 0.01991824433207512, 0.0005879871896468103, -0.0003977891174145043, 0.09982933849096298, -0.32225501537323, -1.1032626628875732, 0.10333068668842316, -0.44992039499448155, 0.4842581725272055, -5.138845526608806, 9362.0, 30146.0, 35388.0, 9362.0, 8.370248794555664, 0.26434484124183655, -0.15248870849609375, -0.15815149247646332, -0.08113668859004974, -0.014188827015459538, 1.0265181064605713, -0.059180960059165955, -0.08439826965332031, 1.489013671875, 1.552001953125, 0.3063201904296875, 1.496337890625
50706, 0.006425310391932726, -0.01368735171854496, -0.0035222095903009176, 8.713130955584347e-05, -6.953487172722816e-05, 0.020928842946887016, 0.0006181846256367862, -0.00040558274486102164, 0.10229071229696274, -0.3222459554672241, -1.1032463312149048, 0.1033378317952156, -0.4489285610070342, 0.4752793797636343, -5.152230238580075, 9362.0, 30146.0, 35388.0, 9362.0, 8.370248794555664, -0.006329379975795746, -0.07054556161165237, 0.09988809376955032, -0.08272538334131241, -0.01753220334649086, 1.025724172592163, -0.059180960059165955, -0.08439826965332031, 1.489013671875, 1.23779296875, 0.2061920166015625, 1.483154296875
50716, 0.006347685120999813, -0.016261348500847816, -0.002246630610898137, 9.344897262053564e-05, -7.364342309301719e-05, 0.02196444943547249, 0.0006452694651670754, -0.00041614644578658044, 0.10483089834451675, -0.3222685754299164, -1.1032546758651733, 0.10333104431629181, -0.44201903428718947, 0.4740114397684181, -5.141209559576596, 9362.0, 30146.0, 35388.0, 9362.0, 8.370248794555664, -0.0784519612789154, 0.5381686091423035, 0.19887109100818634, -0.07996411621570587, -0.019273677840828896, 1.0253936052322388, -0.059180960059165955, -0.08439826965332031, 1.489013671875, 1.4853515625, 0.1669921875, 1.483154296875
50726, 0.006968237459659576, -0.01482244674116373, -0.0038816474843770266, 0.00010002189810620621, -7.78613321017474e-05, 0.023025551810860634, 0.0006694303010590374, -0.00042743212543427944, 0.10739006847143173, -0.32225292921066284, -1.1032435894012451, 0.10337314754724503, -0.44705629104875555, 0.4808078192195069, -5.143826580883072, 9362.0, 30146.0, 35388.0, 9362.0, 8.370248794555664, -0.11481945961713791, -0.2321179062128067, -0.12906694412231445, -0.08038777112960815, -0.015384838916361332, 1.0247894525527954, -0.059180960059165955, -0.08439826965332031, 1.489013671875, 1.385009765625, 0.0276336669921875, 1.491943359375
50736, 0.008354919031262398, -0.015262958593666553, -0.00508193438872695, 0.00010685880261007696, -8.219132723752409e-05, 0.024111412465572357, 0.0006978906458243728, -0.0004385932697914541, 0.10978250950574875, -0.322247177362442, -1.103253960609436, 0.1033359169960022, -0.44994225038214675, 0.4797386706609075, -5.142063734296743, 9362.0, 30146.0, 35388.0, 9362.0, 8.370248794555664, 0.22445587813854218, -0.0518205426633358, -0.17207220196723938, -0.08028819411993027, -0.015065113082528114, 1.0256789922714233, -0.059180960059165955, -0.08439826965332031, 1.489013671875, 1.5322265625, 0.2628021240234375, 1.491943359375
50746, 0.008507327176630497, -0.0166802778840065, -0.004726239945739508, 0.00011396779154893011, -8.663842891110107e-05, 0.02522159554064274, 0.0007239265833050013, -0.0004508867277763784, 0.11225443333387375, -0.32227015495300293, -1.1032605171203613, 0.10327721387147903, -0.44033165944750485, 0.49008450025232264, -5.146043307744345, 9362.0, 30146.0, 35388.0, 9362.0, 8.370248794555664, -0.03805796429514885, 0.28251877427101135, 0.14314152300357819, -0.08032899349927902, -0.015363050624728203, 1.023491382598877, -0.059180960059165955, -0.08439826965332031, 1.489013671875, 1.491943359375, 0.179656982421875, 1.49267578125
50756, 0.008111999370157719, -0.014828873798251152, -0.003995186649262905, 0.00012134091230109334, -9.122058690991253e-05, 0.026356147602200508, 0.0007507571717724204, -0.0004655505472328514, 0.1146562322974205, -0.3222222626209259, -1.1032229661941528, 0.10322593152523041, -0.41749815604046725, 0.5181195414605781, -5.141316924487596, 9362.0, 30146.0, 35388.0, 9362.0, 8.370248794555664, -0.04228407144546509, -0.271610826253891, 0.00720784068107605, -0.08282957226037979, -0.01642506942152977, 1.0256597995758057, -0.059180960059165955, -0.08439826965332031, 1.489013671875, 1.518310546875, 0.2331390380859375, 1.49267578125
50766, 0.007793507073074579, -0.014200115576386452, -0.0036062204744666815, 0.00012899476860184222, -9.595071605872363e-05, 0.027514707297086716, 0.0007799367303960025, -0.00048045828589238226, 0.11705619841814041, -0.3222460448741913, -1.1032377481460571, 0.10321380198001862, -0.4149076679795978, 0.5249000492655966, -5.151071665851488, 9362.0, 30146.0, 35388.0, 9362.0, 8.370248794555664, -0.1574418842792511, -0.012602121569216251, -0.04297315701842308, -0.08392252773046494, -0.016113927587866783, 1.026571273803711, -0.059180960059165955, -0.08439826965332031, 1.489013671875, 1.512451171875, 0.2209625244140625, 1.49560546875
50776, 0.008014434017241001, -0.01481069065630436, -0.0004690444329753518, 0.00013692441279999912, -0.00010082657536258921, 0.028698157519102097, 0.0008059642859734595, -0.0004946996923536062, 0.11963430047035217, -0.32223108410835266, -1.103219985961914, 0.10325083881616592, -0.42106061179666804, 0.5083835719926242, -5.143493200607369, 9362.0, 30146.0, 35388.0, 9362.0, 8.370248794555664, 0.2147742658853531, -0.1615651696920395, 0.25800901651382446, -0.0813160240650177, -0.016684945672750473, 1.023249626159668, -0.059180960059165955, -0.08439826965332031, 1.489013671875, 1.47509765625, 0.147857666015625, 1.49560546875
50786, 0.008462522178888321, -0.014960089698433876, 0.0013932366855442524, 0.0001451086427550763, -0.00010584195842966437, 0.02990671433508396, 0.0008309086551889777, -0.0005083854193799198, 0.12207755446434021, -0.32226407527923584, -1.1032438278198242, 0.10324213653802872, -0.4279997337943902, 0.5168022317274676, -5.143321740730213, 9362.0, 30146.0, 35388.0, 9362.0, 8.370248794555664, 0.016001299023628235, -0.031747348606586456, 0.114833764731884, -0.08213244378566742, -0.01822924055159092, 1.0250757932662964, -0.059180960059165955, -0.08439826965332031, 1.489013671875, 1.53662109375, 0.27239990234375, 1.494140625
50796, 0.009404673241078854, -0.013624189421534538, 0.0030248549301177263, 0.00015354756033048034, -0.00011099606490461156, 0.031139226630330086, 0.0008568803314119577, -0.0005224535125307739, 0.12442532181739807, -0.3222566545009613, -1.1032438278198242, 0.10324309021234512, -0.4205505342404127, 0.50782516341107, -5.149642774411486, 9362.0, 30146.0, 35388.0, 9362.0, 8.370248794555664, 0.06321675330400467, -0.1503826081752777, -0.017945071682333946, -0.08283674716949463, -0.017289897426962852, 1.0279096364974976, -0.0417049340903759, 0.04104042053222656, 1.499267578125, 1.51318359375, 0.2224273681640625, 1.494140625
50806, 0.008176679722964764, -0.013130823150277138, 0.0028198123909533024, 0.0001622478594072163, -0.00011629497748799622, 0.0323965810239315, 0.0008831184823065996, -0.0005373713793233037, 0.12704619765281677, -0.3222711682319641, -1.103259563446045, 0.10320080071687698, -0.4351004942043233, 0.5099149306668664, -5.147327713514715, 9362.0, 30146.0, 35388.0, 9362.0, 8.370248794555664, -0.07195378839969635, 0.012085557915270329, -0.1290590614080429, -0.08366710692644119, -0.017837654799222946, 1.0281000137329102, -0.0417049340903759, 0.04104042053222656, 1.499267578125, 1.4150390625, 0.05596923828125, 1.4912109375
50816, 0.007966576144099236, -0.01224641501903534, 0.0034465142525732517, 0.00017119898984674364, -0.00012175147276138887, 0.03368092328310013, 0.0009070824016816914, -0.0005538687692023814, 0.12982237339019775, -0.3222561478614807, -1.1032432317733765, 0.10323891043663025, -0.43281742205764345, 0.5036140209365385, -5.142543972499604, 9362.0, 30146.0, 35388.0, 9362.0, 8.370248794555664, 0.08985308557748795, -0.06925947219133377, -0.20477448403835297, -0.08058520406484604, -0.015254601836204529, 1.0286695957183838, -0.0417049340903759, 0.04104042053222656, 1.499267578125, 1.47802734375, 0.1532745361328125, 1.4912109375
50836, 0.00930879544466734, -0.014337248168885708, 0.004079692997038364, 0.00017119898984674364, -0.00012175147276138887, 0.03368092328310013, 0.0009070824016816914, -0.0005538687692023814, 0.12982237339019775, -0.3222549259662628, -1.103239893913269, 0.1032656580209732, -0.42749195096945525, 0.50091490603441, -5.141299195195239, 9362.0, 30146.0, 35388.0, 9362.0, 8.370248794555664, -0.11794249713420868, -0.030765792354941368, 0.17440557479858398, -0.08208068460226059, -0.017460647970438004, 1.023635983467102, -0.0417049340903759, 0.04104042053222656, 1.499267578125, 1.22021484375, 0.2799530029296875, 1.487548828125
50846, 0.009528818540275097, -0.011713330633938313, 0.001779367565177381, 0.00017119898984674364, -0.00012175147276138887, 0.03368092328310013, 0.0009070824016816914, -0.0005538687692023814, 0.12982237339019775, -0.322272926568985, -1.1032525300979614, 0.10323012620210648, -0.4277658019855529, 0.5022925579410753, -5.141775871148111, 9362.0, 30146.0, 35388.0, 9362.0, 8.370248794555664, -0.04797833785414696, -0.10246025025844574, -0.17946365475654602, -0.08208068460226059, -0.017460647970438004, 1.023635983467102, -0.0417049340903759, 0.04104042053222656, 1.499267578125, 1.22021484375, 0.2799530029296875, 1.493408203125
50856, 0.009837500751018524, -0.011686081066727638, 0.0020026322454214096, 0.00017119898984674364, -0.00012175147276138887, 0.03368092328310013, 0.0009070824016816914, -0.0005538687692023814, 0.12982237339019775, -0.3222615718841553, -1.1032588481903076, 0.10323552042245865, -0.4314823786442997, 0.5060329719256913, -5.146037500746106, 9362.0, 30146.0, 35388.0, 9362.0, 8.370248794555664, 0.05768924579024315, -0.24978946149349213, -0.17378868162631989, -0.08321761339902878, -0.016225900501012802, 1.0262296199798584, -0.0417049340903759, 0.04104042053222656, 1.499267578125, 1.22021484375, 0.2799530029296875, 1.493408203125
50866, 0.009658203460276127, -0.01135277096182108, 0.002471746178343892, 0.00017119898984674364, -0.00012175147276138887, 0.03368092328310013, 0.0009070824016816914, -0.0005538687692023814, 0.12982237339019775, -0.32223954796791077, -1.1032359600067139, 0.10326533019542694, -0.4342994765477933, 0.504358531176166, -5.147640662454816, 9362.0, 30146.0, 35388.0, 9362.0, 8.370248794555664, -0.1788574457168579, 0.15619944036006927, 0.0395883210003376, -0.08125001192092896, -0.01732805371284485, 1.0250402688980103, -0.0417049340903759, 0.04104042053222656, 1.499267578125, 1.22021484375, 0.2799530029296875, 1.493408203125
50876, 0.0083479518070817, -0.008915052749216557, 0.0038318284787237644, 0.00022971161524765193, -0.00015769893070682883, 0.04194306954741478, 0.0010409954702481627, -0.0006482611643150449, 0.145257830619812, -0.3222561776638031, -1.1032419204711914, 0.10325750708580017, -0.43543598563452274, 0.5063044960833167, -5.146359154482759, 9362.0, 30146.0, 35388.0, 9362.0, 8.370248794555664, -0.10050676017999649, -0.2967788875102997, -0.03677015006542206, -0.08001718670129776, -0.018345994874835014, 1.0257389545440674, -0.0417049340903759, 0.04104042053222656, 1.499267578125, 1.283203125, 0.0772247314453125, 1.493408203125
50886, 0.00935300998389721, -0.00844475720077753, 0.0027262952644377947, 0.00022971161524765193, -0.00015769893070682883, 0.04194306954741478, 0.0010409954702481627, -0.0006482611643150449, 0.145257830619812, -0.32226163148880005, -1.1032482385635376, 0.1032455638051033, -0.421821681355828, 0.5069247852511864, -5.141040226399449, 9362.0, 30146.0, 35388.0, 9362.0, 8.370248794555664, 0.16598016023635864, 0.23719821870326996, -0.1528540998697281, -0.08294402807950974, -0.016625093296170235, 1.025938630104065, -0.0417049340903759, 0.04104042053222656, 1.499267578125, 1.259033203125, 0.135589599609375, 1.493408203125
50906, 0.009897108189761639, -0.013001734390854836, 0.0016891087871044874, 0.00022971161524765193, -0.00015769893070682883, 0.04194306954741478, 0.0010409954702481627, -0.0006482611643150449, 0.145257830619812, -0.32224181294441223, -1.1032414436340332, 0.10325197130441666, -0.4336416852831301, 0.511679856101523, -5.135782399824697, 9362.0, 30146.0, 35388.0, 9362.0, 8.370248794555664, -0.133097842335701, 0.3005004823207855, 0.07846512645483017, -0.08283588290214539, -0.019228972494602203, 1.0263539552688599, -0.06497752666473389, 0.0052013397216796875, 1.496337890625, 1.354248046875, 0.0154266357421875, 1.5
50916, 0.009335441514849663, -0.013850187882781029, 0.0015777722001075745, 0.00022971161524765193, -0.00015769893070682883, 0.04194306954741478, 0.0010409954702481627, -0.0006482611643150449, 0.145257830619812, -0.32225915789604187, -1.1032451391220093, 0.10325206816196442, -0.42926551709116123, 0.5013843913544349, -5.146165156413893, 9362.0, 30146.0, 35388.0, 9362.0, 8.370248794555664, 0.021198099479079247, 0.0840296745300293, -0.10972840338945389, -0.08083419501781464, -0.019090700894594193, 1.025315284729004, -0.06497752666473389, 0.0052013397216796875, 1.496337890625, 1.354248046875, 0.0154266357421875, 1.5
50926, 0.00908892136067152, -0.014468581415712833, 0.001555723836645484, 0.00022971161524765193, -0.00015769893070682883, 0.04194306954741478, 0.0010409954702481627, -0.0006482611643150449, 0.145257830619812, -0.32226863503456116, -1.1032487154006958, 0.10323463380336761, -0.43187065440145966, 0.5055527335457839, -5.15050454835601, 9362.0, 30146.0, 35388.0, 9362.0, 8.370248794555664, -0.018824094906449318, 0.008619281463325024, 0.03458326309919357, -0.08067435026168823, -0.018904870375990868, 1.025173306465149, -0.06497752666473389, 0.0052013397216796875, 1.496337890625, 1.396728515625, 0.0370025634765625, 1.5
50936, 0.010366925038397312, -0.013660264201462269, 0.0011755689047276974, 0.00022971161524765193, -0.00015769893070682883, 0.04194306954741478, 0.0010409954702481627, -0.0006482611643150449, 0.145257830619812, -0.3222568929195404, -1.1032370328903198, 0.10324964672327042, -0.4269979802620684, 0.5020568264415317, -5.145990806630625, 9362.0, 30146.0, 35388.0, 9362.0, 8.370248794555664, 0.00804261676967144, 0.04939654469490051, -0.10427037626504898, -0.08077775686979294, -0.01836167275905609, 1.024721622467041, -0.06497752666473389, 0.0052013397216796875, 1.496337890625, 1.396728515625, 0.0370025634765625, 1.5
50956, 0.008576122112572193, -0.014345801435410976, -0.00045397705980576575, 0.0003190470451954752, -0.0002147928753402084, 0.05437644198536873, 0.0012061974266543984, -0.0007810278329998255, 0.1653214544057846, -0.32224562764167786, -1.103246808052063, 0.1032586619257927, -0.4311863525362141, 0.5144496670406511, -5.138126464662843, 9362.0, 30146.0, 35388.0, 9362.0, 8.370248794555664, -0.0613812580704689, -0.05286943539977074, -0.16464075446128845, -0.08178982138633728, -0.01733672246336937, 1.0275650024414062, -0.06497752666473389, 0.0052013397216796875, 1.496337890625, 1.396728515625, 0.0370025634765625, 1.4912109375
50966, 0.009147456847131252, -0.014339640736579895, -0.002118804957717657, 0.0003190470451954752, -0.0002147928753402084, 0.05437644198536873, 0.0012061974266543984, -0.0007810278329998255, 0.1653214544057846, -0.3222523629665375, -1.1032447814941406, 0.10325590521097183, -0.4225477583205904, 0.5063946573112901, -5.145718325694086, 9362.0, 30146.0, 35388.0, 9362.0, 8.370248794555664, 0.07815182209014893, -0.14764460921287537, -0.21198377013206482, -0.08152429759502411, -0.019656414166092873, 1.0263887643814087, -0.06497752666473389, 0.0052013397216796875, 1.496337890625, 1.396728515625, 0.0370025634765625, 1.4912109375
50976, 0.009266676381230354, -0.015204048715531826, -0.0015750097809359431, 0.0003190470451954752, -0.0002147928753402084, 0.05437644198536873, 0.0012061974266543984, -0.0007810278329998255, 0.1653214544057846, -0.32224902510643005, -1.1032493114471436, 0.10324494540691376, -0.42695547925134186, 0.5051255062693656, -5.146003520212635, 9362.0, 30146.0, 35388.0, 9362.0, 8.370248794555664, -0.0733400359749794, 0.2597130835056305, 0.2735674977302551, -0.08197250217199326, -0.017886817455291748, 1.0256555080413818, -0.06497752666473389, 0.0052013397216796875, 1.496337890625, 1.396728515625, 0.0370025634765625, 1.4912109375
50986, 0.009125248529016972, -0.016322441399097443, 0.00013258626859169453, 0.0003190470451954752, -0.0002147928753402084, 0.05437644198536873, 0.0012061974266543984, -0.0007810278329998255, 0.1653214544057846, -0.322252094745636, -1.1032449007034302, 0.10323093086481094, -0.42880621567437793, 0.507425100047243, -5.14532398824576, 9362.0, 30146.0, 35388.0, 9362.0, 8.370248794555664, 0.11910266429185867, 0.0870983898639679, 0.23793348670005798, -0.0799202248454094, -0.016701260581612587, 1.0238200426101685, -0.06497752666473389, 0.0052013397216796875, 1.496337890625, 1.396728515625, 0.0370025634765625, 1.4912109375
51006, 0.008359518833458424, -0.014914237894117832, 0.0017812135629355907, 0.0003692980681080371, -0.0002473281929269433, 0.06119798123836517, 0.001307967584580183, -0.0008454311173409224, 0.17555753886699677, -0.32224687933921814, -1.1032379865646362, 0.10321807861328125, -0.425882116058327, 0.5118190551845885, -5.146267856560366, 9362.0, 30146.0, 35388.0, 9362.0, 8.370248794555664, 0.012011948972940445, -0.02446872927248478, 0.18805809319019318, -0.0815349668264389, -0.018130572512745857, 1.026391625404358, -0.06497752666473389, 0.0052013397216796875, 1.496337890625, 1.396728515625, 0.0370025634765625, 1.493408203125
51036, 0.008160267025232315, -0.02005573734641075, 0.0028687315061688423, 0.0003960170433856547, -0.000264545000391081, 0.06475807726383209, 0.0013626905856654048, -0.0008751346031203866, 0.18053488433361053, -0.32225021719932556, -1.1032302379608154, 0.10322488844394684, -0.41552213512962355, 0.5230997472628189, -5.136186730989781, 9362.0, 30146.0, 35388.0, 9362.0, 8.370248794555664, -0.08770209550857544, 0.5263069272041321, 0.2437487244606018, -0.08030971884727478, -0.017137501388788223, 1.0260307788848877, -0.06497752666473389, 0.0052013397216796875, 1.496337890625, 1.497802734375, 0.19122314453125, 1.493408203125
51046, 0.009369432926177979, -0.020332150161266327, 0.001705518807284534, 0.0003960170433856547, -0.000264545000391081, 0.06475807726383209, 0.0013626905856654048, -0.0008751346031203866, 0.18053488433361053, -0.32223784923553467, -1.103238582611084, 0.10321026295423508, -0.4205123711340302, 0.5149348808667469, -5.140107082837449, 9362.0, 30146.0, 35388.0, 9362.0, 8.370248794555664, 0.05541541054844856, -0.22037659585475922, -0.1897122710943222, -0.081703320145607, -0.017293566837906837, 1.0280324220657349, -0.06497752666473389, 0.0052013397216796875, 1.496337890625, 1.497802734375, 0.19122314453125, 1.494873046875
51056, 0.01017293706536293, -0.02045889012515545, 0.0030517003033310175, 0.0003960170433856547, -0.000264545000391081, 0.06475807726383209, 0.0013626905856654048, -0.0008751346031203866, 0.18053488433361053, -0.32224059104919434, -1.1032367944717407, 0.10320793837308884, -0.41598755097276147, 0.5239163031567102, -5.138226812049444, 9362.0, 30146.0, 35388.0, 9362.0, 8.370248794555664, 0.15031546354293823, 0.012064024806022644, 0.02086065337061882, -0.08175134658813477, -0.01711939089000225, 1.0262023210525513, -0.06497752666473389, 0.0052013397216796875, 1.496337890625, 1.497802734375, 0.19122314453125, 1.494873046875
51066, 0.011647684499621391, -0.016625503078103065, 0.0032664802856743336, 0.0003960170433856547, -0.000264545000391081, 0.06475807726383209, 0.0013626905856654048, -0.0008751346031203866, 0.18053488433361053, -0.3222352862358093, -1.1032178401947021, 0.10321793705224991, -0.4168766937925636, 0.519830895562734, -5.142963466055949, 9362.0, 30146.0, 35388.0, 9362.0, 8.370248794555664, 0.10882768779993057, -0.2396906018257141, 0.06442830711603165, -0.08370494097471237, -0.018073976039886475, 1.0252325534820557, -0.06497752666473389, 0.0052013397216796875, 1.496337890625, 1.497802734375, 0.19122314453125, 1.494873046875
51076, 0.012342264875769615, -0.018524793907999992, 0.003043555421754718, 0.0003960170433856547, -0.000264545000391081, 0.06475807726383209, 0.0013626905856654048, -0.0008751346031203866, 0.18053488433361053, -0.3222399950027466, -1.1032358407974243, 0.10323026031255722, -0.4133286338802797, 0.5205034248301956, -5.143082000222401, 9362.0, 30146.0, 35388.0, 9362.0, 8.370248794555664, -0.05074089393019676, 0.06650006026029587, -0.0914071723818779, -0.08370494097471237, -0.018073976039886475, 1.0252325534820557, -0.06497752666473389, 0.0052013397216796875, 1.496337890625, 1.497802734375, 0.19122314453125, 1.494873046875
51086, 0.013386863283813, -0.019964803010225296, 0.003535948460921645, 0.0004990086308680475, -0.0003293404879514128, 0.07803032547235489, 0.0015868616756051779, -0.000985100050456822, 0.1985422819852829, -0.32223808765411377, -1.1032326221466064, 0.10320907086133957, -0.41526793384461524, 0.517562634806211, -5.144624697738086, 9362.0, 30146.0, 35388.0, 9362.0, 8.370248794555664, 0.15292823314666748, 0.2346159815788269, 0.1937587559223175, -0.08056265860795975, -0.016635069623589516, 1.0266039371490479, -0.06497752666473389, 0.0052013397216796875, 1.496337890625, 1.497802734375, 0.19122314453125, 1.494873046875
51096, 0.012493557296693325, -0.02105596475303173, 0.004484511911869049, 0.0004990086308680475, -0.0003293404879514128, 0.07803032547235489, 0.0015868616756051779, -0.000985100050456822, 0.1985422819852829, -0.32223016023635864, -1.1032406091690063, 0.10320666432380676, -0.4102266926838205, 0.5233222074286346, -5.133044092191321, 9362.0, 30146.0, 35388.0, 9362.0, 8.370248794555664, -0.0948820561170578, 0.029230996966362, 0.02614949271082878, -0.07952544838190079, -0.01863965019583702, 1.02751886844635, -0.06497752666473389, 0.0052013397216796875, 1.496337890625, 1.497802734375, 0.19122314453125, 1.494873046875
51106, 0.012216608971357346, -0.022182483226060867, 0.005568111315369606, 0.0004990086308680475, -0.0003293404879514128, 0.07803032547235489, 0.0015868616756051779, -0.000985100050456822, 0.1985422819852829, -0.3222323954105377, -1.1032235622406006, 0.10323655605316162, -0.4152334891627607, 0.5053865297101368, -5.140594384086948, 9362.0, 30146.0, 35388.0, 9362.0, 8.370248794555664, 0.15208685398101807, 0.2700994312763214, 0.41735365986824036, -0.07995437830686569, -0.019069628790020943, 1.0262064933776855, -0.06497752666473389, 0.0052013397216796875, 1.496337890625, 1.497802734375, 0.19122314453125, 1.491943359375
51116, 0.013478505425155163, -0.021277301013469696, 0.008284042589366436, 0.0005481410771608353, -0.00035989852040074766, 0.08410172909498215, 0.0016916951863095164, -0.0010522643569856882, 0.20635546743869781, -0.32224348187446594, -1.1032321453094482, 0.10321641713380814, -0.41461410748497207, 0.5163185039545795, -5.143122527294631, 9362.0, 30146.0, 35388.0, 9362.0, 8.370248794555664, 0.0524933747947216, 0.08958220481872559, 0.43835461139678955, -0.08028148859739304, -0.01664852909743786, 1.02228581905365, -0.06497752666473389, 0.0052013397216796875, 1.496337890625, 1.497802734375, 0.19122314453125, 1.491943359375
51126, 0.013310106471180916, -0.023017263039946556, 0.009152292273938656, 0.0005481410771608353, -0.00035989852040074766, 0.08410172909498215, 0.0016916951863095164, -0.0010522643569856882, 0.20635546743869781, -0.3222435414791107, -1.1032373905181885, 0.10324334353208542, -0.4245254365611367, 0.5033336081386892, -5.147917704010975, 9362.0, 30146.0, 35388.0, 9362.0, 8.370248794555664, 0.28105416893959045, 0.042460136115550995, -0.05019528418779373, -0.08108588308095932, -0.016124624758958817, 1.0242670774459839, -0.06497752666473389, 0.0052013397216796875, 1.496337890625, 1.497802734375, 0.19122314453125, 1.49267578125
51136, 0.013340210542082787, -0.02114618383347988, 0.007909441366791725, 0.0005827441345900297, -0.00038138340460136533, 0.08827483654022217, 0.0017678900621831417, -0.0010973220923915505, 0.21095457673072815, -0.3222416043281555, -1.103243112564087, 0.10326573252677917, -0.4308808427432571, 0.501682327512242, -5.140630953928739, 9362.0, 30146.0, 35388.0, 9362.0, 8.370248794555664, 0.28105416893959045, 0.042460136115550995, -0.05019528418779373, -0.08108588308095932, -0.016124624758958817, 1.0242670774459839, -0.06497752666473389, 0.0052013397216796875, 1.496337890625, 1.497802734375, 0.19122314453125, 1.49267578125
51146, 0.011679910123348236, -0.022363200783729553, 0.0081306342035532, 0.0006006250041536987, -0.0003924733609892428, 0.09039659053087234, 0.0018082041060552, -0.0011206743074581027, 0.21339714527130127, -0.32223939895629883, -1.1032614707946777, 0.10327944904565811, -0.43991348046064294, 0.5001067182826091, -5.137859569336413, 9362.0, 30146.0, 35388.0, 9362.0, 8.370248794555664, -0.02655630186200142, -0.034444745630025864, 0.3094528317451477, -0.0823245719075203, -0.018501825630664825, 1.0267308950424194, -0.06497752666473389, 0.0052013397216796875, 1.496337890625, 1.497802734375, 0.19122314453125, 1.49267578125
51156, 0.011600349098443985, -0.020567702129483223, 0.008010977879166603, 0.0006006250041536987, -0.0003924733609892428, 0.09039659053087234, 0.0018082041060552, -0.0011206743074581027, 0.21339714527130127, -0.32225683331489563, -1.1032639741897583, 0.10329166799783707, -0.44453248385471916, 0.48439640002192164, -5.1399358853608215, 9362.0, 30146.0, 35388.0, 9362.0, 8.370248794555664, 0.12646305561065674, 0.05753268301486969, -0.009000140242278576, -0.08088795095682144, -0.01722588576376438, 1.027242660522461, -0.06497752666473389, 0.0052013397216796875, 1.496337890625, 1.3330078125, 0.0191650390625, 1.49267578125
51166, 0.013061732053756714, -0.021068094298243523, 0.0069590178318321705, 0.0006006250041536987, -0.0003924733609892428, 0.09039659053087234, 0.0018082041060552, -0.0011206743074581027, 0.21339714527130127, -0.32224270701408386, -1.103244423866272, 0.10333353281021118, -0.4579005525038657, 0.4722789366694542, -5.142798028848156, 9362.0, 30146.0, 35388.0, 9362.0, 8.370248794555664, -0.08738376200199127, -0.3554439842700958, 0.05706970393657684, -0.08011125773191452, -0.016908928751945496, 1.0242046117782593, -0.06497752666473389, 0.0052013397216796875, 1.496337890625, 1.3388671875, 0.017120361328125, 1.49267578125
51176, 0.012864293530583382, -0.020885765552520752, 0.006057335529476404, 0.0006006250041536987, -0.0003924733609892428, 0.09039659053087234, 0.0018082041060552, -0.0011206743074581027, 0.21339714527130127, -0.32224905490875244, -1.103244423866272, 0.10334490239620209, -0.45644840571200695, 0.47645723117000216, -5.142018503081776, 9362.0, 30146.0, 35388.0, 9362.0, 8.370248794555664, 0.0673508271574974, 0.36480382084846497, -0.2667066752910614, -0.08109205961227417, -0.017792820930480957, 1.0254666805267334, -0.06497752666473389, 0.0052013397216796875, 1.496337890625, 1.2509765625, 0.1600799560546875, 1.49267578125
51186, 0.012789792381227016, -0.020348217338323593, 0.004434478469192982, 0.0006006250041536987, -0.0003924733609892428, 0.09039659053087234, 0.0018082041060552, -0.0011206743074581027, 0.21339714527130127, -0.322251558303833, -1.103248953819275, 0.10330785810947418, -0.4552809389868754, 0.46575638266298824, -5.147278101031799, 9362.0, 30146.0, 35388.0, 9362.0, 8.370248794555664, -0.008479746989905834, -0.20837824046611786, -0.06705434620380402, -0.08059673756361008, -0.018738724291324615, 1.024137020111084, -0.06497752666473389, 0.0052013397216796875, 1.496337890625, 1.4033203125, 0.043182373046875, 1.49267578125
51196, 0.012108372524380684, -0.02212461829185486, 0.004439585842192173, 0.0006006250041536987, -0.0003924733609892428, 0.09039659053087234, 0.0018082041060552, -0.0011206743074581027, 0.21339714527130127, -0.3222385346889496, -1.103236436843872, 0.10333241522312164, -0.45682756207555897, 0.4730724029210194, -5.143132156943633, 9362.0, 30146.0, 35388.0, 9362.0, 8.370248794555664, -0.11447904258966446, 0.01564052142202854, 0.21006089448928833, -0.08059673756361008, -0.018738724291324615, 1.024137020111084, -0.04470297321677208, -0.07543754577636719, 1.48974609375, 1.4033203125, 0.043182373046875, 1.49267578125
51206, 0.01008376944810152, -0.020364146679639816, 0.004414637107402086, 0.0006006250041536987, -0.0003924733609892428, 0.09039659053087234, 0.0018082041060552, -0.0011206743074581027, 0.21339714527130127, -0.32230454683303833, -1.1032034158706665, 0.10324890911579132, -0.4671764120727388, 0.5072762968073619, -5.158589429742375, 9362.0, 30146.0, 35388.0, 9362.0, 8.370248794555664, -0.23202504217624664, 0.06987222284078598, 0.07010740786790848, -0.08189881592988968, -0.017980579286813736, 1.0260461568832397, -0.04470297321677208, -0.07543754577636719, 1.48974609375, 1.4033203125, 0.043182373046875, 1.49267578125
51216, 0.008567700162529945, -0.021110069006681442, 0.004327142611145973, 0.0007363432087004185, -0.0004762960597872734, 0.10595586895942688, 0.002069036941975355, -0.0012740935198962688, 0.23119433224201202, -0.3223029673099518, -1.1032172441482544, 0.10322532802820206, -0.46770055365988067, 0.5134920886265775, -5.15138316431203, 9362.0, 30146.0, 35388.0, 9362.0, 8.370248794555664, 0.006977220997214317, 0.15181493759155273, 0.020912108942866325, -0.08341459929943085, -0.016891345381736755, 1.024694561958313, -0.04470297321677208, -0.07543754577636719, 1.48974609375, 1.4033203125, 0.043182373046875, 1.49267578125
51226, 0.010245286859571934, -0.024524565786123276, 0.0024633894208818674, 0.0007363432087004185, -0.0004762960597872734, 0.10595586895942688, 0.002069036941975355, -0.0012740935198962688, 0.23119433224201202, -0.3223106563091278, -1.1032114028930664, 0.10324312746524811, -0.46630697396216775, 0.5129422536635673, -5.148780404704916, 9362.0, 30146.0, 35388.0, 9362.0, 8.370248794555664, 0.05712634325027466, 0.17271333932876587, -0.36255550384521484, -0.08341459929943085, -0.016891345381736755, 1.024694561958313, -0.04470297321677208, -0.07543754577636719, 1.48974609375, 1.4033203125, 0.043182373046875, 1.49267578125
51236, 0.010565959848463535, -0.02307932823896408, -0.0005279791075736284, 0.0007784457411617041, -0.0005021179094910622, 0.11062910407781601, 0.0021420398261398077, -0.0013068440603092313, 0.2361840158700943, -0.32227689027786255, -1.1032401323318481, 0.10324491560459137, -0.438899474493373, 0.5033341752813101, -5.1447526727190604, 9362.0, 30146.0, 35388.0, 9362.0, 8.370248794555664, 0.01447798777371645, -0.2949232757091522, -0.4906877279281616, -0.08341459929943085, -0.016891345381736755, 1.024694561958313, -0.04470297321677208, -0.07543754577636719, 1.48974609375, 1.4033203125, 0.043182373046875, 1.49267578125
51246, 0.009922469966113567, -0.018979014828801155, -0.0029912518803030252, 0.0007784457411617041, -0.0005021179094910622, 0.11062910407781601, 0.0021420398261398077, -0.0013068440603092313, 0.2361840158700943, -0.32229071855545044, -1.1032023429870605, 0.10325774550437927, -0.4793395080438449, 0.5055538457226305, -5.155182043562714, 9362.0, 30146.0, 35388.0, 9362.0, 8.370248794555664, -0.05931917950510979, -0.09796115010976791, 0.00458932388573885, -0.08022278547286987, -0.019044242799282074, 1.0248682498931885, -0.04470297321677208, -0.07543754577636719, 1.48974609375, 1.4033203125, 0.043182373046875, 1.490478515625
51256, 0.009490381926298141, -0.017777858301997185, -0.0036935005336999893, 0.0008221344905905426, -0.0005286175291985273, 0.1154029443860054, 0.0022253647912293673, -0.0013433641288429499, 0.241128608584404, -0.32229083776474, -1.103204369544983, 0.10326060652732849, -0.4656314740406558, 0.5077336575292009, -5.153687050461429, 9362.0, 30146.0, 35388.0, 9362.0, 8.370248794555664, -0.025463363155722618, -0.24250316619873047, -0.10059734433889389, -0.07995908707380295, -0.018462438136339188, 1.0245224237442017, -0.04470297321677208, -0.07543754577636719, 1.48974609375, 1.4033203125, 0.043182373046875, 1.490478515625
51266, 0.008745933882892132, -0.01651759073138237, -0.0017113079084083438, 0.0008445546845905483, -0.0005421382375061512, 0.11782646179199219, 0.002258618362247944, -0.001360760536044836, 0.24357542395591736, -0.32230114936828613, -1.1032006740570068, 0.10324785113334656, -0.47345219424305224, 0.5075002711894001, -5.149329328873631, 9362.0, 30146.0, 35388.0, 9362.0, 8.370248794555664, -0.06787746399641037, 0.33303385972976685, 0.47556066513061523, -0.08323747664690018, -0.016519399359822273, 1.0229268074035645, -0.04470297321677208, -0.07543754577636719, 1.48974609375, 1.51025390625, 0.2164154052734375, 1.48974609375
51276, 0.00970834493637085, -0.016512608155608177, -0.0019795692060142756, 0.0008445546845905483, -0.0005421382375061512, 0.11782646179199219, 0.002258618362247944, -0.001360760536044836, 0.24357542395591736, -0.3222702741622925, -1.1032342910766602, 0.10323711484670639, -0.44576244297772494, 0.496464838604993, -5.14978014832424, 9362.0, 30146.0, 35388.0, 9362.0, 8.370248794555664, 0.0930103063583374, -0.22341357171535492, -0.2504483759403229, -0.08013994991779327, -0.01748744212090969, 1.0246464014053345, -0.04470297321677208, -0.07543754577636719, 1.48974609375, 1.46630859375, 0.132171630859375, 1.48974609375
51286, 0.008865775540471077, -0.014694510959088802, -0.003863666206598282, 0.0008445546845905483, -0.0005421382375061512, 0.11782646179199219, 0.002258618362247944, -0.001360760536044836, 0.24357542395591736, -0.32228323817253113, -1.1031969785690308, 0.10322844982147217, -0.4724069871373524, 0.5130707033046917, -5.146698986464292, 9362.0, 30146.0, 35388.0, 9362.0, 8.370248794555664, 0.11125672608613968, -0.33295655250549316, -0.2156485617160797, -0.08010058104991913, -0.017706025391817093, 1.023716688156128, -0.04470297321677208, -0.07543754577636719, 1.48974609375, 1.2685546875, 0.1099395751953125, 1.48974609375
51306, 0.00852943118661642, -0.013394626788794994, -0.001060690963640809, 0.0008445546845905483, -0.0005421382375061512, 0.11782646179199219, 0.002258618362247944, -0.001360760536044836, 0.24357542395591736, -0.3222901523113251, -1.1031996011734009, 0.10324414074420929, -0.47468608303696996, 0.5125063690512945, -5.145957181779594, 9362.0, 30146.0, 35388.0, 9362.0, 8.370248794555664, -0.062158022075891495, -0.05050846189260483, 0.07503072172403336, -0.08010058104991913, -0.017706025391817093, 1.023716688156128, -0.08191991597414017, -0.030637741088867188, 1.493408203125, 1.2685546875, 0.1099395751953125, 1.49267578125
51316, 0.008814781904220581, -0.01231052353978157, 3.7997535400791094e-05, 0.0008445546845905483, -0.0005421382375061512, 0.11782646179199219, 0.002258618362247944, -0.001360760536044836, 0.24357542395591736, -0.3222923278808594, -1.1032023429870605, 0.10324317961931229, -0.47742780910208793, 0.5080176250305897, -5.148406658783927, 9362.0, 30146.0, 35388.0, 9362.0, 8.370248794555664, 0.07770992070436478, -0.29089266061782837, -0.07147423177957535, -0.08010058104991913, -0.017706025391817093, 1.023716688156128, -0.08191991597414017, -0.030637741088867188, 1.493408203125, 1.2685546875, 0.1099395751953125, 1.49267578125
51326, 0.00822756439447403, -0.011918244883418083, 0.0009239228093065321, 0.0008445546845905483, -0.0005421382375061512, 0.11782646179199219, 0.002258618362247944, -0.001360760536044836, 0.24357542395591736, -0.3222968280315399, -1.1032100915908813, 0.10323605686426163, -0.468250722368207, 0.4976163042320536, -5.148722558666656, 9362.0, 30146.0, 35388.0, 9362.0, 8.370248794555664, -0.19213096797466278, -0.2104332447052002, 0.10978113114833832, -0.08010058104991913, -0.017706025391817093, 1.023716688156128, -0.08191991597414017, -0.030637741088867188, 1.493408203125, 1.2685546875, 0.1099395751953125, 1.49267578125
