timeTick, roll, pitch, yaw, stateX, stateY, stateZ, stateVX, stateVY, stateVZ, otX0, otY0, otZ0, otRoll0, otPitch0, otYaw0, left wing, pitch motor, yaw motor, right wing, voltage, roll rate, pitch rate, yaw rate, A_x, A_y, A_z, current, i_raw, v_raw, airflow_voltage, airflow_speed, pot_Pitch
28355, 0.3464600443840027, 0.6444851160049438, -2.273423910140991, 0, 0, 0, 0, 0, 0, -0.6947329640388489, -0.9893079996109009, 0.10599541664123535, 0.016762666474565285, -0.03400379796573816, -1.2908842791371824, 0, 0, 0, 0, 0, 0, 0, 0, 0, 0, 0, 0, 0, 0, 0, 0, 0
28365, 0.34673604369163513, 0.6446629166603088, -2.270113945007324, 0.00040120782796293497, 0.00019657282973639667, -17.629627227783203, 0.011693107895553112, 0.005727652460336685, -1.3183577060699463, -0.694722592830658, -0.9893178343772888, 0.1060023382306099, 0.011926900734491222, -0.008448671493255233, -1.2742919990949388, 9362.0, 30146.0, 35388.0, 9362.0, 0, 0.010112634859979153, -0.0791764035820961, 0.17332300543785095, -0.07564220577478409, 0.016351904720067978, 0.9958187937736511, 0, 0, 0, 0, 0, 0
28375, 0.34849634766578674, 0.6426230072975159, -2.2694194316864014, 0.0005125305615365505, 0.0002511153288651258, -17.642812728881836, 0.010571468621492386, 0.005180784966796637, -1.3187497854232788, -0.694708526134491, -0.9893074035644531, 0.10601519793272018, 0.004418838519735676, -0.01031820948591644, -1.2662969290710377, 9362.0, 30146.0, 35388.0, 9362.0, 0, -0.012108685448765755, 0.10045371949672699, -0.08108155429363251, -0.07247770577669144, 0.016307109966874123, 0.9966321587562561, 0, 0, 0, 1.4970703125, 0.18975830078125, 0
28385, 0.34803906083106995, 0.6435844898223877, -2.2701098918914795, 0.0006126338266767561, 0.00030018575489521027, -17.656002044677734, 0.00944917555898428, 0.004633296746760607, -1.319113850593567, -0.6947150826454163, -0.9893134832382202, 0.10600708425045013, 0.017975474394791892, -0.01522675378842564, -1.2830983234091924, 9362.0, 30146.0, 35388.0, 9362.0, 0, -0.009447331540286541, -0.1650291234254837, -0.07725360244512558, -0.07431060820817947, 0.015685586258769035, 0.9968470931053162, 0, 0, 0, 1.364501953125, 0.0173492431640625, 1.49267578125
28395, 0.3478463590145111, 0.6408022046089172, -2.2706093788146973, 0.0007015292649157345, 0.0003437646955717355, -17.6691951751709, 0.008329913020133972, 0.004082503728568554, -1.3194482326507568, -0.6947271823883057, -0.9893154501914978, 0.10599308460950851, 0.01876010206212179, -0.016886701707676366, -1.2694946945710588, 9362.0, 30146.0, 35388.0, 9362.0, 0, 0.07486934214830399, 0.039801377803087234, -0.007915428839623928, -0.07176433503627777, 0.015389801003038883, 0.9974552392959595, 0, 0, 0, 1.388671875, 0.03033447265625, 1.49267578125
28405, 0.3479337990283966, 0.6415190696716309, -2.2707040309906006, 0.0007792201358824968, 0.00038183812284842134, -17.682390213012695, 0.007208246737718582, 0.003532187780365348, -1.3197150230407715, -0.6947199702262878, -0.9893162846565247, 0.10602252185344696, 0.022258586105312526, -0.01789338753886227, -1.2819209868216828, 9362.0, 30146.0, 35388.0, 9362.0, 0, 0.04594678431749344, -0.13496483862400055, 0.0793178603053093, -0.073092520236969, 0.01615474745631218, 0.9973928928375244, 0, 0, 0, 1.560791015625, 0.3262176513671875, 1.493408203125
28415, 0.34919530153274536, 0.6384181380271912, -2.2700440883636475, 0.0008457194780930877, 0.0004144097911193967, -17.695589065551758, 0.0060916319489479065, 0.002982150996103883, -1.320006012916565, -0.6947239637374878, -0.9893100261688232, 0.10600108653306961, 0.012312240976030729, -0.02840400825272127, -1.2880358080520928, 9362.0, 30146.0, 35388.0, 9362.0, 0, 0.08505420386791229, 0.2114451676607132, 0.23212215304374695, -0.07382280379533768, 0.016037704423069954, 0.9981365203857422, 0, 0, 0, 1.484619140625, 0.1656646728515625, 1.493408203125
28425, 0.3505740463733673, 0.6383132338523865, -2.270893096923828, 0.0009010392823256552, 0.00044147702283225954, -17.708789825439453, 0.004972330294549465, 0.002431288128718734, -1.3201699256896973, -0.6947309374809265, -0.9893076419830322, 0.10601817071437836, 0.014910384714474813, -0.01952833313302449, -1.2783306605757145, 9362.0, 30146.0, 35388.0, 9362.0, 0, 0.20680402219295502, 0.18532387912273407, -0.08357790112495422, -0.07515433430671692, 0.015814194455742836, 0.9957677125930786, 0, 0, 0, 1.4443359375, 0.0959930419921875, 1.497802734375
28435, 0.3516397476196289, 0.6386994123458862, -2.272197961807251, 0.0009452011436223984, 0.0004630282346624881, -17.72199249267578, 0.003860039636492729, 0.0018789763562381268, -1.3204922676086426, -0.6947058439254761, -0.9893001317977905, 0.10604730993509293, 0.013703898528160324, -0.01427310458939246, -1.2712154685527006, 9362.0, 30146.0, 35388.0, 9362.0, 0, 0.1668725460767746, -0.25401419401168823, -0.23757494986057281, -0.07449700683355331, 0.015657085925340652, 0.9965294599533081, 0, 0, 0, 1.5234375, 0.2439727783203125, 1.497802734375
28445, 0.352143257856369, 0.6397189497947693, -2.2701375484466553, 0.0009782440029084682, 0.00047904637176543474, -17.735198974609375, 0.0027485291939228773, 0.001324680750258267, -1.3208763599395752, -0.6947208046913147, -0.9893134832382202, 0.10603170096874237, 0.015173139452292575, -0.021719157404959333, -1.2739176873514788, 9362.0, 30146.0, 35388.0, 9362.0, 0, 0.03461207449436188, -0.3938915729522705, 0.42932769656181335, -0.0721331238746643, 0.016938721761107445, 0.9976164102554321, 0, 0, 0, 1.03125, 2.3380126953125, 1.491943359375
28455, 0.3526875972747803, 0.6399800181388855, -2.270164728164673, 0.0010001618647947907, 0.0004895096062682569, -17.748409271240234, 0.001635065651498735, 0.0007679284317418933, -1.3211512565612793, -0.694717526435852, -0.9893071055412292, 0.1060369461774826, 0.004802725013897305, -0.012925501382341054, -1.2724054267916582, 9362.0, 30146.0, 35388.0, 9362.0, 8.17190170288086, 0.20160940289497375, 0.03717050701379776, -0.06663226336240768, -0.07373305410146713, 0.0173362847417593, 0.9992648959159851, -0.07263325154781342, 0.07688140869140625, 1.502197265625, 1.481689453125, 0.1600799560546875, 1.491943359375
28465, 0.35299938917160034, 0.6400169134140015, -2.2691261768341064, 0.001010930398479104, 0.0004943982348777354, -17.761621475219727, 0.0005186412017792463, 0.0002097937249345705, -1.3213222026824951, -0.6947459578514099, -0.9893138408660889, 0.1060381531715393, 0.018973587726001044, -0.017205394794444828, -1.2809919998445787, 9362.0, 30146.0, 35388.0, 9362.0, 8.17190170288086, 0.052050646394491196, 0.17722071707248688, 0.10738570243120193, -0.07334891706705093, 0.016069946810603142, 0.9963371753692627, -0.07263325154781342, 0.07688140869140625, 1.502197265625, 1.4501953125, 0.1050872802734375, 1.49853515625
28475, 0.3516889214515686, 0.6394808888435364, -2.2696452140808105, 0.0010105357505381107, 0.0004937026533298194, -17.77483558654785, -0.0005975750391371548, -0.00034893202246166766, -1.3215529918670654, -0.6947235465049744, -0.9893084168434143, 0.10602240264415741, 0.00992942517609291, -0.00851871850329644, -1.2795799241310404, 9362.0, 30146.0, 35388.0, 9362.0, 8.17190170288086, 0.08792023360729218, 0.2168496698141098, -0.16209805011749268, -0.073236383497715, 0.015101629309356213, 0.9980320334434509, -0.07263325154781342, 0.07688140869140625, 1.502197265625, 1.1689453125, 0.5872039794921875, 1.49853515625
28485, 0.3520653247833252, 0.6404104828834534, -2.269010066986084, 0.0009989849058911204, 0.000487420242279768, -17.788053512573242, -0.001712602679617703, -0.0009075428242795169, -1.321895956993103, -0.6947138905525208, -0.9892860651016235, 0.10610697418451309, 0.030847545416085725, -0.021773583247721717, -1.2954992049397918, 9362.0, 30146.0, 35388.0, 9362.0, 8.17190170288086, 0.08223922550678253, -0.2803691327571869, -0.004629319533705711, -0.07290523499250412, 0.015978911891579628, 0.9988076686859131, -0.07263325154781342, 0.07688140869140625, 1.502197265625, 1.516845703125, 0.23004150390625, 1.493408203125
28495, 0.352028489112854, 0.6388612389564514, -2.2695679664611816, 0.0009762761765159667, 0.0004755564732477069, -17.801273345947266, -0.0028291475027799606, -0.0014652233803644776, -1.3220173120498657, -0.6947300434112549, -0.9893165230751038, 0.10602986812591553, 0.004717328021763223, -0.02088882025381622, -1.2813035397324573, 9362.0, 30146.0, 35388.0, 9362.0, 8.17190170288086, -0.044237446039915085, 0.03190883249044418, -0.3065122365951538, -0.07311044633388519, 0.01711132749915123, 0.9969289898872375, -0.07263325154781342, 0.07688140869140625, 1.502197265625, 1.0810546875, 1.5185089111328125, 1.493408203125
28505, 0.35331419110298157, 0.6372053623199463, -2.2702062129974365, 0.0009424044983461499, 0.00045811821473762393, -17.814495086669922, -0.003945200238376856, -0.0020224181935191154, -1.3223239183425903, -0.6947183012962341, -0.9893192648887634, 0.10602240264415741, 0.017916120013011703, -0.022180961696193435, -1.2808654146643936, 9362.0, 30146.0, 35388.0, 9362.0, 8.17190170288086, -0.06926757097244263, 0.10082516074180603, 0.1267860233783722, -0.07534299045801163, 0.01956915110349655, 0.9988522529602051, -0.07263325154781342, 0.07688140869140625, 1.502197265625, 1.483154296875, 0.162841796875, 1.4912109375
28515, 0.35217228531837463, 0.6405988931655884, -2.2713801860809326, 0.0008973763324320316, 0.00043510328396223485, -17.82771873474121, -0.00506043853238225, -0.0025805539917200804, -1.3224700689315796, -0.6947078704833984, -0.9893124103546143, 0.10605345666408539, 0.009232592779943555, -0.018267183524784514, -1.2678612866914571, 9362.0, 30146.0, 35388.0, 9362.0, 8.17190170288086, 0.04707993566989899, -0.31244754791259766, 0.02270321547985077, -0.07363536208868027, 0.017282655462622643, 0.997623085975647, -0.07263325154781342, 0.07688140869140625, 1.502197265625, 1.323486328125, 0.024688720703125, 1.4912109375
28525, 0.35305583477020264, 0.6410201191902161, -2.2722582817077637, 0.0008412111783400178, 0.0004064963723067194, -17.840944290161133, -0.00617259182035923, -0.00314080691896379, -1.3226464986801147, -0.6947318315505981, -0.9892796277999878, 0.10602942854166031, 0.020550154586773943, -0.03527212566271487, -1.2795445024377226, 9362.0, 30146.0, 35388.0, 9362.0, 8.17190170288086, 0.01866818778216839, -0.3068731129169464, -0.13665206730365753, -0.0735042467713356, 0.015935609117150307, 0.9984462857246399, -0.07263325154781342, 0.07688140869140625, 1.502197265625, 1.2216796875, 0.27325439453125, 1.491943359375
28535, 0.35401585698127747, 0.6397250890731812, -2.2700257301330566, 0.0007738996064290404, 0.00037229980807751417, -17.854171752929688, -0.007289737928658724, -0.0036984870675951242, -1.3228880167007446, -0.6947266459465027, -0.9892865419387817, 0.10601986199617386, 0.03102032405484201, -0.02985353700856308, -1.2814030090885757, 9362.0, 30146.0, 35388.0, 9362.0, 8.17190170288086, 0.134368434548378, 0.11880076676607132, -0.05702408030629158, -0.07225961983203888, 0.017900940030813217, 0.9988556504249573, -0.07263325154781342, 0.07688140869140625, 1.502197265625, 1.53515625, 0.2692413330078125, 1.491943359375
28545, 0.3538495600223541, 0.640280544757843, -2.2689051628112793, 0.0006954061682336032, 0.0003325158904772252, -17.867401123046875, -0.008408934809267521, -0.004258336033672094, -1.3230165243148804, -0.6947236657142639, -0.9892926812171936, 0.10605921596288681, 0.014046583000904486, -0.011612738698943303, -1.2797084540949613, 9362.0, 30146.0, 35388.0, 9362.0, 8.17190170288086, -0.01250609289854765, -0.28463926911354065, 0.40365907549858093, -0.07033167779445648, 0.015980049967765808, 1.0000115633010864, -0.07263325154781342, 0.07688140869140625, 1.502197265625, 1.19970703125, 0.38543701171875, 1.4912109375
28555, 0.3507446050643921, 0.6458212733268738, -2.2684385776519775, 0.0006057308055460453, 0.00028712424682453275, -17.880632400512695, -0.009526124224066734, -0.004820018541067839, -1.3231310844421387, -0.694722592830658, -0.9892680048942566, 0.10610025376081467, 0.028714981966064198, -0.03512835686569815, -1.3043189923465308, 9362.0, 30146.0, 35388.0, 9362.0, 8.17190170288086, -0.37828564643859863, -0.49430856108665466, 0.07473713904619217, -0.07292503863573074, 0.013276993297040462, 1.0018155574798584, -0.06587475538253784, -0.14711761474609375, 1.48388671875, 1.033447265625, 2.2965850830078125, 1.4912109375
28565, 0.3453049957752228, 0.6501624584197998, -2.2650303840637207, 0.0005048683378845453, 0.00023611195501871407, -17.893863677978516, -0.010646380484104156, -0.005382443778216839, -1.3230600357055664, -0.694747805595398, -0.9892935156822205, 0.10602550208568573, 0.01022964035645521, -0.017410077033275684, -1.283874450806028, 9362.0, 30146.0, 35388.0, 9362.0, 8.17190170288086, -0.7588330507278442, -0.32520073652267456, 0.2617049515247345, -0.06859380751848221, 0.008838936686515808, 1.0062817335128784, -0.06587475538253784, -0.14711761474609375, 1.48388671875, 1.499267578125, 0.1941070556640625, 1.4912109375
28575, 0.34307628870010376, 0.6519307494163513, -2.272045373916626, 0.0003927384677808732, 0.0001794947311282158, -17.907093048095703, -0.01177959330379963, -0.005941031035035849, -1.322668194770813, -0.6947383880615234, -0.9893018007278442, 0.10603025555610657, 0.004676292730382591, -0.005302061641543787, -1.2751317627332972, 9362.0, 30146.0, 35388.0, 9362.0, 8.17190170288086, 0.3790532052516937, 0.19198480248451233, -1.2972971200942993, -0.08177964389324188, 0.024374980479478836, 0.9920514225959778, -0.06587475538253784, -0.14711761474609375, 1.48388671875, 1.404052734375, 0.04400634765625, 1.4912109375
28585, 0.3510853946208954, 0.640533447265625, -2.2695021629333496, 0.0002692539128474891, 0.00011734561121556908, -17.920318603515625, -0.012917389161884785, -0.00648864358663559, -1.3224960565567017, -0.6947333812713623, -0.9892746806144714, 0.10604436695575714, 0.003281376539341092, -0.01710473006602342, -1.2840717695851263, 9362.0, 30146.0, 35388.0, 9362.0, 8.17190170288086, 1.4784948825836182, 0.9178474545478821, -1.8724002838134766, -0.07681213319301605, 0.0381929911673069, 0.969023585319519, -0.06587475538253784, -0.14711761474609375, 1.48388671875, 1.121337890625, 1.0191802978515625, 1.494140625
28595, 0.36947545409202576, 0.6288889646530151, -2.2582573890686035, 0.0001344972406513989, 4.979822551831603e-05, -17.93355369567871, -0.014034278690814972, -0.00702060479670763, -1.3244012594223022, -0.6947193145751953, -0.9892790913581848, 0.10604915767908096, 0.0045737973435824985, -0.010008180564170743, -1.273436944625735, 9362.0, 30146.0, 35388.0, 9362.0, 8.17190170288086, 2.0904128551483154, 1.836406946182251, 2.2747411727905273, -0.09218525141477585, 0.02636011131107807, 0.9809239506721497, -0.06587475538253784, -0.14711761474609375, 1.48388671875, 1.067138671875, 1.7234954833984375, 1.494140625
28605, 0.3795771300792694, 0.6207051873207092, -2.258352518081665, -1.1274067219346762e-05, -2.3109532776288688e-05, -17.94681167602539, -0.015120395459234715, -0.007560172583907843, -1.327378511428833, -0.6947702765464783, -0.9892847537994385, 0.10602665692567825, 0.052019653892873184, 0.016750041847984676, -1.3246983205348006, 9362.0, 30146.0, 35388.0, 9362.0, 8.17190170288086, -0.08999320864677429, -0.3989845812320709, 1.748313069343567, -0.06526235491037369, -0.001656186068430543, 1.028959035873413, -0.06587475538253784, -0.14711761474609375, 1.48388671875, 1.114013671875, 1.10015869140625, 1.49560546875
28615, 0.37782150506973267, 0.6230772733688354, -2.265242099761963, -0.00016799646255094558, -0.00010166734864469618, -17.960084915161133, -0.01622404344379902, -0.008151442743837833, -1.3271300792694092, -0.6947261691093445, -0.9892875552177429, 0.1060635969042778, 0.00964636132845006, -0.0073042426188294485, -1.2710972342439977, 9362.0, 30146.0, 35388.0, 9362.0, 8.17190170288086, -0.4336067736148834, 0.3303346633911133, 0.7873700261116028, -0.07267776131629944, -0.0014217966236174107, 1.0287559032440186, -0.06587475538253784, -0.14711761474609375, 1.48388671875, 1.48388671875, 0.1642303466796875, 1.49560546875
28625, 0.37027162313461304, 0.628109872341156, -2.2791688442230225, -0.00033586350036785007, -0.0001863249926827848, -17.973339080810547, -0.017349569126963615, -0.008779837749898434, -1.323725938796997, -0.6947399973869324, -0.9892854690551758, 0.10599663853645325, 0.009107869744400292, -0.016429653931197663, -1.2886070914307202, 9362.0, 30146.0, 35388.0, 9362.0, 8.17190170288086, -0.7904297113418579, -0.819650411605835, -1.1014996767044067, -0.07462918758392334, 0.03146623075008392, 0.9856478571891785, -0.06587475538253784, -0.14711761474609375, 1.48388671875, 1.316162109375, 0.030517578125, 1.4912109375
28635, 0.36518484354019165, 0.6346191167831421, -2.268871784210205, -0.0005148695199750364, -0.0002771737053990364, -17.986572265625, -0.01845184899866581, -0.009389489889144897, -1.322784185409546, -0.6947304010391235, -0.9892809391021729, 0.10602613538503647, 0.01454886972790705, -0.022439347425461165, -1.294244942375752, 9362.0, 30146.0, 35388.0, 9362.0, 8.17190170288086, -0.25325220823287964, -0.5868150591850281, -0.15997153520584106, -0.07274480164051056, 0.031590815633535385, 0.9717298150062561, -0.06587475538253784, -0.14711761474609375, 1.48388671875, 1.4794921875, 0.155975341796875, 1.4912109375
28645, 0.35982847213745117, 0.6407578587532043, -2.2661099433898926, -0.000704748323187232, -0.00037394772516563535, -17.999813079833984, -0.019523561000823975, -0.009965751320123672, -1.3252604007720947, -0.6947108507156372, -0.989305853843689, 0.10604572296142578, 0.014122685937458227, -0.03135880551477044, -1.2816515239427546, 9362.0, 30146.0, 35388.0, 9362.0, 8.17190170288086, -0.5474110841751099, -0.8553839325904846, 0.9514586925506592, -0.07541246712207794, 0.007671199273318052, 0.9974517822265625, -0.06587475538253784, -0.14711761474609375, 1.48388671875, 1.341796875, 0.0162811279296875, 1.49560546875
28655, 0.35534268617630005, 0.6450846791267395, -2.2667980194091797, -0.0009054355323314667, -0.00047646125312894583, -18.01307487487793, -0.020613666623830795, -0.010537183843553066, -1.3270457983016968, -0.6947140097618103, -0.9893010854721069, 0.10603661835193634, 0.02095305872961228, -0.019230354334382582, -1.2889903211616718, 9362.0, 30146.0, 35388.0, 9362.0, 8.17190170288086, -0.6528303623199463, -0.400699257850647, -1.2956739664077759, -0.07633297890424728, 0.006811362225562334, 1.0123177766799927, -0.05010083690285683, -0.04855918884277344, 1.491943359375, 1.087646484375, 1.4275054931640625, 1.49560546875
28665, 0.34977903962135315, 0.6465415954589844, -2.2650439739227295, -0.0011172151425853372, -0.0005847147549502552, -18.026342391967773, -0.02174232341349125, -0.011113445274531841, -1.3263485431671143, -0.6946796178817749, -0.9892908334732056, 0.10606615245342255, 0.04113701386345544, -0.026292745081605062, -1.310564181987247, 9362.0, 30146.0, 35388.0, 9362.0, 8.17190170288086, -0.38427734375, 0.005146524868905544, 1.327072262763977, -0.07641211897134781, 0.023291274905204773, 0.9930008053779602, -0.05010083690285683, -0.04855918884277344, 1.491943359375, 1.112548828125, 1.1168670654296875, 1.493408203125
28675, 0.3469415605068207, 0.6482996344566345, -2.268226385116577, -0.0013403051998466253, -0.0006986847147345543, -18.03960418701172, -0.02287568524479866, -0.011680526658892632, -1.325859785079956, -0.6946925520896912, -0.9892944097518921, 0.10604093968868256, 0.018607583976866505, -0.0149051071806241, -1.2738421043825088, 9362.0, 30146.0, 35388.0, 9362.0, 8.17190170288086, -0.25913259387016296, -0.05595728009939194, 0.0340300016105175, -0.07176583260297775, 0.023612486198544502, 0.9826566576957703, -0.05010083690285683, -0.04855918884277344, 1.491943359375, 1.300048828125, 0.0489654541015625, 1.493408203125
28685, 0.34507203102111816, 0.6514296531677246, -2.2613635063171387, -0.0015746315475553274, -0.0008182243909686804, -18.05286979675293, -0.023989586159586906, -0.012227416038513184, -1.3272422552108765, -0.6947128772735596, -0.9893050193786621, 0.10605034977197647, 0.014807800154991847, -0.0194399965758123, -1.28721231244283, 9362.0, 30146.0, 35388.0, 9362.0, 8.17190170288086, -0.2645668387413025, -0.31283140182495117, -0.08206158876419067, -0.07237418740987778, 0.006960038561373949, 0.9969468116760254, -0.05010083690285683, -0.04855918884277344, 1.491943359375, 1.483154296875, 0.162841796875, 1.494873046875
28695, 0.34223029017448425, 0.649226188659668, -2.266951084136963, -0.001820120494812727, -0.0009432127117179334, -18.06614875793457, -0.025108080357313156, -0.012770433910191059, -1.3284608125686646, -0.6947004795074463, -0.9892937541007996, 0.10604071617126465, 0.02219067365305632, -0.020799601108819843, -1.2826588028262438, 9362.0, 30146.0, 35388.0, 9362.0, 8.17190170288086, -0.2450781613588333, 0.493818998336792, 0.2716584801673889, -0.06653916090726852, 0.010734234005212784, 1.0104902982711792, -0.05010083690285683, -0.04855918884277344, 1.491943359375, 1.5146484375, 0.225494384765625, 1.494873046875
28705, 0.34056317806243896, 0.6479091644287109, -2.266249418258667, -0.0020769177936017513, -0.0010736621916294098, -18.079431533813477, -0.02625141479074955, -0.013319316320121288, -1.3279898166656494, -0.6946892142295837, -0.9892873167991638, 0.10607262700796127, 0.02130947986142271, -0.018602621672641817, -1.2784280493624876, 9362.0, 30146.0, 35388.0, 9362.0, 8.17190170288086, 0.10977540910243988, -0.038559652864933014, -0.4009559154510498, -0.07525321841239929, 0.02268875017762184, 0.9955254793167114, -0.05010083690285683, -0.04855918884277344, 1.491943359375, 1.449462890625, 0.103973388671875, 1.493408203125
28715, 0.3419533967971802, 0.6468457579612732, -2.263805866241455, -0.0023451298475265503, -0.0012095766142010689, -18.092708587646484, -0.027390966191887856, -0.013863569125533104, -1.3275033235549927, -0.6947013139724731, -0.9892929792404175, 0.10606313496828079, 0.01583080230539346, -0.02017825774922244, -1.2793850080703408, 9362.0, 30146.0, 35388.0, 9362.0, 8.17190170288086, 0.1308777928352356, 0.032986536622047424, 0.36133915185928345, -0.0701490119099617, 0.017916671931743622, 0.9863230586051941, -0.05010083690285683, -0.04855918884277344, 1.491943359375, 1.209228515625, 0.3337554931640625, 1.493408203125
28725, 0.34289824962615967, 0.6478760838508606, -2.26253342628479, -0.0026246390771120787, -0.0013508786214515567, -18.105989456176758, -0.02851087972521782, -0.014396865852177143, -1.3285125494003296, -0.6947129368782043, -0.9892633557319641, 0.10608263313770294, 0.03507282105346027, -0.012884658848747677, -1.311724701455333, 9362.0, 30146.0, 35388.0, 9362.0, 8.17190170288086, 0.1730566769838333, 0.12670452892780304, -0.3254290819168091, -0.07075469940900803, 0.007272529415786266, 0.9986933469772339, -0.05010083690285683, -0.04855918884277344, 1.491943359375, 1.458251953125, 0.1184234619140625, 1.494873046875
28735, 0.344513475894928, 0.6474224328994751, -2.265402317047119, -0.002915341407060623, -0.0014975272351875901, -18.119279861450195, -0.02962956391274929, -0.014932873658835888, -1.329477310180664, -0.6947240233421326, -0.9892820715904236, 0.10607430338859558, 0.009945189589748922, -0.011319294425334192, -1.2699545621159778, 9362.0, 30146.0, 35388.0, 9362.0, 8.17190170288086, 0.27042317390441895, 0.18954773247241974, -0.376250296831131, -0.07005499303340912, 0.011044388636946678, 1.006976842880249, -0.05010083690285683, -0.04855918884277344, 1.491943359375, 1.371826171875, 0.02008056640625, 1.494873046875
28745, 0.34679001569747925, 0.6438965797424316, -2.2673768997192383, -0.003217319492250681, -0.0016495820600539446, -18.132572174072266, -0.0307660773396492, -0.015478052198886871, -1.3290555477142334, -0.6950501799583435, -0.989112913608551, 0.10579103976488113, 0.11467736925981958, -0.004366341570801069, -1.549676900196303, 9362.0, 30146.0, 35388.0, 9362.0, 8.17190170288086, 0.3030588924884796, 0.626776933670044, -0.1542443186044693, -0.07102715969085693, 0.02033195272088051, 0.9989813566207886, -0.05010083690285683, -0.04855918884277344, 1.491943359375, 1.517578125, 0.231689453125, 1.491943359375
28755, 0.3497265875339508, 0.6416897773742676, -2.2660059928894043, -0.003530659945681691, -0.0018071027006953955, -18.14586067199707, -0.031902015209198, -0.016026049852371216, -1.3286261558532715, -0.6947315335273743, -0.9892574548721313, 0.1060386374592781, 0.017525359999682653, -0.00027253887003553245, -1.2906499691347268, 9362.0, 30146.0, 35388.0, 9362.0, 8.17190170288086, 0.21060913801193237, 0.15388382971286774, 0.517189085483551, -0.072996586561203, 0.01695026271045208, 0.9917410612106323, -0.06547048687934875, 0.10376167297363281, 1.50439453125, 1.35791015625, 0.015869140625, 1.491943359375
28765, 0.35295799374580383, 0.6430634260177612, -2.265857696533203, -0.003855273360386491, -0.0019700960256159306, -18.159149169921875, -0.033020682632923126, -0.016572607681155205, -1.3291908502578735, -0.6947291493415833, -0.9892571568489075, 0.10605569928884506, 0.010209000657998986, -0.004835506823098967, -1.2662589401344364, 9362.0, 30146.0, 35388.0, 9362.0, 8.17190170288086, 0.26998549699783325, -0.2864524722099304, -0.35284003615379333, -0.07325495034456253, 0.012986165471374989, 0.9987823367118835, -0.06547048687934875, 0.10376167297363281, 1.50439453125, 1.462646484375, 0.125823974609375, 1.494140625
28775, 0.35630056262016296, 0.6421189904212952, -2.2651360034942627, -0.0041910563595592976, -0.0021385811269283295, -18.172443389892578, -0.034135881811380386, -0.017124375328421593, -1.3297438621520996, -0.6947465538978577, -0.9893050193786621, 0.10606712102890015, 0.026110464935340597, 0.005122971637916862, -1.2803569776973, 9362.0, 30146.0, 35388.0, 9362.0, 8.17190170288086, 0.3941052556037903, -0.3265492916107178, -0.09817389398813248, -0.0759434700012207, 0.016404064372181892, 1.00303053855896, -0.06547048687934875, 0.10376167297363281, 1.50439453125, 1.4970703125, 0.18975830078125, 1.494140625
28785, 0.3590264320373535, 0.6392632722854614, -2.266040086746216, -0.004538045264780521, -0.002312631346285343, -18.185739517211914, -0.035261861979961395, -0.017685698345303535, -1.3295799493789673, -0.6947196125984192, -0.9892978668212891, 0.10611187666654587, 0.021704061671684042, -0.007762570309921557, -1.2654602117781963, 9362.0, 30146.0, 35388.0, 9362.0, 8.17190170288086, 0.44825389981269836, 0.4008815884590149, 0.04575742781162262, -0.07256166636943817, 0.018874652683734894, 0.9963552951812744, -0.06547048687934875, 0.10376167297363281, 1.50439453125, 1.40478515625, 0.0446624755859375, 1.49853515625
28795, 0.3644552528858185, 0.6369516849517822, -2.2636938095092773, -0.004896278493106365, -0.0024923195596784353, -18.19903564453125, -0.036384742707014084, -0.018251929432153702, -1.3295655250549316, -0.6946884393692017, -0.9892498254776001, 0.10606241226196289, -0.003144818121297207, -0.03493292541239157, -1.2668284144583248, 9362.0, 30146.0, 35388.0, 9362.0, 8.17190170288086, 0.4635033905506134, -0.0018585841171443462, -0.208811417222023, -0.07485257834196091, 0.015275758691132069, 0.9916456341743469, -0.06547048687934875, 0.10376167297363281, 1.50439453125, 1.49560546875, 0.1868743896484375, 1.49853515625
28805, 0.36692294478416443, 0.6345511674880981, -2.2640132904052734, -0.005265680607408285, -0.0026776755694299936, -18.21233367919922, -0.037495650351047516, -0.018819283694028854, -1.330189824104309, -0.6947463154792786, -0.9892606139183044, 0.10602985322475433, 0.003536484201988266, -0.019505836538968424, -1.281433047270208, 9362.0, 30146.0, 35388.0, 9362.0, 8.17190170288086, 0.19751675426959991, 0.08639851957559586, 0.03695204481482506, -0.07417231798171997, 0.013701817952096462, 0.9985098838806152, -0.06547048687934875, 0.10376167297363281, 1.50439453125, 1.06201171875, 1.8035430908203125, 1.493408203125
28815, 0.36901357769966125, 0.6339713335037231, -2.266960620880127, -0.005646177567541599, -0.0028687543235719204, -18.225637435913086, -0.038603730499744415, -0.019396433606743813, -1.3307489156723022, -0.6946770548820496, -0.9892478585243225, 0.1060839369893074, -0.014778442605347273, -0.05075764436691088, -1.2704184082161123, 9362.0, 30146.0, 35388.0, 9362.0, 8.17190170288086, 0.23030544817447662, 0.28322991728782654, -0.5560101866722107, -0.07317429780960083, 0.01566927134990692, 0.9992963671684265, -0.06547048687934875, 0.10376167297363281, 1.50439453125, 1.4619140625, 0.1246185302734375, 1.493408203125
28825, 0.3726942837238312, 0.6378675699234009, -2.2688186168670654, -0.006037769373506308, -0.0030656440649181604, -18.23894500732422, -0.039714645594358444, -0.019981464371085167, -1.3307124376296997, -0.6946664452552795, -0.9892322421073914, 0.10612096637487411, 0.0012370040972191926, -0.051301696364532745, -1.2976374680524432, 9362.0, 30146.0, 35388.0, 9362.0, 8.17190170288086, 0.39512062072753906, -0.9529401659965515, -0.6774593591690063, -0.07303083688020706, 0.0176607184112072, 0.9914075136184692, -0.06547048687934875, 0.10376167297363281, 1.50439453125, 1.461181640625, 0.1233062744140625, 1.49560546875
28835, 0.3737463355064392, 0.6313837766647339, -2.2636196613311768, -0.006440441124141216, -0.0032683885656297207, -18.252254486083984, -0.04081970080733299, -0.02056739665567875, -1.3311176300048828, -0.694733202457428, -0.9893068075180054, 0.10607098042964935, 0.002275438011250746, 0.002023472736397025, -1.252297607979946, 9362.0, 30146.0, 35388.0, 9362.0, 8.17190170288086, 0.1501869410276413, 1.6055928468704224, 0.6124435067176819, -0.07753325253725052, 0.013967170380055904, 0.9958034753799438, -0.06547048687934875, 0.10376167297363281, 1.50439453125, 1.270751953125, 0.104522705078125, 1.49560546875
28845, 0.3743944764137268, 0.6264646649360657, -2.266421318054199, -0.006854178849607706, -0.003477012272924185, -18.26556968688965, -0.041927892714738846, -0.021157415583729744, -1.331857442855835, -0.6946845054626465, -0.989272952079773, 0.10603734850883484, -0.022016723468873227, -0.04076015193552962, -1.2545668870891815, 9362.0, 30146.0, 35388.0, 9362.0, 8.17190170288086, -0.06513507664203644, -0.10531090945005417, 0.373524934053421, -0.07723598927259445, 0.018164483830332756, 0.9988527297973633, -0.06547048687934875, 0.10376167297363281, 1.50439453125, 1.503662109375, 0.2029876708984375, 1.496337890625
28855, 0.37549909949302673, 0.6249447464942932, -2.268897294998169, -0.007278973236680031, -0.0036915638484060764, -18.278888702392578, -0.04303104430437088, -0.02175283059477806, -1.3320707082748413, -0.6947524547576904, -0.9892991185188293, 0.10601963847875595, 0.011111666752607914, 0.0008620755093033949, -1.2626917333384777, 9362.0, 30146.0, 35388.0, 9362.0, 8.152067184448242, -0.055458273738622665, 0.13552629947662354, -1.1068767309188843, -0.07072846591472626, 0.01941513642668724, 1.0012294054031372, -0.04160941019654274, -0.18295860290527344, 1.48095703125, 1.53662109375, 0.27239990234375, 1.496337890625
28865, 0.37407344579696655, 0.6271920204162598, -2.2711875438690186, -0.00771477073431015, -0.003912083338946104, -18.29220962524414, -0.04412844777107239, -0.022351045161485672, -1.3320519924163818, -0.6947013139724731, -0.9892560243606567, 0.10604067146778107, -0.019264148607628925, -0.03685572319068342, -1.264583136909046, 9362.0, 30146.0, 35388.0, 9362.0, 8.152067184448242, -0.22191859781742096, 0.039289720356464386, 0.08484981954097748, -0.07688376307487488, 0.017563646659255028, 0.9972531199455261, -0.04160941019654274, -0.18295860290527344, 1.48095703125, 1.402587890625, 0.0425262451171875, 1.49560546875
28875, 0.3734227120876312, 0.6245355010032654, -2.2711782455444336, -0.00816152710467577, -0.004138593561947346, -18.305530548095703, -0.04522290825843811, -0.022950971499085426, -1.3320724964141846, -0.6946999430656433, -0.989338219165802, 0.10611583292484283, 0.039531733853898854, -0.030231952482580482, -1.2759738652474328, 9362.0, 30146.0, 35388.0, 9362.0, 8.152067184448242, -0.22775427997112274, -0.3143898546695709, -0.8065382242202759, -0.07124131917953491, 0.015397907234728336, 0.9972095489501953, -0.04160941019654274, -0.18295860290527344, 1.48095703125, 1.354248046875, 0.0154266357421875, 1.49560546875
28885, 0.37229472398757935, 0.6248084306716919, -2.2652711868286133, -0.00816152710467577, -0.004138593561947346, -18.305530548095703, -0.04522290825843811, -0.022950971499085426, -1.3320724964141846, -0.69468754529953, -0.9892974495887756, 0.1061355397105217, 0.016553517837083562, -0.037249531375465494, -1.2991565977823578, 9362.0, 30146.0, 35388.0, 9362.0, 8.152067184448242, -0.09900876134634018, 0.35910388827323914, 1.2384033203125, -0.07817616313695908, 0.018802175298333168, 0.9966682195663452, -0.04160941019654274, -0.18295860290527344, 1.48095703125, 1.354248046875, 0.0154266357421875, 1.491943359375
28895, 0.3708495795726776, 0.6227683424949646, -2.2711193561553955, -0.00908785779029131, -0.004609517753124237, -18.332178115844727, -0.04740765690803528, -0.024140991270542145, -1.3327438831329346, -0.6946934461593628, -0.9893061518669128, 0.10608398914337158, 0.00929389976333809, -0.039494424834686015, -1.302146587178397, 9362.0, 30146.0, 35388.0, 9362.0, 8.152067184448242, -0.28883108496665955, -0.07980315387248993, -0.36785653233528137, -0.07312479615211487, 0.022041836753487587, 0.9945846199989319, -0.04160941019654274, -0.18295860290527344, 1.48095703125, 1.43408203125, 0.080810546875, 1.491943359375
28905, 0.37048596143722534, 0.6261203289031982, -2.266664743423462, -0.00908785779029131, -0.004609517753124237, -18.332178115844727, -0.04740765690803528, -0.024140991270542145, -1.3327438831329346, -0.6946951150894165, -0.9893012046813965, 0.10607367753982544, 0.013133317653140306, -0.040261353352747165, -1.2981832906049844, 9362.0, 30146.0, 35388.0, 9362.0, 8.152067184448242, -0.25734788179397583, -0.2350241094827652, -0.48522743582725525, -0.07502025365829468, 0.015396974049508572, 0.9970824718475342, -0.04160941019654274, -0.18295860290527344, 1.48095703125, 1.43408203125, 0.080810546875, 1.493408203125
28915, 0.3666583299636841, 0.6278108358383179, -2.27009916305542, -0.010057782754302025, -0.005104166455566883, -18.358840942382812, -0.049582481384277344, -0.02532248944044113, -1.3336418867111206, -0.6946465969085693, -0.9892524480819702, 0.10615995526313782, -0.01787229130115172, -0.07082851531359324, -1.2932504612093993, 9362.0, 30146.0, 35388.0, 9362.0, 8.152067184448242, -0.35508057475090027, -0.34412136673927307, 0.5826834440231323, -0.07126728445291519, 0.016812454909086227, 1.000331163406372, -0.04160941019654274, -0.18295860290527344, 1.48095703125, 1.423095703125, 0.06591796875, 1.493408203125
28925, 0.36323413252830505, 0.632087230682373, -2.2737600803375244, -0.010057782754302025, -0.005104166455566883, -18.358840942382812, -0.049582481384277344, -0.02532248944044113, -1.3336418867111206, -0.694706916809082, -0.9892956018447876, 0.10614185780286789, 0.0021695420635273275, -0.04315541097713549, -1.2949125940179036, 9362.0, 30146.0, 35388.0, 9362.0, 8.152067184448242, -0.44165727496147156, -0.3250828981399536, -0.8468518853187561, -0.07635392993688583, 0.020172636955976486, 0.9961128830909729, -0.04160941019654274, -0.18295860290527344, 1.48095703125, 0.878173828125, 6.7096405029296875, 1.493408203125
28935, 0.36012327671051025, 0.6327364444732666, -2.2714786529541016, -0.011071354150772095, -0.005622401833534241, -18.385515213012695, -0.05177561193704605, -0.026497403159737587, -1.3338403701782227, -0.6946915984153748, -0.9892901182174683, 0.10611516982316971, 0.010250585344286212, -0.03711956097112079, -1.28579611269872, 9362.0, 30146.0, 35388.0, 9362.0, 8.152067184448242, -0.014553586952388287, -0.06496497988700867, 0.5959532260894775, -0.07200051099061966, 0.019364135339856148, 0.9930422306060791, -0.04160941019654274, -0.18295860290527344, 1.48095703125, 0.878173828125, 6.7096405029296875, 1.493408203125
28945, 0.35813194513320923, 0.6339721083641052, -2.2717368602752686, -0.011071354150772095, -0.005622401833534241, -18.385515213012695, -0.05177561193704605, -0.026497403159737587, -1.3338403701782227, -0.6946535110473633, -0.9892493486404419, 0.10613729059696198, -0.020649686004298205, -0.06679321530563698, -1.2912586395655505, 9362.0, 30146.0, 35388.0, 9362.0, 8.152067184448242, -0.289633572101593, 0.029579676687717438, 0.012202853336930275, -0.07567684352397919, 0.014855886809527874, 0.9948446750640869, -0.04160941019654274, -0.18295860290527344, 1.48095703125, 1.112548828125, 1.1168670654296875, 1.493408203125
28965, 0.35326409339904785, 0.6350847482681274, -2.2662386894226074, -0.011071354150772095, -0.005622401833534241, -18.385515213012695, -0.05177561193704605, -0.026497403159737587, -1.3338403701782227, -0.6946961879730225, -0.9892985224723816, 0.10610394179821014, 0.00775256133388475, -0.05270237499038899, -1.3031983233566962, 9362.0, 30146.0, 35388.0, 9362.0, 8.152067184448242, -0.20051439106464386, 0.35759004950523376, 0.443744421005249, -0.07250718772411346, 0.016209565103054047, 0.9958367943763733, -0.060263775289058685, -0.11127853393554688, 1.48681640625, 1.22314453125, 0.2666778564453125, 1.493408203125
28975, 0.35291826725006104, 0.6358518004417419, -2.2646491527557373, -0.013230472803115845, -0.006728017702698708, -18.43890953063965, -0.056185897439718246, -0.02877592109143734, -1.3356578350067139, -0.6946819424629211, -0.9892956018447876, 0.10610499233007431, 0.0010315556180615917, -0.04374041518872218, -1.2964026757569709, 9362.0, 30146.0, 35388.0, 9362.0, 8.152067184448242, 0.0734642893075943, -0.24088236689567566, 0.2170824557542801, -0.07323896139860153, 0.015040230005979538, 0.9932217001914978, -0.060263775289058685, -0.11127853393554688, 1.48681640625, 1.39892578125, 0.0390167236328125, 1.493408203125
28985, 0.35245513916015625, 0.6370931267738342, -2.2649266719818115, -0.013230472803115845, -0.006728017702698708, -18.43890953063965, -0.056185897439718246, -0.02877592109143734, -1.3356578350067139, -0.6947007775306702, -0.9892900586128235, 0.1060982346534729, -0.0009795778348259186, -0.039451546273454596, -1.292481873213931, 9362.0, 30146.0, 35388.0, 9362.0, 8.152067184448242, -0.10013840347528458, -0.23357947170734406, -0.23917214572429657, -0.07011856138706207, 0.014128615148365498, 0.9969088435173035, -0.060263775289058685, -0.11127853393554688, 1.48681640625, 1.2509765625, 0.1600799560546875, 1.493408203125
28995, 0.3528062403202057, 0.638516902923584, -2.263446807861328, -0.013230472803115845, -0.006728017702698708, -18.43890953063965, -0.056185897439718246, -0.02877592109143734, -1.3356578350067139, -0.6946855187416077, -0.9892945289611816, 0.10610420256853104, 0.0024709419697969913, -0.05164107597795464, -1.2982956821336704, 9362.0, 30146.0, 35388.0, 9362.0, 8.152067184448242, 0.07376136630773544, -0.2208796888589859, 0.29552313685417175, -0.07096032053232193, 0.01624874211847782, 0.9999202489852905, -0.060263775289058685, -0.11127853393554688, 1.48681640625, 1.31103515625, 0.0355682373046875, 1.493408203125
29005, 0.35365211963653564, 0.6364380717277527, -2.2623026371002197, -0.013230472803115845, -0.006728017702698708, -18.43890953063965, -0.056185897439718246, -0.02877592109143734, -1.3356578350067139, -0.6946659088134766, -0.9892943501472473, 0.10609467327594757, 0.0009961841529942486, -0.054989885561809615, -1.300401907526142, 9362.0, 30146.0, 35388.0, 9362.0, 8.152067184448242, 0.15028263628482819, 0.5042489171028137, 0.11505944281816483, -0.07152639329433441, 0.016873860731720924, 0.9977311491966248, -0.060263775289058685, -0.11127853393554688, 1.48681640625, 1.31103515625, 0.0355682373046875, 1.4970703125
29015, 0.3539106845855713, 0.6362798810005188, -2.2590065002441406, -0.015566451475024223, -0.007923721335828304, -18.49237060546875, -0.060623105615377426, -0.03101097233593464, -1.3369921445846558, -0.6946709752082825, -0.9892939329147339, 0.106110580265522, -6.02991417134485e-05, -0.06205972177338026, -1.2843276693156365, 9362.0, 30146.0, 35388.0, 9362.0, 8.152067184448242, -0.02746322937309742, -0.17145618796348572, 0.2092379927635193, -0.07326521724462509, 0.013773408718407154, 0.9950499534606934, -0.060263775289058685, -0.11127853393554688, 1.48681640625, 1.31103515625, 0.0355682373046875, 1.4970703125
29025, 0.3549177646636963, 0.6364072561264038, -2.2579989433288574, -0.015566451475024223, -0.007923721335828304, -18.49237060546875, -0.060623105615377426, -0.03101097233593464, -1.3369921445846558, -0.6946327090263367, -0.9892542362213135, 0.10615503042936325, -0.022821442594057485, -0.08990393704493727, -1.2761780166952073, 9362.0, 30146.0, 35388.0, 9362.0, 8.152067184448242, 0.12601853907108307, 0.34300047159194946, 0.12573929131031036, -0.07295652478933334, 0.014105575159192085, 0.9958640336990356, -0.060263775289058685, -0.11127853393554688, 1.48681640625, 1.31103515625, 0.0355682373046875, 1.494873046875
29065, 0.3626554608345032, 0.6256475448608398, -2.2561147212982178, -0.015566451475024223, -0.007923721335828304, -18.49237060546875, -0.060623105615377426, -0.03101097233593464, -1.3369921445846558, -0.694682240486145, -0.9892787337303162, 0.10612307488918304, 0.010866490657123685, -0.04578723888238301, -1.293550731280911, 9362.0, 30146.0, 35388.0, 9362.0, 8.152067184448242, 0.026687197387218475, 0.3907988965511322, -0.04940149188041687, -0.07408368587493896, 0.015054963529109955, 0.9982345700263977, -0.07348265498876572, -0.27255821228027344, 1.4736328125, 1.189453125, 0.4465484619140625, 1.49267578125
29075, 0.36462628841400146, 0.6206264495849609, -2.2566699981689453, -0.019403204321861267, -0.009885597042739391, -18.57264518737793, -0.06725630909204483, -0.034400708973407745, -1.3383979797363281, -0.6946985125541687, -0.9892684817314148, 0.10610948503017426, 0.0086439327986181, -0.06063248994564674, -1.3029605814078615, 9362.0, 30146.0, 35388.0, 9362.0, 8.152067184448242, 0.3801531493663788, 0.2232249230146408, -0.02797100506722927, -0.07408368587493896, 0.015054963529109955, 0.9982345700263977, -0.07348265498876572, -0.27255821228027344, 1.4736328125, 1.354248046875, 0.0154266357421875, 1.49267578125
29085, 0.3669922649860382, 0.6180071830749512, -2.2591192722320557, -0.019403204321861267, -0.009885597042739391, -18.57264518737793, -0.06725630909204483, -0.034400708973407745, -1.3383979797363281, -0.6946830749511719, -0.9892255067825317, 0.10599008947610855, 0.003417100143616237, 0.009727539148599362, -1.333949288584862, 9362.0, 30146.0, 35388.0, 9362.0, 8.152067184448242, 0.2570454776287079, 0.47166699171066284, -0.33410748839378357, -0.07534760236740112, 0.016699599102139473, 0.9963101744651794, -0.07348265498876572, -0.27255821228027344, 1.4736328125, 1.354248046875, 0.0154266357421875, 1.4912109375
29095, 0.370138019323349, 0.6163901686668396, -2.2613394260406494, -0.019403204321861267, -0.009885597042739391, -18.57264518737793, -0.06725630909204483, -0.034400708973407745, -1.3383979797363281, -0.6946506500244141, -0.989230751991272, 0.106133833527565, -0.014008712917878837, -0.07412085227176135, -1.2790590358811202, 9362.0, 30146.0, 35388.0, 9362.0, 8.152067184448242, 0.36292365193367004, -0.0784284919500351, -0.3438127636909485, -0.07566208392381668, 0.015854090452194214, 0.9951527714729309, -0.07348265498876572, -0.27255821228027344, 1.4736328125, 1.354248046875, 0.0154266357421875, 1.4912109375
29105, 0.37065285444259644, 0.6168735027313232, -2.2613863945007324, -0.019403204321861267, -0.009885597042739391, -18.57264518737793, -0.06725630909204483, -0.034400708973407745, -1.3383979797363281, -0.6946878433227539, -0.9892698526382446, 0.10611381381750107, 0.003486061595667349, -0.052922281428010365, -1.2949129010187834, 9362.0, 30146.0, 35388.0, 9362.0, 8.152067184448242, -0.09619099646806717, 0.33861294388771057, 0.30997276306152344, -0.07364285737276077, 0.016382286325097084, 0.9976558685302734, -0.07348265498876572, -0.27255821228027344, 1.4736328125, 1.354248046875, 0.0154266357421875, 1.4970703125
29115, 0.37118300795555115, 0.6187685132026672, -2.263496160507202, -0.019403204321861267, -0.009885597042739391, -18.57264518737793, -0.06725630909204483, -0.034400708973407745, -1.3383979797363281, -0.6946669220924377, -0.989229679107666, 0.10616060346364975, -0.018252869243411324, -0.07778002480930013, -1.2862118080664409, 9362.0, 30146.0, 35388.0, 9362.0, 8.152067184448242, 0.24416567385196686, -0.19780327379703522, -0.16545799374580383, -0.075210802257061, 0.01981029473245144, 0.9967577457427979, -0.07348265498876572, -0.27255821228027344, 1.4736328125, 1.354248046875, 0.0154266357421875, 1.4970703125
29125, 0.3702722191810608, 0.6162872910499573, -2.261920213699341, -0.019403204321861267, -0.009885597042739391, -18.57264518737793, -0.06725630909204483, -0.034400708973407745, -1.3383979797363281, -0.6946954727172852, -0.9892764091491699, 0.10611613094806671, -0.012892345176211305, -0.04261269808952761, -1.2938608090345287, 9362.0, 30146.0, 35388.0, 9362.0, 8.152067184448242, -0.27253612875938416, 0.10534705966711044, -0.4807509183883667, -0.07183563709259033, 0.01725884899497032, 0.9953811168670654, -0.07348265498876572, -0.27255821228027344, 1.4736328125, 1.14111328125, 0.8206024169921875, 1.4970703125
29135, 0.3707972466945648, 0.6201261878013611, -2.262690782546997, -0.02363366074860096, -0.012054513208568096, -18.652996063232422, -0.0737433210015297, -0.03791343793272972, -1.3402345180511475, -0.694701611995697, -0.9892618060112, 0.10609426349401474, -0.00803593788135583, -0.03694505809372117, -1.3035935213884136, 9362.0, 30146.0, 35388.0, 9362.0, 8.152067184448242, 0.03774816542863846, -0.23863135278224945, 0.3605419099330902, -0.07591322809457779, 0.017163163051009178, 0.9964184165000916, -0.07348265498876572, -0.27255821228027344, 1.4736328125, 1.14111328125, 0.8206024169921875, 1.4970703125
29145, 0.3690403699874878, 0.6247367858886719, -2.2669904232025146, -0.02363366074860096, -0.012054513208568096, -18.652996063232422, -0.0737433210015297, -0.03791343793272972, -1.3402345180511475, -0.6946849822998047, -0.9892606735229492, 0.10612385720014572, -0.018652727375935905, -0.0337959010875295, -1.2917473128029051, 9362.0, 30146.0, 35388.0, 9362.0, 8.152067184448242, -0.06580568104982376, -0.3504544198513031, -0.8602718114852905, -0.0718749538064003, 0.016443977132439613, 0.9980251789093018, -0.07348265498876572, -0.27255821228027344, 1.4736328125, 1.14111328125, 0.8206024169921875, 1.494140625
29165, 0.3661271929740906, 0.6270676851272583, -2.2666525840759277, -0.02513006143271923, -0.012824575416743755, -18.6798095703125, -0.07590116560459137, -0.039093535393476486, -1.3409265279769897, -0.6946512460708618, -0.9892021417617798, 0.10618245601654053, -0.023426250100940207, -0.08010891675510834, -1.310241506791906, 9362.0, 30146.0, 35388.0, 9362.0, 8.17190170288086, -0.2652623951435089, -0.12003462016582489, 0.031362347304821014, -0.07336559146642685, 0.01538888644427061, 0.9969263672828674, -0.05351167917251587, -0.03959846496582031, 1.49267578125, 1.36962890625, 0.01910400390625, 1.494140625
29175, 0.36530062556266785, 0.6319981217384338, -2.265479564666748, -0.02513006143271923, -0.012824575416743755, -18.6798095703125, -0.07590116560459137, -0.039093535393476486, -1.3409265279769897, -0.6946743726730347, -0.9892403483390808, 0.10618387162685394, -0.005391894081727605, -0.0628828046642127, -1.3261113803597957, 9362.0, 30146.0, 35388.0, 9362.0, 8.17190170288086, 0.03189557045698166, -0.25967854261398315, -0.24560457468032837, -0.07231460511684418, 0.01383853331208229, 0.9964654445648193, -0.05351167917251587, -0.03959846496582031, 1.49267578125, 1.16748046875, 0.598236083984375, 1.494140625
29185, 0.3634449541568756, 0.6352337598800659, -2.26657772064209, -0.02513006143271923, -0.012824575416743755, -18.6798095703125, -0.07590116560459137, -0.039093535393476486, -1.3409265279769897, -0.6947059631347656, -0.9892598986625671, 0.10611294955015182, -0.013599241782846992, -0.05258035874467737, -1.2933744507144944, 9362.0, 30146.0, 35388.0, 9362.0, 8.17190170288086, -0.21246589720249176, -0.31523701548576355, 0.3417457938194275, -0.0725657194852829, 0.014766940847039223, 0.9956111311912537, -0.05351167917251587, -0.03959846496582031, 1.49267578125, 1.16748046875, 0.598236083984375, 1.494873046875
29195, 0.3626801073551178, 0.6382963061332703, -2.266075849533081, -0.02513006143271923, -0.012824575416743755, -18.6798095703125, -0.07590116560459137, -0.039093535393476486, -1.3409265279769897, -0.6946884393692017, -0.9892502427101135, 0.1061382070183754, -0.009729068151809522, -0.0591857443714332, -1.3058208548401982, 9362.0, 30146.0, 35388.0, 9362.0, 8.17190170288086, -0.04839465394616127, -0.3400160074234009, -0.3492487072944641, -0.07243022322654724, 0.016586050391197205, 0.9958102107048035, -0.05351167917251587, -0.03959846496582031, 1.49267578125, 1.16748046875, 0.598236083984375, 1.494873046875
29205, 0.36091214418411255, 0.6409141421318054, -2.2629711627960205, -0.02513006143271923, -0.012824575416743755, -18.6798095703125, -0.07590116560459137, -0.039093535393476486, -1.3409265279769897, -0.6947068572044373, -0.9892728328704834, 0.10608947277069092, -0.011053347431136916, -0.05871486080408772, -1.304964499261558, 9362.0, 30146.0, 35388.0, 9362.0, 8.17190170288086, -0.2156263142824173, -0.20285232365131378, 0.5963414907455444, -0.07287805527448654, 0.01391926221549511, 0.9970337748527527, -0.05351167917251587, -0.03959846496582031, 1.49267578125, 1.16748046875, 0.598236083984375, 1.494873046875
29215, 0.3587885797023773, 0.6420599222183228, -2.264695405960083, -0.02988128550350666, -0.01527529675513506, -18.76032066345215, -0.08249889314174652, -0.042581234127283096, -1.342966914176941, -0.6946812868118286, -0.9892663359642029, 0.10609261691570282, -0.0062950842064532705, -0.058924543935972906, -1.3056271702188802, 9362.0, 30146.0, 35388.0, 9362.0, 8.17190170288086, -0.14238886535167694, -0.11412365734577179, -0.2501276731491089, -0.07285180687904358, 0.015338705852627754, 0.9963693022727966, -0.05351167917251587, -0.03959846496582031, 1.49267578125, 1.16748046875, 0.598236083984375, 1.494873046875
29235, 0.3573458194732666, 0.6441735625267029, -2.2636256217956543, -0.02988128550350666, -0.01527529675513506, -18.76032066345215, -0.08249889314174652, -0.042581234127283096, -1.342966914176941, -0.6946590542793274, -0.989250659942627, 0.10617275536060333, 0.006475353843093728, -0.07456225278244233, -1.3330963661299906, 9362.0, 30146.0, 35388.0, 9362.0, 8.17190170288086, -0.156854510307312, 0.194037064909935, 0.42009639739990234, -0.06966420263051987, 0.016487156972289085, 0.9977961778640747, -0.05351167917251587, -0.03959846496582031, 1.49267578125, 1.22900390625, 0.2412872314453125, 1.494873046875
29245, 0.35766538977622986, 0.6433284282684326, -2.2617127895355225, -0.02988128550350666, -0.01527529675513506, -18.76032066345215, -0.08249889314174652, -0.042581234127283096, -1.342966914176941, -0.6946709156036377, -0.9892686605453491, 0.10613064467906952, -0.0017674936838256235, -0.07100843177317984, -1.3072213523248546, 9362.0, 30146.0, 35388.0, 9362.0, 8.17190170288086, -0.0016048804391175508, 0.2423161417245865, 0.1321878731250763, -0.07168986648321152, 0.013399563729763031, 0.9984778165817261, -0.05351167917251587, -0.03959846496582031, 1.49267578125, 1.22900390625, 0.2412872314453125, 1.494873046875
29285, 0.35898125171661377, 0.6402567625045776, -2.253333806991577, -0.03327075019478798, -0.01702413335442543, -18.814067840576172, -0.08698077499866486, -0.04485659301280975, -1.344205617904663, -0.6946533918380737, -0.9892665147781372, 0.1060604602098465, -0.008766807838961202, -0.06788757166506798, -1.2989112211345366, 9362.0, 30146.0, 35388.0, 9362.0, 8.17190170288086, 0.16728141903877258, 0.21711339056491852, 0.06124067306518555, -0.07218611240386963, 0.014312978833913803, 0.9973751902580261, -0.05351167917251587, -0.03959846496582031, 1.49267578125, 0.990966796875, 3.1913299560546875, 1.494873046875
29295, 0.36117035150527954, 0.6383671164512634, -2.253535270690918, -0.03683988377451897, -0.018863776698708534, -18.86785125732422, -0.09147614240646362, -0.04712584987282753, -1.344958782196045, -0.6946392059326172, -0.9892390370368958, 0.10614013671875, -0.004445207157342053, -0.08260214852347758, -1.3314303666685188, 9362.0, 30146.0, 35388.0, 9362.0, 8.17190170288086, 0.2518121898174286, 0.2144806832075119, -0.1377001255750656, -0.0742032527923584, 0.016214581206440926, 0.9998931884765625, -0.05351167917251587, -0.03959846496582031, 1.49267578125, 1.00634765625, 2.84368896484375, 1.494873046875
29305, 0.36428242921829224, 0.6365102529525757, -2.2527291774749756, -0.03683988377451897, -0.018863776698708534, -18.86785125732422, -0.09147614240646362, -0.04712584987282753, -1.344958782196045, -0.694657564163208, -0.9892380237579346, 0.10609997808933258, -0.017919319067291252, -0.07238358651522958, -1.3079832879118671, 9362.0, 30146.0, 35388.0, 9362.0, 8.17190170288086, 0.4102179706096649, 0.11373455822467804, 0.1310124397277832, -0.07127191126346588, 0.014511805959045887, 0.9992111325263977, -0.05351167917251587, -0.03959846496582031, 1.49267578125, 1.427490234375, 0.0716400146484375, 1.493408203125
29335, 0.36932462453842163, 0.6344274282455444, -2.2542612552642822, -0.03683988377451897, -0.018863776698708534, -18.86785125732422, -0.09147614240646362, -0.04712584987282753, -1.344958782196045, -0.694644570350647, -0.9892213344573975, 0.10612953454256058, -0.01516102881828781, -0.06403421445784829, -1.324647296439282, 9362.0, 30146.0, 35388.0, 9362.0, 8.17190170288086, 0.08511020243167877, 0.25947630405426025, -0.10420960187911987, -0.0745600163936615, 0.01695067062973976, 0.9960867166519165, -0.05351167917251587, -0.03959846496582031, 1.49267578125, 1.19970703125, 0.38543701171875, 1.493408203125
29345, 0.37205129861831665, 0.6341747045516968, -2.257493734359741, -0.03683988377451897, -0.018863776698708534, -18.86785125732422, -0.09147614240646362, -0.04712584987282753, -1.344958782196045, -0.6946673393249512, -0.9892376065254211, 0.10607290267944336, -0.03499645628364834, -0.05282942191655593, -1.2947514414054573, 9362.0, 30146.0, 35388.0, 9362.0, 8.17190170288086, 0.35736820101737976, -0.028223762288689613, -0.8680741786956787, -0.07460662722587585, 0.018546288833022118, 0.9946649074554443, -0.05351167917251587, -0.03959846496582031, 1.49267578125, 1.19970703125, 0.38543701171875, 1.49560546875
29355, 0.37434759736061096, 0.6300874352455139, -2.2542834281921387, -0.04252893105149269, -0.021795086562633514, -18.948579788208008, -0.09814489632844925, -0.050602927803993225, -1.3463599681854248, -0.6946336627006531, -0.9892050623893738, 0.10610005259513855, -0.06997022007552679, -0.09195723568794278, -1.2828867273788958, 9362.0, 30146.0, 35388.0, 9362.0, 8.17190170288086, 0.10263556241989136, 0.5326066017150879, -0.04586116969585419, -0.07460662722587585, 0.018546288833022118, 0.9946649074554443, -0.03414653241634369, 0.014162063598632812, 1.4970703125, 1.19970703125, 0.38543701171875, 1.49560546875
29365, 0.3777067959308624, 0.625239908695221, -2.2554304599761963, -0.04252893105149269, -0.021795086562633514, -18.948579788208008, -0.09814489632844925, -0.050602927803993225, -1.3463599681854248, -0.6946595907211304, -0.98921799659729, 0.10613436996936798, -0.025149573588458436, -0.06565816969700222, -1.3281194193786798, 9362.0, 30146.0, 35388.0, 9362.0, 8.17190170288086, 0.3195405602455139, 0.7034120559692383, 1.3309688568115234, -0.0754423663020134, 0.018094377592206, 0.9961186051368713, -0.03414653241634369, 0.014162063598632812, 1.4970703125, 1.19970703125, 0.38543701171875, 1.493408203125
29385, 0.3808195888996124, 0.6229681372642517, -2.260530710220337, -0.04451387748122215, -0.022818978875875473, -18.97551727294922, -0.10034734755754471, -0.051788877695798874, -1.3473303318023682, -0.6946896314620972, -0.9892144799232483, 0.10604625940322876, -0.03415836429804615, -0.07151086407392881, -1.3132212357882673, 9362.0, 30146.0, 35388.0, 9362.0, 8.17190170288086, 0.1067190021276474, -0.25980448722839355, -0.944246768951416, -0.07465160638093948, 0.016906557604670525, 0.9966408014297485, -0.03414653241634369, 0.014162063598632812, 1.4970703125, 1.282470703125, 0.0786590576171875, 1.493408203125
29395, 0.3831767141819, 0.6248542070388794, -2.262544631958008, -0.04451387748122215, -0.022818978875875473, -18.97551727294922, -0.10034734755754471, -0.051788877695798874, -1.3473303318023682, -0.6946749687194824, -0.989210844039917, 0.10609149187803268, -0.03556834518826134, -0.05646057996506215, -1.2948724231210313, 9362.0, 30146.0, 35388.0, 9362.0, 8.17190170288086, 0.3113124370574951, 0.10049285739660263, 0.004173446912318468, -0.07521874457597733, 0.020115362480282784, 0.9959874153137207, -0.03414653241634369, 0.014162063598632812, 1.4970703125, 1.083251953125, 1.487762451171875, 1.493408203125
29405, 0.3799385130405426, 0.6284462213516235, -2.261536121368408, -0.04451387748122215, -0.022818978875875473, -18.97551727294922, -0.10034734755754471, -0.051788877695798874, -1.3473303318023682, -0.6946463584899902, -0.9892112016677856, 0.10606992244720459, -0.05757611573821798, -0.08329894171237129, -1.2837938018728232, 9362.0, 30146.0, 35388.0, 9362.0, 8.17190170288086, -0.564304530620575, -0.5411871671676636, -0.23545366525650024, -0.07171876728534698, 0.011970947496592999, 1.000355839729309, -0.03414653241634369, 0.014162063598632812, 1.4970703125, 1.4677734375, 0.1347198486328125, 1.493408203125
29435, 0.35696595907211304, 0.6481709480285645, -2.265246629714966, -0.04451387748122215, -0.022818978875875473, -18.97551727294922, -0.10034734755754471, -0.051788877695798874, -1.3473303318023682, -0.6946882009506226, -0.9892359375953674, 0.10607988387346268, -0.027304713665023964, -0.05357280221966221, -1.299735462658197, 9362.0, 30146.0, 35388.0, 9362.0, 8.17190170288086, -0.7617529630661011, -0.7881038188934326, -0.04966673254966736, -0.07110273838043213, 0.017116306349635124, 0.995302140712738, -0.03414653241634369, 0.014162063598632812, 1.4970703125, 1.127197265625, 0.9573516845703125, 1.493408203125
29445, 0.35163137316703796, 0.6529451608657837, -2.265465497970581, -0.04451387748122215, -0.022818978875875473, -18.97551727294922, -0.10034734755754471, -0.051788877695798874, -1.3473303318023682, -0.6946322917938232, -0.989204466342926, 0.10610810667276382, -0.04312834029468905, -0.08710656314386256, -1.2964946047092794, 9362.0, 30146.0, 35388.0, 9362.0, 8.17190170288086, -0.22562912106513977, -0.3020493984222412, 0.27823567390441895, -0.07243906706571579, 0.012513155117630959, 0.9952760934829712, -0.03414653241634369, 0.014162063598632812, 1.4970703125, 1.127197265625, 0.9573516845703125, 1.496337890625
29475, 0.3510115444660187, 0.6508777141571045, -2.259146213531494, -0.04451387748122215, -0.022818978875875473, -18.97551727294922, -0.10034734755754471, -0.051788877695798874, -1.3473303318023682, -0.694678544998169, -0.9892529249191284, 0.10608521103858948, -0.01615978812712485, -0.06267978977516009, -1.2908816411408892, 9362.0, 30146.0, 35388.0, 9362.0, 8.152067184448242, -0.002145166741684079, 0.41640448570251465, 0.6188398599624634, -0.07070241868495941, 0.013665569014847279, 1.000320315361023, -0.06363460421562195, -0.20087814331054688, 1.4794921875, 1.295654296875, 0.05548095703125, 1.496337890625
29495, 0.3593425154685974, 0.6446998119354248, -2.254467010498047, -0.057349320501089096, -0.02946195751428604, -19.137407302856445, -0.11370484530925751, -0.05877659469842911, -1.3510620594024658, -0.6946733593940735, -0.9892430901527405, 0.10609050840139389, -0.023252353651266808, -0.06849814039827606, -1.2978734160190188, 9362.0, 30146.0, 35388.0, 9362.0, 8.152067184448242, 0.40498363971710205, 0.17482249438762665, 0.5347596406936646, -0.07121971249580383, 0.01814342476427555, 0.995163083076477, -0.06363460421562195, -0.20087814331054688, 1.4794921875, 1.29052734375, 0.06378173828125, 1.496337890625
