timeTick, roll, pitch, yaw, stateX, stateY, stateZ, stateVX, stateVY, stateVZ, otX0, otY0, otZ0, otRoll0, otPitch0, otYaw0, left wing, pitch motor, yaw motor, right wing, voltage, roll rate, pitch rate, yaw rate, A_x, A_y, A_z, current, i_raw, v_raw, airflow_voltage, airflow_speed, pot_Pitch
17747, 1.4073504209518433, -1.2028522491455078, 0.9964624047279358, 0, 0, 0, 0, 0, 0, -0.6432166695594788, -0.9628320336341858, 0.10315506905317307, -1.5095728423821966, -1.0330870210511023, 0.15681902081345958, 0, 0, 0, 0, 0, 0, 0, 0, 0, 0, 0, 0, 0, 0, 0, 0, 0
17757, 1.4068158864974976, -1.203447937965393, 0.9959402680397034, -0.0003093211562372744, 0.00035085424315184355, -6.637309551239014, -0.013380972668528557, 0.015180997550487518, -0.8234747648239136, -0.6432269215583801, -0.9628508687019348, 0.10316330939531326, -1.5133945714730173, -1.0214686516244171, 0.1651919952444526, 9362.0, 30146.0, 35388.0, 9362.0, 0, 0.07838364690542221, 0.5220875144004822, 0.3764006197452545, -0.0902392566204071, -0.00922860112041235, 0.9941820502281189, 0, 0, 0, 0, 0, 0
17767, 1.4068175554275513, -1.2057691812515259, 0.9973363876342773, -0.00043268987792544067, 0.0004908665432594717, -6.645547389984131, -0.011292802169919014, 0.012821443378925323, -0.824090838432312, -0.6432169079780579, -0.9628846049308777, 0.10314638912677765, -1.51773083499335, -1.0259206810900707, 0.15487201423640473, 9362.0, 30146.0, 35388.0, 9362.0, 0, 0.19999609887599945, 0.3164065480232239, 0.10086260735988617, -0.09182749688625336, -0.00921846367418766, 0.9956222772598267, 0, 0, 0, 1.42822265625, 0.0726470947265625, 0
17777, 1.407753348350525, -1.2058275938034058, 0.9975698590278625, -0.0005351725849322975, 0.0006072885007597506, -6.653791427612305, -0.009203706867992878, 0.010462996549904346, -0.8247122168540955, -0.6432133316993713, -0.9628834128379822, 0.10315079987049103, -1.5116911057798958, -1.0205305643890483, 0.16004893095999273, 9362.0, 30146.0, 35388.0, 9362.0, 0, 0.014983927831053734, -0.08855823427438736, -0.14269675314426422, -0.09157395362854004, -0.008478117175400257, 0.9973540306091309, 0, 0, 0, 1.355712890625, 0.0155029296875, 1.493408203125
17787, 1.4084893465042114, -1.204599142074585, 0.9961481094360352, -0.0006167317624203861, 0.0007001124322414398, -6.662041187286377, -0.007108127232640982, 0.00810181349515915, -0.825217068195343, -0.6432790756225586, -0.962967038154602, 0.10312989354133606, -1.5265363423143379, -1.0664809652026577, 0.2589448224580766, 9362.0, 30146.0, 35388.0, 9362.0, 0, 0.18496593832969666, 0.17851191759109497, 0.1289047747850418, -0.0900910347700119, -0.006153299938887358, 0.9970711469650269, 0, 0, 0, 1.490478515625, 0.1768646240234375, 1.493408203125
17797, 1.4103015661239624, -1.2056571245193481, 0.997478187084198, -0.0006773144123144448, 0.0007692940416745842, -6.670294761657715, -0.005008462816476822, 0.005734460894018412, -0.8255350589752197, -0.6432607173919678, -0.9629669785499573, 0.10312172770500183, -1.5310008226238305, -1.0666946912028266, 0.24293923470414694, 9362.0, 30146.0, 35388.0, 9362.0, 0, -0.03803126886487007, 0.09017099440097809, -0.2625495493412018, -0.08926810324192047, -0.0069953142665326595, 0.9959198832511902, 0, 0, 0, 1.2451171875, 0.1796875, 1.494873046875
17807, 1.4110052585601807, -1.2062878608703613, 0.9961293339729309, -0.0007169102318584919, 0.0008147944463416934, -6.67855167388916, -0.002910657785832882, 0.0033656717278063297, -0.8258451819419861, -0.6432346105575562, -0.9629679322242737, 0.10317748785018921, -1.5207065707600464, -1.0776794658764857, 0.24440920809595812, 9362.0, 30146.0, 35388.0, 9362.0, 0, 0.20238935947418213, 0.3293289542198181, -0.07847211509943008, -0.09062487632036209, -0.008514676243066788, 0.9950888156890869, 0, 0, 0, 1.27001953125, 0.10626220703125, 1.494873046875
17817, 1.4129773378372192, -1.208777666091919, 0.9965561628341675, -0.0007355277193710208, 0.0008366023539565504, -6.686811923980713, -0.0008129062480293214, 0.000995864626020193, -0.8262417912483215, -0.643280029296875, -0.9629523158073425, 0.10314497351646423, -1.5209566468648597, -1.0803933645451878, 0.23298616895014918, 9362.0, 30146.0, 35388.0, 9362.0, 0, 0.24426819384098053, 0.1281813532114029, -0.06016915664076805, -0.09278852492570877, -0.008048729039728642, 0.9945889711380005, 0, 0, 0, 1.193115234375, 0.424102783203125, 1.4970703125
17827, 1.4146288633346558, -1.2095048427581787, 0.997170627117157, -0.0007331790402531624, 0.0008347247494384646, -6.695076942443848, 0.001282631536014378, -0.0013713536318391562, -0.8267925977706909, -0.6432480812072754, -0.962953507900238, 0.10315940529108047, -1.5285332271001855, -1.0676425006944612, 0.22457368516750492, 9362.0, 30146.0, 35388.0, 9362.0, 0, -0.10889524966478348, 0.28706657886505127, 0.09469878673553467, -0.09321939200162888, -0.007051657419651747, 0.9923598766326904, 0, 0, 0, 1.42236328125, 0.0649566650390625, 1.4970703125
17837, 1.4140251874923706, -1.2113628387451172, 0.9984309077262878, -0.0007098541827872396, 0.0008091594208963215, -6.703347682952881, 0.003382361028343439, -0.003741675056517124, -0.8273503184318542, -0.6431826949119568, -0.9628565907478333, 0.10317221283912659, -1.5106510251478735, -1.0392144140213588, 0.14147120005883745, 9362.0, 30146.0, 35388.0, 9362.0, 0, 0.22015056014060974, 0.012699726037681103, -0.32066380977630615, -0.09271272271871567, -0.00833818968385458, 0.9946204423904419, 0, 0, 0, 1.530029296875, 0.2581329345703125, 1.489013671875
17847, 1.4148324728012085, -1.2112681865692139, 0.9963651299476624, -0.0006655474426224828, 0.0007599018281325698, -6.711625099182129, 0.0054790242575109005, -0.006109804846346378, -0.8281118869781494, -0.6431949734687805, -0.9628950953483582, 0.10311125963926315, -1.5049213376576316, -1.0335580541535592, 0.12556713911044973, 9362.0, 30146.0, 35388.0, 9362.0, 8.231406211853027, 0.0518646165728569, -0.3870542049407959, -0.3680065870285034, -0.09358567744493484, -0.009384600445628166, 0.9953069090843201, -0.08562576770782471, 0.06792068481445312, 1.50146484375, 1.072265625, 1.6459503173828125, 1.489013671875
17857, 1.4158718585968018, -1.2099140882492065, 0.9939399361610413, -0.0006002417067065835, 0.0006869501085020602, -6.719909191131592, 0.007582035381346941, -0.008480601944029331, -0.8287217617034912, -0.6431919932365417, -0.9628715515136719, 0.1031220480799675, -1.5123526154736457, -1.0341970578281519, 0.13127404752778923, 9362.0, 30146.0, 35388.0, 9362.0, 8.231406211853027, 0.09042904525995255, 0.10175620764493942, -0.06529226899147034, -0.0963728055357933, -0.006815412547439337, 0.9963052272796631, -0.08562576770782471, 0.06792068481445312, 1.50146484375, 1.486083984375, 0.16845703125, 1.493408203125
17867, 1.4181931018829346, -1.2120559215545654, 0.9941418766975403, -0.0005138954729773104, 0.0005902701523154974, -6.728199005126953, 0.009687118232250214, -0.01085546612739563, -0.8292247653007507, -0.6431790590286255, -0.9628854990005493, 0.10305967926979065, -1.5050258021518492, -1.0372383166678105, 0.13605228827594204, 9362.0, 30146.0, 35388.0, 9362.0, 8.231406211853027, 0.03737609460949898, 0.21427510678768158, -0.1138918474316597, -0.09234174340963364, -0.007489627227187157, 0.9959112405776978, -0.08562576770782471, 0.06792068481445312, 1.50146484375, 1.5673828125, 0.3411102294921875, 1.493408203125
17877, 1.4182260036468506, -1.2136340141296387, 0.9943061470985413, -0.0004064994282089174, 0.0004698198172263801, -6.736493110656738, 0.011792083270847797, -0.01323457807302475, -0.8296270370483398, -0.643182635307312, -0.96286940574646, 0.10310928523540497, -1.5078876786255577, -1.040085991076154, 0.16253668743635172, 9362.0, 30146.0, 35388.0, 9362.0, 8.231406211853027, 0.01020452007651329, 0.05583344027400017, -0.2368781715631485, -0.09118841588497162, -0.00911164004355669, 0.9965150952339172, -0.08562576770782471, 0.06792068481445312, 1.50146484375, 1.508056640625, 0.211883544921875, 1.487548828125
17887, 1.4179410934448242, -1.2141854763031006, 0.9940162897109985, -0.0002780421928036958, 0.00032556691439822316, -6.744791507720947, 0.013899369165301323, -0.015616001561284065, -0.8300948739051819, -0.6432453393936157, -0.9629446268081665, 0.10312196612358093, -1.5186679449538298, -1.0701656513115836, 0.2401276804339977, 9362.0, 30146.0, 35388.0, 9362.0, 8.231406211853027, -0.14149892330169678, 0.35070690512657166, -0.1263803392648697, -0.09233981370925903, -0.011159185320138931, 0.9959156513214111, -0.08562576770782471, 0.06792068481445312, 1.50146484375, 1.279541015625, 0.0847015380859375, 1.487548828125
17897, 1.4165370464324951, -1.2154772281646729, 0.9936917424201965, -0.0001284918253077194, 0.0001574921334395185, -6.753094673156738, 0.01601068675518036, -0.01799897663295269, -0.8305001258850098, -0.6432427763938904, -0.9629005789756775, 0.10317742079496384, -1.5264883949380967, -1.071525625433594, 0.2292487898590184, 9362.0, 30146.0, 35388.0, 9362.0, 8.231406211853027, 0.12751643359661102, -0.14848914742469788, 0.062261004000902176, -0.09703337401151657, -0.008696069940924644, 0.9948999881744385, -0.08562576770782471, 0.06792068481445312, 1.50146484375, 1.51318359375, 0.2224273681640625, 1.4912109375
17907, 1.4172759056091309, -1.2141695022583008, 0.9928553700447083, 4.2171726818196476e-05, -3.440472937654704e-05, -6.761402130126953, 0.018122006207704544, -0.020380426198244095, -0.830947995185852, -0.6432204246520996, -0.9629129767417908, 0.10318891704082489, -1.522482282181209, -1.073048440395155, 0.23696352692633454, 9362.0, 30146.0, 35388.0, 9362.0, 8.231406211853027, -0.12258309870958328, -0.03858145326375961, 0.11769818514585495, -0.09263965487480164, -0.00781378522515297, 0.9949012398719788, -0.08562576770782471, 0.06792068481445312, 1.50146484375, 1.307373046875, 0.039581298828125, 1.4912109375
17917, 1.4167448282241821, -1.2143793106079102, 0.9941678047180176, 0.00023394847812596709, -0.00025009200908243656, -6.76971435546875, 0.02023332379758358, -0.02275705337524414, -0.8314946889877319, -0.643237292766571, -0.9629544019699097, 0.10314732789993286, -1.5389125704822515, -1.0779545922066802, 0.2281404212420935, 9362.0, 30146.0, 35388.0, 9362.0, 8.231406211853027, 0.173572838306427, 0.1423213928937912, 0.3140937387943268, -0.09256350249052048, -0.008430751040577888, 0.9976733326911926, -0.08562576770782471, 0.06792068481445312, 1.50146484375, 1.45751953125, 0.117095947265625, 1.49267578125
17927, 1.4181715250015259, -1.2153500318527222, 0.9960368275642395, 0.0004468231345526874, -0.0004895475576631725, -6.778032302856445, 0.0223416518419981, -0.0251340102404356, -0.8320793509483337, -0.6430831551551819, -0.9628151655197144, 0.10347446799278259, -1.6238952738465862, -1.1411842409407598, 0.2833200608727668, 9362.0, 30146.0, 35388.0, 9362.0, 8.231406211853027, 0.023368768393993378, -0.0023701442405581474, -0.43540894985198975, -0.09167171269655228, -0.006659053266048431, 0.9986446499824524, -0.08562576770782471, 0.06792068481445312, 1.50146484375, 1.295654296875, 0.05548095703125, 1.49267578125
17937, 1.4187077283859253, -1.2151296138763428, 0.9938763380050659, 0.0006808108300901949, -0.0007527991547249258, -6.7863545417785645, 0.0244559645652771, -0.027516238391399384, -0.8324072360992432, -0.6432377099990845, -0.9629011154174805, 0.10318273305892944, -1.5306557460727042, -1.0798490308962414, 0.2413744105589484, 9362.0, 30146.0, 35388.0, 9362.0, 8.231406211853027, 0.377287358045578, 0.5124127268791199, -0.06838823109865189, -0.1003127470612526, -0.0035102248657494783, 0.9907235503196716, -0.08562576770782471, 0.06792068481445312, 1.50146484375, 1.538818359375, 0.2772674560546875, 1.494140625
17947, 1.4220343828201294, -1.21760094165802, 0.9936659932136536, 0.0009359617251902819, -0.0010398973245173693, -6.794679641723633, 0.026574119925498962, -0.029903477057814598, -0.8326317667961121, -0.6432167291641235, -0.9629222750663757, 0.10318394005298615, -1.5362747320414007, -1.0751886263630865, 0.23048314414283053, 9362.0, 30146.0, 35388.0, 9362.0, 8.231406211853027, 0.6048156023025513, -0.10997159034013748, 0.4769606292247772, -0.09139518439769745, -0.001735646859742701, 0.9886228442192078, -0.06701227277517319, -0.030637741088867188, 1.493408203125, 1.541015625, 0.2819976806640625, 1.494140625
17957, 1.4290320873260498, -1.2168231010437012, 0.9951818585395813, 0.0012122279731556773, -0.0013508008560165763, -6.803009986877441, 0.02867908775806427, -0.0322771854698658, -0.8334470391273499, -0.6432638764381409, -0.9629136919975281, 0.10316845029592514, -1.5256709516374927, -1.077779531145751, 0.2333521017646354, 9362.0, 30146.0, 35388.0, 9362.0, 8.231406211853027, 0.19370296597480774, 0.476701557636261, 0.27816241979599, -0.09063057601451874, -0.012806362472474575, 0.9980326890945435, -0.06701227277517319, -0.030637741088867188, 1.493408203125, 1.529296875, 0.2564849853515625, 1.49267578125
17967, 1.4321075677871704, -1.2203477621078491, 0.9977959394454956, 0.0015095258131623268, -0.0016854247078299522, -6.811350345611572, 0.03078053705394268, -0.034647393971681595, -0.834627628326416, -0.6432677507400513, -0.9629231095314026, 0.10315725952386856, -1.5192456272031292, -1.0675890364194345, 0.245081991523813, 9362.0, 30146.0, 35388.0, 9362.0, 8.231406211853027, -0.2929231524467468, -0.131926491856575, -0.6900784969329834, -0.08858101069927216, -0.01601560413837433, 1.0087625980377197, -0.06701227277517319, -0.030637741088867188, 1.493408203125, 1.480224609375, 0.157379150390625, 1.49267578125
17977, 1.4290401935577393, -1.2207986116409302, 0.9940775036811829, 0.001827917294576764, -0.00204390543513, -6.819698810577393, 0.03289783373475075, -0.037048641592264175, -0.8350296020507812, -0.6432042717933655, -0.9629433751106262, 0.10322602093219757, -1.468410748399239, -1.111897876736009, 0.22048609089017124, 9362.0, 30146.0, 35388.0, 9362.0, 8.231406211853027, -0.6450388431549072, 0.2958674728870392, -0.14176709949970245, -0.09258009493350983, -0.006127374246716499, 1.0039927959442139, -0.06701227277517319, -0.030637741088867188, 1.493408203125, 1.515380859375, 0.2270050048828125, 1.4970703125
17987, 1.4226727485656738, -1.2228151559829712, 0.9927263259887695, 0.0021676302421838045, -0.002426557010039687, -6.828045845031738, 0.035044603049755096, -0.03948178142309189, -0.8343498110771179, -0.6432263851165771, -0.9629742503166199, 0.10322695970535278, -1.465490760362047, -1.1052624565948577, 0.2115361428805274, 9362.0, 30146.0, 35388.0, 9362.0, 8.231406211853027, -0.2805316746234894, -0.24260929226875305, 1.027991771697998, -0.0902029350399971, 0.0008463474223390222, 0.9864157438278198, -0.06701227277517319, -0.030637741088867188, 1.493408203125, 1.259033203125, 0.135589599609375, 1.4970703125
17997, 1.4194895029067993, -1.2212594747543335, 0.9961382150650024, 0.002528788987547159, -0.002833486534655094, -6.8363871574401855, 0.03718709573149681, -0.041904088109731674, -0.8338967561721802, -0.6432104110717773, -0.963013231754303, 0.10319405794143677, -1.4785662903490977, -1.090469303982161, 0.20964220095561867, 9362.0, 30146.0, 35388.0, 9362.0, 8.231406211853027, -0.5446648597717285, -0.26062506437301636, -0.039191145449876785, -0.08838983625173569, -0.013540432788431644, 0.9901123642921448, -0.06701227277517319, -0.030637741088867188, 1.493408203125, 1.39453125, 0.035003662109375, 1.497802734375
18007, 1.4141017198562622, -1.2178668975830078, 0.9960486888885498, 0.002911224728450179, -0.0032643999438732862, -6.844731330871582, 0.03930024057626724, -0.04427851364016533, -0.8349490761756897, -0.6432514786720276, -0.9630839824676514, 0.10320699959993362, -1.4332135010151756, -1.0662639459438878, 0.19878956270378076, 9362.0, 30146.0, 35388.0, 9362.0, 8.231406211853027, -0.8505252003669739, -0.1666637361049652, 0.06747634708881378, -0.09000597149133682, -0.0171407051384449, 1.0133963823318481, -0.06701227277517319, -0.030637741088867188, 1.493408203125, 1.51611328125, 0.2286224365234375, 1.497802734375
18017, 1.4057550430297852, -1.2161952257156372, 0.9958324432373047, 0.0033147665672004223, -0.0037190162111073732, -6.853086471557617, 0.04140820354223251, -0.04664486274123192, -0.8361157178878784, -0.6432555913925171, -0.963066577911377, 0.10324522852897644, -1.4388634660814805, -1.067447741306637, 0.1913490203543543, 9362.0, 30146.0, 35388.0, 9362.0, 8.231406211853027, -0.3287138044834137, 0.36527982354164124, -0.6872634887695312, -0.0929562896490097, -0.0053583779372274876, 1.005044937133789, -0.06701227277517319, -0.030637741088867188, 1.493408203125, 1.493408203125, 0.1825714111328125, 1.493408203125
18027, 1.4011754989624023, -1.220390796661377, 0.9933127760887146, 0.003739583771675825, -0.004197503440082073, -6.861443042755127, 0.04355523735284805, -0.04905248433351517, -0.8352039456367493, -0.6432178020477295, -0.9630295634269714, 0.1032259464263916, -1.4382412594677239, -1.0857843871540354, 0.2065699186600851, 9362.0, 30146.0, 35388.0, 9362.0, 8.231406211853027, -0.2304810732603073, 0.2590535283088684, 0.7048624753952026, -0.09448439627885818, -0.002261467045173049, 0.9675410985946655, -0.06701227277517319, -0.030637741088867188, 1.493408203125, 1.4794921875, 0.155975341796875, 1.493408203125
18037, 1.4012327194213867, -1.2242004871368408, 0.9987156391143799, 0.004185832571238279, -0.0046999696642160416, -6.869791507720947, 0.0456944964826107, -0.0514407604932785, -0.8345045447349548, -0.6432594656944275, -0.9630955457687378, 0.10325518250465393, -1.4308210847798113, -1.0776436313945794, 0.1848564982168956, 9362.0, 30146.0, 35388.0, 9362.0, 8.231406211853027, 0.05399981513619423, -0.09126748889684677, 0.883598804473877, -0.09592415392398834, -0.011954576708376408, 0.9728292226791382, -0.06701227277517319, -0.030637741088867188, 1.493408203125, 1.23046875, 0.235137939453125, 1.49267578125
18047, 1.403266191482544, -1.2239108085632324, 1.0013535022735596, 0.004653145093470812, -0.005225874949246645, -6.87814998626709, 0.04776805639266968, -0.053740162402391434, -0.8371564149856567, -0.6432204842567444, -0.9630537033081055, 0.10326726734638214, -1.4429179086021162, -1.087806863592533, 0.1906704067803804, 9362.0, 30146.0, 35388.0, 9362.0, 8.231406211853027, 0.3229592740535736, 0.00941137969493866, -0.6009752750396729, -0.0898590013384819, -0.016292754560709, 1.0150270462036133, -0.06323228776454926, -0.12023735046386719, 1.486083984375, 1.3037109375, 0.04412841796875, 1.49267578125
18057, 1.406021237373352, -1.225183129310608, 0.9968773722648621, 0.005141193978488445, -0.0057747382670640945, -6.886536121368408, 0.049841877073049545, -0.05603228509426117, -0.8401005864143372, -0.6432343125343323, -0.963036835193634, 0.10325273871421814, -1.4399427140500027, -1.0888734494837138, 0.20696580559659256, 9362.0, 30146.0, 35388.0, 9362.0, 8.231406211853027, 0.27345380187034607, 0.6925269365310669, -0.28836938738822937, -0.08910892903804779, -0.011253541335463524, 1.0192666053771973, -0.06323228776454926, -0.12023735046386719, 1.486083984375, 1.072998046875, 1.6350555419921875, 1.493408203125
18067, 1.408100962638855, -1.2306889295578003, 0.9966166615486145, 0.005650384351611137, -0.006346987560391426, -6.894933223724365, 0.05199604853987694, -0.058417752385139465, -0.8393298983573914, -0.6432163119316101, -0.9630602598190308, 0.10327638685703278, -1.4510245187069195, -1.0803986715704355, 0.20017140354725163, 9362.0, 30146.0, 35388.0, 9362.0, 8.231406211853027, 0.05372725427150726, -0.22061380743980408, -0.3293631076812744, -0.09233802556991577, -0.008285549469292164, 0.9892281293869019, -0.06323228776454926, -0.12023735046386719, 1.486083984375, 1.427490234375, 0.0716400146484375, 1.493408203125
18077, 1.4095568656921387, -1.230365514755249, 0.9955915808677673, 0.0061812507919967175, -0.006943252868950367, -6.903316974639893, 0.054177425801754, -0.06083540990948677, -0.8374237418174744, -0.6432415246963501, -0.9630278944969177, 0.10328662395477295, -1.4435594956509104, -1.08547633921998, 0.20073783295644218, 9362.0, 30146.0, 35388.0, 9362.0, 8.231406211853027, 0.08558547496795654, 0.012957952916622162, -0.11971667408943176, -0.09436868131160736, -0.009380782023072243, 0.9770957827568054, -0.06323228776454926, -0.12023735046386719, 1.486083984375, 1.15869140625, 0.6672515869140625, 1.4912109375
18087, 1.412007451057434, -1.2319668531417847, 0.9935489296913147, 0.00673370435833931, -0.007563408464193344, -6.911694049835205, 0.05631323531270027, -0.06319572776556015, -0.8380282521247864, -0.6432293653488159, -0.9630365967750549, 0.10327643156051636, -1.4487502466639153, -1.0886855057799494, 0.18803257023423584, 9362.0, 30146.0, 35388.0, 9362.0, 8.231406211853027, 0.34625443816185, 0.09825658798217773, 0.046819936484098434, -0.09496232867240906, -0.008494187146425247, 0.9953246116638184, -0.06323228776454926, -0.12023735046386719, 1.486083984375, 1.327880859375, 0.0218353271484375, 1.4912109375
18097, 1.4140818119049072, -1.2341736555099487, 0.9927119016647339, 0.007307339925318956, -0.008206987753510475, -6.920085430145264, 0.05841373652219772, -0.06552016735076904, -0.8402152061462402, -0.6432321071624756, -0.9630324840545654, 0.10326524078845978, -1.4569564358763658, -1.0921739923148834, 0.19713074158200197, 9362.0, 30146.0, 35388.0, 9362.0, 8.231406211853027, 0.24757015705108643, -0.06340935826301575, -0.4699120819568634, -0.0934700071811676, -0.011295182630419731, 1.0085645914077759, -0.06323228776454926, -0.12023735046386719, 1.486083984375, 1.522705078125, 0.242462158203125, 1.49560546875
18107, 1.4164655208587646, -1.2350455522537231, 0.9904598593711853, 0.00790213979780674, -0.008873993530869484, -6.928492069244385, 0.060546085238456726, -0.06788098067045212, -0.841075599193573, -0.6432506442070007, -0.9630072116851807, 0.10325764119625092, -1.4686637078398728, -1.1069681268918998, 0.2031530508504063, 9362.0, 30146.0, 35388.0, 9362.0, 8.231406211853027, 0.06541983783245087, -0.1409267634153366, 0.07207225263118744, -0.09487777203321457, -0.010028229095041752, 0.9945682287216187, -0.06323228776454926, -0.12023735046386719, 1.486083984375, 1.505859375, 0.2073974609375, 1.49560546875
18117, 1.4178663492202759, -1.2360401153564453, 0.9912022352218628, 0.00851844809949398, -0.009564808569848537, -6.936899662017822, 0.06271541863679886, -0.07028217613697052, -0.8404232263565063, -0.643450915813446, -0.9630898833274841, 0.10303667932748795, -1.4254512320697352, -1.110004300501572, 0.12308929304101197, 9362.0, 30146.0, 35388.0, 9362.0, 8.231406211853027, 0.22534313797950745, -0.041256774216890335, -0.050595372915267944, -0.09289193153381348, -0.003709165146574378, 0.983115553855896, -0.06323228776454926, -0.12023735046386719, 1.486083984375, 1.1513671875, 0.72857666015625, 1.494873046875
18127, 1.4195516109466553, -1.236996054649353, 0.9906761050224304, 0.009156348183751106, -0.010279537178575993, -6.945305347442627, 0.06486470997333527, -0.07266342639923096, -0.8407547473907471, -0.6433042287826538, -0.9631316065788269, 0.10326318442821503, -1.4723991987119238, -1.0767277255648366, 0.1599890291993696, 9362.0, 30146.0, 35388.0, 9362.0, 8.231406211853027, 0.3788837492465973, -0.11397122591733932, 0.09249557554721832, -0.09394244849681854, -0.006747053936123848, 0.9934968948364258, -0.06323228776454926, -0.12023735046386719, 1.486083984375, 1.41796875, 0.05950927734375, 1.494873046875
18137, 1.4224077463150024, -1.236120343208313, 0.9919270873069763, 0.009815611876547337, -0.011017936281859875, -6.953721046447754, 0.0669880211353302, -0.07501635700464249, -0.8423441648483276, -0.6432408690452576, -0.9631198644638062, 0.10330864787101746, -1.4969577526669948, -1.077215271451081, 0.1851560500341856, 9362.0, 30146.0, 35388.0, 9362.0, 8.231406211853027, -0.7668112516403198, 0.17617115378379822, 0.6448977589607239, -0.09162367135286331, -0.02074448950588703, 1.013312578201294, -0.06323228776454926, -0.12023735046386719, 1.486083984375, 1.19384765625, 0.419647216796875, 1.4970703125
18147, 1.4178022146224976, -1.2365003824234009, 0.9950947165489197, 0.010496195405721664, -0.011779965832829475, -6.962148666381836, 0.06912871450185776, -0.07738938927650452, -0.843223512172699, -0.6431893706321716, -0.9630447030067444, 0.10328982025384903, -1.567405105904872, -1.1213053151518295, 0.18470993741219496, 9362.0, 30146.0, 35388.0, 9362.0, 8.231406211853027, -0.6068226099014282, -0.4795040786266327, -0.15395990014076233, -0.087868332862854, -0.015592139214277267, 1.0229188203811646, -0.07076255232095718, -0.24567794799804688, 1.475830078125, 1.106689453125, 1.1853790283203125, 1.4970703125
18157, 1.41236412525177, -1.2330060005187988, 0.9915611147880554, 0.011198376305401325, -0.012565969489514828, -6.970576286315918, 0.07130768150091171, -0.07981108129024506, -0.8423056602478027, -0.6431670188903809, -0.9630648493766785, 0.10332660377025604, -1.568117282173663, -1.1289930001956066, 0.1955838768818264, 9362.0, 30146.0, 35388.0, 9362.0, 8.231406211853027, 0.033738259226083755, 0.3054145574569702, -0.8763456344604492, -0.09131243079900742, 0.002894316567108035, 0.9853124022483826, -0.07076255232095718, -0.24567794799804688, 1.475830078125, 1.493408203125, 0.1825714111328125, 1.49267578125
18167, 1.413294792175293, -1.2345678806304932, 0.9848620891571045, 0.011922480538487434, -0.013376293703913689, -6.9789886474609375, 0.07351288199424744, -0.08225361257791519, -0.8402060270309448, -0.6431710124015808, -0.963024914264679, 0.10331659018993378, -1.5716163722597558, -1.1351078496187483, 0.20196854763358657, 9362.0, 30146.0, 35388.0, 9362.0, 8.231406211853027, 0.501071035861969, 0.3692884147167206, 1.8459968566894531, -0.10340423882007599, 0.0006774088833481073, 0.9415336847305298, -0.07076255232095718, -0.24567794799804688, 1.475830078125, 1.480224609375, 0.157379150390625, 1.49267578125
18177, 1.418784737586975, -1.2363156080245972, 0.9914764165878296, 0.012668287381529808, -0.014210645109415054, -6.9873948097229, 0.07564812153577805, -0.08461686968803406, -0.8410015106201172, -0.6431441307067871, -0.9629676938056946, 0.10321509838104248, -1.5574920766805047, -1.1062275281172163, 0.07877856535639775, 9362.0, 30146.0, 35388.0, 9362.0, 8.231406211853027, 0.14738132059574127, -0.2692863941192627, -0.16391025483608246, -0.08878668397665024, -0.01521345041692257, 0.9878932237625122, -0.07076255232095718, -0.24567794799804688, 1.475830078125, 1.431884765625, 0.07769775390625, 1.493408203125
18187, 1.421332597732544, -1.2350209951400757, 0.986014187335968, 0.01343497447669506, -0.015068103559315205, -6.99583101272583, 0.07768946141004562, -0.08687403053045273, -0.846197783946991, -0.6431379914283752, -0.9629423022270203, 0.10327713936567307, -1.5469839900342646, -1.1059739347023196, 0.09122573593344172, 9362.0, 30146.0, 35388.0, 9362.0, 8.231406211853027, 0.5745729804039001, 0.25328099727630615, -0.774168074131012, -0.09521040320396423, -0.012236129492521286, 1.0301262140274048, -0.07076255232095718, -0.24567794799804688, 1.475830078125, 1.07958984375, 1.539276123046875, 1.493408203125
18197, 1.426302194595337, -1.2382793426513672, 0.9856011271476746, 0.014222417026758194, -0.01594853773713112, -7.004303932189941, 0.07979892939329147, -0.08921284228563309, -0.8484324812889099, -0.6431284546852112, -0.9629690647125244, 0.10325239598751068, -1.5522148756436551, -1.1011384014637997, 0.08143918290625593, 9362.0, 30146.0, 35388.0, 9362.0, 8.231406211853027, 0.2000042051076889, 0.9266746044158936, -0.9335014224052429, -0.08913851529359818, -0.0057075852528214455, 1.0021874904632568, -0.07076255232095718, -0.24567794799804688, 1.475830078125, 1.276611328125, 0.0910186767578125, 1.48974609375
18207, 1.4286057949066162, -1.244529128074646, 0.9829403758049011, 0.015031461603939533, -0.016852958127856255, -7.012775897979736, 0.08201006799936295, -0.09167161583900452, -0.8459513783454895, -0.6431282162666321, -0.9629263877868652, 0.10326153039932251, -1.561934471387352, -1.0885848495168773, 0.08388762959346106, 9362.0, 30146.0, 35388.0, 9362.0, 8.231406211853027, 0.2872287929058075, 0.47240445017814636, 2.842334508895874, -0.10164806246757507, -0.008636952377855778, 0.9780699610710144, -0.07076255232095718, -0.24567794799804688, 1.475830078125, 1.31689453125, 0.0298919677734375, 1.48974609375
18217, 1.431869626045227, -1.2475972175598145, 0.9948198795318604, 0.01586245186626911, -0.01778179407119751, -7.021231651306152, 0.08418800681829453, -0.0940956100821495, -0.8452355265617371, -0.6431506276130676, -0.9629809260368347, 0.10326869785785675, -1.5560161669511798, -1.1013559334909644, 0.09331447555958954, 9362.0, 30146.0, 35388.0, 9362.0, 8.231406211853027, 0.2312711924314499, -0.34027671813964844, -0.6682891249656677, -0.09037517011165619, -0.00827228557318449, 0.9921725988388062, -0.07076255232095718, -0.24567794799804688, 1.475830078125, 1.36669921875, 0.01806640625, 1.49560546875
18227, 1.4337794780731201, -1.244812250137329, 0.9868696331977844, 0.01671498455107212, -0.018734566867351532, -7.029693603515625, 0.08631907403469086, -0.09645845741033554, -0.8471395373344421, -0.6431560516357422, -0.9629680514335632, 0.10330714285373688, -1.5595143303226828, -1.109052151723688, 0.10121172321089594, 9362.0, 30146.0, 35388.0, 9362.0, 8.231406211853027, -0.05868324264883995, -0.10834521055221558, -0.7315995693206787, -0.09429654479026794, -0.009294437244534492, 1.0055147409439087, -0.07076255232095718, -0.24567794799804688, 1.475830078125, 1.50439453125, 0.2044219970703125, 1.49560546875
18237, 1.4342199563980103, -1.2434076070785522, 0.9855299592018127, 0.017588943243026733, -0.01971108838915825, -7.03817081451416, 0.08847236633300781, -0.09884610772132874, -0.8482705950737, -0.6431632041931152, -0.9629709720611572, 0.10331226885318756, -1.562669839419823, -1.1038771721053422, 0.10958627622950963, 9362.0, 30146.0, 35388.0, 9362.0, 8.231406211853027, 0.29644083976745605, -0.32114729285240173, 0.7424303889274597, -0.09305001050233841, -0.005498074926435947, 0.9992645978927612, -0.07076255232095718, -0.24567794799804688, 1.475830078125, 1.5322265625, 0.2628021240234375, 1.490478515625
18267, 1.4333878755569458, -1.2409768104553223, 0.9887531995773315, 0.0203409306704998, -0.022785410284996033, -7.0636162757873535, 0.09496959298849106, -0.10608719289302826, -0.8490342497825623, -0.6433495879173279, -0.9629534482955933, 0.10303691774606705, -1.516342939669452, -1.12823222070719, 0.08327433083459683, 9362.0, 30146.0, 35388.0, 9362.0, 8.231406211853027, -0.19277875125408173, -0.09790641814470291, -0.7589449286460876, -0.09672512859106064, -0.002428208477795124, 0.9909632802009583, -0.05499418452382088, -0.12023735046386719, 1.486083984375, 1.4912109375, 0.178253173828125, 1.493408203125
18277, 1.4318931102752686, -1.2409954071044922, 0.9854074716567993, 0.021301371976733208, -0.02385825105011463, -7.0721116065979, 0.09711894392967224, -0.10848080366849899, -0.8500203490257263, -0.6432958245277405, -0.9629497528076172, 0.10309015214443207, -1.5066270690420764, -1.1141354869534155, 0.08846454582062019, 9362.0, 30146.0, 35388.0, 9362.0, 8.231406211853027, -0.037959542125463486, 0.5529293417930603, 0.6449981331825256, -0.09071356803178787, -0.01155842375010252, 1.0019499063491821, -0.05499418452382088, -0.12023735046386719, 1.486083984375, 1.4912109375, 0.178253173828125, 1.493408203125
18287, 1.4306361675262451, -1.2439571619033813, 0.988149106502533, 0.021301371976733208, -0.02385825105011463, -7.0721116065979, 0.09711894392967224, -0.10848080366849899, -0.8500203490257263, -0.6432504653930664, -0.962942361831665, 0.10312621295452118, -1.5159299289631571, -1.0945826459896466, 0.09729315143507013, 9362.0, 30146.0, 35388.0, 9362.0, 8.231406211853027, -0.29045745730400085, -0.1496601700782776, -0.7547047734260559, -0.09275127947330475, -0.007124206516891718, 0.9977760314941406, -0.05499418452382088, -0.12023735046386719, 1.486083984375, 1.4912109375, 0.178253173828125, 1.493408203125
18297, 1.4280461072921753, -1.2434649467468262, 0.983712911605835, 0.021301371976733208, -0.02385825105011463, -7.0721116065979, 0.09711894392967224, -0.10848080366849899, -0.8500203490257263, -0.6431954503059387, -0.9629268646240234, 0.1032116636633873, -1.515503553493786, -1.0911504995855523, 0.1083968704029809, 9362.0, 30146.0, 35388.0, 9362.0, 8.231406211853027, -0.10114315897226334, 0.4009415805339813, 0.68788081407547, -0.09256434440612793, -0.004125349223613739, 0.993089497089386, -0.05499418452382088, -0.12023735046386719, 1.486083984375, 1.414306640625, 0.05517578125, 1.493408203125
18307, 1.4267104864120483, -1.2465559244155884, 0.9896700382232666, 0.021301371976733208, -0.02385825105011463, -7.0721116065979, 0.09711894392967224, -0.10848080366849899, -0.8500203490257263, -0.6432050466537476, -0.9629145860671997, 0.10318136215209961, -1.5019950276676226, -1.0869382419099622, 0.12524650588529726, 9362.0, 30146.0, 35388.0, 9362.0, 8.231406211853027, -0.16269615292549133, 0.48326796293258667, 0.009408488869667053, -0.09201686084270477, -0.007832535542547703, 0.9959221482276917, -0.05499418452382088, -0.12023735046386719, 1.486083984375, 1.414306640625, 0.05517578125, 1.493408203125
18317, 1.4248405694961548, -1.250673532485962, 0.9900894165039062, 0.021301371976733208, -0.02385825105011463, -7.0721116065979, 0.09711894392967224, -0.10848080366849899, -0.8500203490257263, -0.6432274580001831, -0.9629170298576355, 0.10317528247833252, -1.5078414888529574, -1.087663383690625, 0.10829143401004397, 9362.0, 30146.0, 35388.0, 9362.0, 8.231406211853027, -0.2509152293205261, -0.507724404335022, -0.4540300667285919, -0.09499963372945786, -0.01205356139689684, 0.9986234903335571, -0.05499418452382088, -0.12023735046386719, 1.486083984375, 1.414306640625, 0.05517578125, 1.487548828125
18327, 1.422464370727539, -1.2480772733688354, 0.9876902103424072, 0.021301371976733208, -0.02385825105011463, -7.0721116065979, 0.09711894392967224, -0.10848080366849899, -0.8500203490257263, -0.6432135105133057, -0.96293705701828, 0.10316365957260132, -1.5083824707659046, -1.0713420446279542, 0.11084330401815883, 9362.0, 30146.0, 35388.0, 9362.0, 8.231406211853027, -0.2974607050418854, 0.36957791447639465, -0.12295415252447128, -0.09317877888679504, -0.007705512456595898, 0.996765673160553, -0.05499418452382088, -0.12023735046386719, 1.486083984375, 1.414306640625, 0.05517578125, 1.487548828125
18337, 1.4198025465011597, -1.250902533531189, 0.9866113662719727, 0.021301371976733208, -0.02385825105011463, -7.0721116065979, 0.09711894392967224, -0.10848080366849899, -0.8500203490257263, -0.6431859135627747, -0.9629350900650024, 0.1031758263707161, -1.5125641674370232, -1.066680619209535, 0.10260203640505057, 9362.0, 30146.0, 35388.0, 9362.0, 8.231406211853027, -0.3324202299118042, -0.13505731523036957, 0.21133551001548767, -0.0924467220902443, -0.005096995271742344, 0.9929748773574829, -0.05499418452382088, -0.12023735046386719, 1.486083984375, 1.414306640625, 0.05517578125, 1.487548828125
18367, 1.4148378372192383, -1.2521483898162842, 0.9898932576179504, 0.021301371976733208, -0.02385825105011463, -7.0721116065979, 0.09711894392967224, -0.10848080366849899, -0.8500203490257263, -0.6432605981826782, -0.9629970192909241, 0.10323129594326019, -1.5208301606646455, -1.1106994569798871, 0.22762121745175945, 9362.0, 30146.0, 35388.0, 9362.0, 8.231406211853027, -0.19933049380779266, 0.08268125355243683, -0.3558105230331421, -0.09219849854707718, -0.007576414383947849, 0.9987791776657104, -0.04838535562157631, 0.03208160400390625, 1.49853515625, 1.414306640625, 0.05517578125, 1.4912109375
18377, 1.4132872819900513, -1.25248122215271, 0.9873932003974915, 0.03209638595581055, -0.0359073244035244, -7.157271385192871, 0.11880167573690414, -0.1324239820241928, -0.8539669513702393, -0.6432256698608398, -0.9629961848258972, 0.10323973000049591, -1.519089861763045, -1.1082974334817663, 0.22305633469308636, 9362.0, 30146.0, 35388.0, 9362.0, 8.231406211853027, -0.02514769695699215, 0.08529814332723618, -0.08542504161596298, -0.09219849854707718, -0.007576414383947849, 0.9987791776657104, -0.04838535562157631, 0.03208160400390625, 1.49853515625, 1.414306640625, 0.05517578125, 1.4912109375
18397, 1.4118238687515259, -1.2553242444992065, 0.9865868091583252, 0.03451603651046753, -0.03860340267419815, -7.174355506896973, 0.1231606975197792, -0.1371796429157257, -0.8545445203781128, -0.6432289481163025, -0.9629709720611572, 0.1032632365822792, -1.5216959149991323, -1.1226782653643284, 0.21524631595280383, 9362.0, 30146.0, 35388.0, 9362.0, 8.231406211853027, 0.279258668422699, 0.18480002880096436, -0.05733748525381088, -0.09386643767356873, -0.011303262785077095, 0.9949027895927429, -0.04838535562157631, 0.03208160400390625, 1.49853515625, 1.414306640625, 0.05517578125, 1.4912109375
18407, 1.4136565923690796, -1.2558221817016602, 0.986682653427124, 0.03451603651046753, -0.03860340267419815, -7.174355506896973, 0.1231606975197792, -0.1371796429157257, -0.8545445203781128, -0.6432234048843384, -0.9629994630813599, 0.10324379801750183, -1.5414531476772906, -1.124699990628045, 0.21697286124543905, 9362.0, 30146.0, 35388.0, 9362.0, 8.231406211853027, 0.22111941874027252, 0.06633523106575012, 0.2568226456642151, -0.09506449848413467, -0.009720019064843655, 0.9953864216804504, -0.04838535562157631, 0.03208160400390625, 1.49853515625, 1.414306640625, 0.05517578125, 1.4912109375
18417, 1.415581226348877, -1.2574816942214966, 0.988745927810669, 0.03451603651046753, -0.03860340267419815, -7.174355506896973, 0.1231606975197792, -0.1371796429157257, -0.8545445203781128, -0.6432141065597534, -0.9629923701286316, 0.10324215143918991, -1.5376962553321134, -1.1342836392541358, 0.2159605390600382, 9362.0, 30146.0, 35388.0, 9362.0, 8.231406211853027, 0.06945386528968811, -0.03670842573046684, 0.17160220444202423, -0.09302186220884323, -0.010630020871758461, 0.9917885661125183, -0.04838535562157631, 0.03208160400390625, 1.49853515625, 1.414306640625, 0.05517578125, 1.49267578125
18427, 1.4157737493515015, -1.2573119401931763, 0.9902269840240479, 0.038308676332235336, -0.04282519966363907, -7.200024127960205, 0.12968918681144714, -0.14428015053272247, -0.8564609289169312, -0.6431995034217834, -0.9629685878753662, 0.10319465398788452, -1.537882920295921, -1.1371384977082073, 0.2135711408300457, 9362.0, 30146.0, 35388.0, 9362.0, 8.231406211853027, 0.05833745002746582, -0.009009970352053642, 0.30616798996925354, -0.09383346885442734, -0.009717312641441822, 0.9938012361526489, -0.04838535562157631, 0.03208160400390625, 1.49853515625, 1.414306640625, 0.05517578125, 1.49267578125
18437, 1.416516900062561, -1.2566399574279785, 0.9930155277252197, 0.038308676332235336, -0.04282519966363907, -7.200024127960205, 0.12968918681144714, -0.14428015053272247, -0.8564609289169312, -0.6432223320007324, -0.9629833698272705, 0.10318651795387268, -1.5366784268200573, -1.1485805203016355, 0.22404664991685289, 9362.0, 30146.0, 35388.0, 9362.0, 8.231406211853027, -0.09045629948377609, 0.11532425135374069, -0.1741102933883667, -0.09489709138870239, -0.009144596755504608, 0.9958248138427734, -0.04838535562157631, 0.03208160400390625, 1.49853515625, 1.414306640625, 0.05517578125, 1.49267578125
18447, 1.415838599205017, -1.2562663555145264, 0.9927548170089722, 0.04094599932432175, -0.04575815796852112, -7.217169284820557, 0.13404437899589539, -0.14901724457740784, -0.8580042719841003, -0.6432303190231323, -0.9629891514778137, 0.10320266336202621, -1.540890056499024, -1.1354486070569862, 0.2114338948866114, 9362.0, 30146.0, 35388.0, 9362.0, 8.231406211853027, -0.09045629948377609, 0.11532425135374069, -0.1741102933883667, -0.09489709138870239, -0.009144596755504608, 0.9958248138427734, -0.04838535562157631, 0.03208160400390625, 1.49853515625, 1.414306640625, 0.05517578125, 1.49267578125
18457, 1.4180866479873657, -1.2563611268997192, 0.9925728440284729, 0.04094599932432175, -0.04575815796852112, -7.217169284820557, 0.13404437899589539, -0.14901724457740784, -0.8580042719841003, -0.6432375907897949, -0.9629853963851929, 0.10315646976232529, -1.5449999626449513, -1.1263046571403947, 0.2198341632448605, 9362.0, 30146.0, 35388.0, 9362.0, 8.231406211853027, 0.09465150535106659, -0.2762221693992615, -0.060960203409194946, -0.09489709138870239, -0.009144596755504608, 0.9958248138427734, -0.04838535562157631, 0.03208160400390625, 1.49853515625, 1.414306640625, 0.05517578125, 1.49267578125
18467, 1.4192265272140503, -1.2543762922286987, 0.9925037026405334, 0.04094599932432175, -0.04575815796852112, -7.217169284820557, 0.13404437899589539, -0.14901724457740784, -0.8580042719841003, -0.6432360410690308, -0.9629899859428406, 0.10313518345355988, -1.5473701966885522, -1.1153424578599243, 0.23166367784612305, 9362.0, 30146.0, 35388.0, 9362.0, 8.231406211853027, 0.4809472858905792, 0.3072858154773712, 0.27340835332870483, -0.09537442773580551, -0.010995960794389248, 0.9968934655189514, -0.04838535562157631, 0.03208160400390625, 1.49853515625, 1.07080078125, 1.667816162109375, 1.49267578125
18477, 1.422647476196289, -1.2552820444107056, 0.9957841038703918, 0.04094599932432175, -0.04575815796852112, -7.217169284820557, 0.13404437899589539, -0.14901724457740784, -0.8580042719841003, -0.6432273983955383, -0.9630103707313538, 0.10322115570306778, -1.5008295460842223, -1.1228502588593017, 0.226132369799836, 9362.0, 30146.0, 35388.0, 9362.0, 8.231406211853027, 0.11428704112768173, -0.3316732347011566, 0.1654326319694519, -0.09274016320705414, -0.009689013473689556, 0.9971657991409302, -0.04838535562157631, 0.03208160400390625, 1.49853515625, 1.07080078125, 1.667816162109375, 1.49267578125
18487, 1.4228681325912476, -1.25139319896698, 0.9982506632804871, 0.04094599932432175, -0.04575815796852112, -7.217169284820557, 0.13404437899589539, -0.14901724457740784, -0.8580042719841003, -0.6432111263275146, -0.9630254507064819, 0.1032029539346695, -1.4988038433853668, -1.1141059492049976, 0.2123918216242655, 9362.0, 30146.0, 35388.0, 9362.0, 8.231406211853027, -0.040523022413253784, 0.7647895216941833, 0.7327606081962585, -0.09577644616365433, -0.010943609289824963, 0.9947089552879333, -0.04838535562157631, 0.03208160400390625, 1.49853515625, 1.07080078125, 1.667816162109375, 1.49267578125
18497, 1.4226891994476318, -1.2559219598770142, 1.0042750835418701, 0.04094599932432175, -0.04575815796852112, -7.217169284820557, 0.13404437899589539, -0.14901724457740784, -0.8580042719841003, -0.64321368932724, -0.9630323648452759, 0.10323888808488846, -1.5017094820576953, -1.1138885183849823, 0.22852640071154381, 9362.0, 30146.0, 35388.0, 9362.0, 8.231406211853027, -0.12672339379787445, -0.7188360691070557, 0.02151733823120594, -0.09448365122079849, -0.01079752016812563, 1.0038774013519287, -0.04838535562157631, 0.03208160400390625, 1.49853515625, 1.07080078125, 1.667816162109375, 1.49267578125
18507, 1.4217395782470703, -1.2505072355270386, 1.0056473016738892, 0.04094599932432175, -0.04575815796852112, -7.217169284820557, 0.13404437899589539, -0.14901724457740784, -0.8580042719841003, -0.6432040333747864, -0.9630205035209656, 0.10325326025485992, -1.5065263700746052, -1.117059006976291, 0.21475556468725676, 9362.0, 30146.0, 35388.0, 9362.0, 8.231406211853027, 0.11968730390071869, 0.49892425537109375, -0.22051657736301422, -0.08923697471618652, -0.009681765921413898, 1.0025112628936768, -0.04838535562157631, 0.03208160400390625, 1.49853515625, 1.07080078125, 1.667816162109375, 1.49267578125
18517, 1.4202897548675537, -1.253462791442871, 1.0089352130889893, 0.04094599932432175, -0.04575815796852112, -7.217169284820557, 0.13404437899589539, -0.14901724457740784, -0.8580042719841003, -0.6432294845581055, -0.9630125164985657, 0.10323742032051086, -1.4910817264026066, -1.1260198925552913, 0.22473700052864626, 9362.0, 30146.0, 35388.0, 9362.0, 8.231406211853027, -1.1981481313705444, 0.35809844732284546, 0.38914209604263306, -0.11077015846967697, -0.017990004271268845, 1.0164713859558105, -0.04838535562157631, 0.03208160400390625, 1.49853515625, 1.1630859375, 0.6321258544921875, 1.49267578125
18527, 1.4101454019546509, -1.2560495138168335, 1.01334810256958, 0.04094599932432175, -0.04575815796852112, -7.217169284820557, 0.13404437899589539, -0.14901724457740784, -0.8580042719841003, -0.643241822719574, -0.9630147218704224, 0.10322858393192291, -1.4893135902045747, -1.1126549517955482, 0.22112929685438773, 9362.0, 30146.0, 35388.0, 9362.0, 8.231406211853027, 0.3078177869319916, 0.12341734766960144, 0.9040448665618896, -0.07984606921672821, -0.002222794108092785, 0.981471598148346, -0.04838535562157631, 0.03208160400390625, 1.49853515625, 1.1630859375, 0.6321258544921875, 1.49267578125
18537, 1.4122782945632935, -1.2563968896865845, 1.0166274309158325, 0.05389392003417015, -0.06013474613428116, -7.294553756713867, 0.15372993052005768, -0.17053700983524323, -0.8592358231544495, -0.6432541608810425, -0.9629964232444763, 0.10323134064674377, -1.4869623718203535, -1.101241372701793, 0.22601436024345814, 9362.0, 30146.0, 35388.0, 9362.0, 8.231406211853027, -0.20946606993675232, -0.23720452189445496, -0.018514910712838173, -0.10715468972921371, -0.0018867278704419732, 0.9626973271369934, -0.04838535562157631, 0.03208160400390625, 1.49853515625, 1.1630859375, 0.6321258544921875, 1.4912109375
18547, 1.4123144149780273, -1.25211501121521, 1.021254301071167, 0.05389392003417015, -0.06013474613428116, -7.294553756713867, 0.15372993052005768, -0.17053700983524323, -0.8592358231544495, -0.6432533860206604, -0.9630126357078552, 0.10325770080089569, -1.4802491785182144, -1.1124462260974894, 0.22166415010803395, 9362.0, 30146.0, 35388.0, 9362.0, 8.231406211853027, 0.16197282075881958, -0.5793145298957825, -1.2749899625778198, -0.08551318198442459, -0.017314309254288673, 1.0003597736358643, -0.04838535562157631, 0.03208160400390625, 1.49853515625, 1.1630859375, 0.6321258544921875, 1.4912109375
18557, 1.4144525527954102, -1.247200608253479, 1.016420841217041, 0.05389392003417015, -0.06013474613428116, -7.294553756713867, 0.15372993052005768, -0.17053700983524323, -0.8592358231544495, -0.6432530283927917, -0.9630343914031982, 0.10325544327497482, -1.4774596122347945, -1.1096956078855555, 0.21534236216344516, 9362.0, 30146.0, 35388.0, 9362.0, 8.231406211853027, 0.5253792405128479, 0.22419317066669464, 1.826720952987671, -0.09707500785589218, -0.014882940798997879, 1.007800817489624, -0.04838535562157631, 0.03208160400390625, 1.49853515625, 1.1630859375, 0.6321258544921875, 1.494873046875
18567, 1.4194097518920898, -1.2468925714492798, 1.029798984527588, 0.05389392003417015, -0.06013474613428116, -7.294553756713867, 0.15372993052005768, -0.17053700983524323, -0.8592358231544495, -0.6432652473449707, -0.9630067944526672, 0.10323278605937958, -1.475587324140045, -1.0950556436698093, 0.23221165381794295, 9362.0, 30146.0, 35388.0, 9362.0, 8.231406211853027, 0.1781880408525467, -0.4885769486427307, 0.08433020114898682, -0.08896587789058685, -0.004620073828846216, 0.9900725483894348, -0.04838535562157631, 0.03208160400390625, 1.49853515625, 1.1630859375, 0.6321258544921875, 1.494873046875
18577, 1.4218491315841675, -1.2420815229415894, 1.0305275917053223, 0.05389392003417015, -0.06013474613428116, -7.294553756713867, 0.15372993052005768, -0.17053700983524323, -0.8592358231544495, -0.6432474255561829, -0.9630218744277954, 0.10321637243032455, -1.4746875756045092, -1.0925845870327748, 0.2216490165961262, 9362.0, 30146.0, 35388.0, 9362.0, 8.231406211853027, 0.47924062609672546, -0.12504208087921143, 0.27736106514930725, -0.09923657029867172, -0.0106342863291502, 0.9835926294326782, -0.04838535562157631, 0.03208160400390625, 1.49853515625, 1.1630859375, 0.6321258544921875, 1.49560546875
18587, 1.427938461303711, -1.2405685186386108, 1.0387556552886963, 0.05389392003417015, -0.06013474613428116, -7.294553756713867, 0.15372993052005768, -0.17053700983524323, -0.8592358231544495, -0.6432730555534363, -0.9630154371261597, 0.1032378226518631, -1.4663674713049912, -1.0937862363061583, 0.21542566323782608, 9362.0, 30146.0, 35388.0, 9362.0, 8.231406211853027, 0.3860855996608734, -0.5859024524688721, 1.3948967456817627, -0.08635617047548294, -0.010012802667915821, 1.0017852783203125, -0.04838535562157631, 0.03208160400390625, 1.49853515625, 1.1630859375, 0.6321258544921875, 1.49560546875
18597, 1.4318599700927734, -1.2363444566726685, 1.0456924438476562, 0.0635061264038086, -0.0707896277308464, -7.346354961395264, 0.16667746007442474, -0.18467837572097778, -0.8662171363830566, -0.6432631611824036, -0.9630385637283325, 0.1032627671957016, -1.4678780460427445, -1.0836849648626128, 0.2392521928633614, 9362.0, 30146.0, 35388.0, 9362.0, 8.231406211853027, 0.1350889652967453, -0.15176638960838318, -1.4864692687988281, -0.09243544936180115, -0.010470065288245678, 1.0024839639663696, -0.04838535562157631, 0.03208160400390625, 1.49853515625, 1.1630859375, 0.6321258544921875, 1.49560546875
18607, 1.4342219829559326, -1.234397530555725, 1.0399094820022583, 0.0635061264038086, -0.0707896277308464, -7.346354961395264, 0.16667746007442474, -0.18467837572097778, -0.8662171363830566, -0.6432637572288513, -0.963047444820404, 0.10321865230798721, -1.4705179522134877, -1.0712389668119613, 0.22858732760052927, 9362.0, 30146.0, 35388.0, 9362.0, 8.231406211853027, 0.4947684109210968, -0.5945902466773987, 1.3310120105743408, -0.09170152992010117, -0.006234878674149513, 0.99371737241745, -0.04838535562157631, 0.03208160400390625, 1.49853515625, 1.48681640625, 0.1698150634765625, 1.49560546875
18617, 1.4388062953948975, -1.229472041130066, 1.0471535921096802, 0.06688299775123596, -0.07453134655952454, -7.363679885864258, 0.17100991308689117, -0.18950174748897552, -0.86610347032547, -0.6432956457138062, -0.9630175828933716, 0.10323790460824966, -1.4687640468553511, -1.0718960643303603, 0.22881418258934963, 9362.0, 30146.0, 35388.0, 9362.0, 8.231406211853027, 0.1711147576570511, 0.22560656070709229, -1.0049068927764893, -0.09263443201780319, -0.005252267699688673, 0.9911412596702576, -0.04838535562157631, 0.03208160400390625, 1.49853515625, 1.48681640625, 0.1698150634765625, 1.49560546875
18627, 1.4414818286895752, -1.231645941734314, 1.041326880455017, 0.06860382854938507, -0.07643838971853256, -7.37234354019165, 0.1731572449207306, -0.19190695881843567, -0.8666067719459534, -0.6432965397834778, -0.963010847568512, 0.10323340445756912, -1.4712582273757067, -1.0632969909874532, 0.2442720903959442, 9362.0, 30146.0, 35388.0, 9362.0, 8.231406211853027, 0.20955397188663483, -0.12572504580020905, 0.7951249480247498, -0.09145143628120422, -0.006149262189865112, 1.0005930662155151, -0.04838535562157631, 0.03208160400390625, 1.49853515625, 1.48681640625, 0.1698150634765625, 1.49560546875
18637, 1.4442260265350342, -1.2309815883636475, 1.048177719116211, 0.07034604996442795, -0.07836947590112686, -7.381014347076416, 0.17528724670410156, -0.1943104863166809, -0.867510974407196, -0.6432961225509644, -0.9630284309387207, 0.10322234779596329, -1.4827827016318595, -1.0655238001599514, 0.25731846579401607, 9362.0, 30146.0, 35388.0, 9362.0, 8.231406211853027, 0.3177083134651184, 0.2917234003543854, -0.32793259620666504, -0.09305575489997864, -0.008779410272836685, 1.000769019126892, -0.04838535562157631, 0.03208160400390625, 1.49853515625, 1.48681640625, 0.1698150634765625, 1.49560546875
18647, 1.4460554122924805, -1.2329387664794922, 1.0463037490844727, 0.07034604996442795, -0.07836947590112686, -7.381014347076416, 0.17528724670410156, -0.1943104863166809, -0.867510974407196, -0.6433113217353821, -0.9631820321083069, 0.1030409038066864, -1.5320451779987907, -1.0356502108640768, 0.32567960406443175, 9362.0, 30146.0, 35388.0, 9362.0, 8.251240730285645, 0.3177083134651184, 0.2917234003543854, -0.32793259620666504, -0.09248414635658264, -0.0060808975249528885, 0.9959850311279297, -0.04838535562157631, 0.03208160400390625, 1.49853515625, 1.297119140625, 0.0532379150390625, 1.49560546875
18657, 1.446179986000061, -1.2344110012054443, 1.0478613376617432, 0.07034604996442795, -0.07836947590112686, -7.381014347076416, 0.17528724670410156, -0.1943104863166809, -0.867510974407196, -0.6433109641075134, -0.9629498720169067, 0.10331516712903976, -1.4372591300822692, -1.0993102656315727, 0.20677516223323397, 9362.0, 30146.0, 35388.0, 9362.0, 8.251240730285645, -0.07636542618274689, 0.3409101068973541, -1.0081266164779663, -0.09181641042232513, -0.004172355402261019, 0.9913684725761414, -0.04838535562157631, 0.03208160400390625, 1.49853515625, 1.297119140625, 0.0532379150390625, 1.49560546875
18667, 1.4438999891281128, -1.2365893125534058, 1.0407382249832153, 0.07034604996442795, -0.07836947590112686, -7.381014347076416, 0.17528724670410156, -0.1943104863166809, -0.867510974407196, -0.6432826519012451, -0.9629346132278442, 0.10329083353281021, -1.4510402878557347, -1.078890744377361, 0.18750729766188926, 9362.0, 30146.0, 35388.0, 9362.0, 8.251240730285645, -0.30222970247268677, 0.31729868054389954, 0.2684175968170166, -0.09181641042232513, -0.004172355402261019, 0.9913684725761414, -0.04838535562157631, 0.03208160400390625, 1.49853515625, 1.297119140625, 0.0532379150390625, 1.49560546875
18687, 1.4395285844802856, -1.241725206375122, 1.0330866575241089, 0.07034604996442795, -0.07836947590112686, -7.381014347076416, 0.17528724670410156, -0.1943104863166809, -0.867510974407196, -0.6432443857192993, -0.9629840850830078, 0.10326699912548065, -1.4735470546502754, -1.084139944607358, 0.17834946093729634, 9362.0, 30146.0, 35388.0, 9362.0, 8.251240730285645, -0.49896883964538574, 0.25303298234939575, -0.8578864336013794, -0.0930279940366745, -0.008455953560769558, 0.9954785108566284, -0.04838535562157631, 0.03208160400390625, 1.49853515625, 1.297119140625, 0.0532379150390625, 1.49267578125
18697, 1.4358376264572144, -1.2448872327804565, 1.024543285369873, 0.08125004917383194, -0.09046486765146255, -7.4331231117248535, 0.18817894160747528, -0.20885293185710907, -0.8701171875, -0.643250048160553, -0.9629859328269958, 0.1032792329788208, -1.482857821410566, -1.100677256370659, 0.21151257639406218, 9362.0, 30146.0, 35388.0, 9362.0, 8.251240730285645, -0.3052922785282135, 0.6731013059616089, -0.9969385862350464, -0.09107084572315216, -0.005214971490204334, 0.9926050901412964, -0.04838535562157631, 0.03208160400390625, 1.49853515625, 1.297119140625, 0.0532379150390625, 1.49267578125
18707, 1.432340383529663, -1.2506228685379028, 1.015279769897461, 0.08125004917383194, -0.09046486765146255, -7.4331231117248535, 0.18817894160747528, -0.20885293185710907, -0.8701171875, -0.6432248950004578, -0.9630027413368225, 0.10326023399829865, -1.4786403972858668, -1.096008782337094, 0.2027382840676264, 9362.0, 30146.0, 35388.0, 9362.0, 8.251240730285645, -0.27056780457496643, 0.5569608211517334, -0.600965142250061, -0.09415824711322784, -0.006301660090684891, 0.9908760786056519, -0.04838535562157631, 0.03208160400390625, 1.49853515625, 1.297119140625, 0.0532379150390625, 1.49267578125
18717, 1.4289958477020264, -1.2563527822494507, 1.0089954137802124, 0.08125004917383194, -0.09046486765146255, -7.4331231117248535, 0.18817894160747528, -0.20885293185710907, -0.8701171875, -0.6432373523712158, -0.9630172252655029, 0.1032477617263794, -1.4874363087589035, -1.1145777918883653, 0.19956640369251755, 9362.0, 30146.0, 35388.0, 9362.0, 8.251240730285645, -0.3224596381187439, 0.3718717694282532, -1.0282396078109741, -0.0938248336315155, -0.009359692223370075, 0.9954003691673279, -0.04838535562157631, 0.03208160400390625, 1.49853515625, 1.297119140625, 0.0532379150390625, 1.494873046875
18727, 1.4252204895019531, -1.2603627443313599, 0.9990330338478088, 0.08699264377355576, -0.09683888405561447, -7.459252834320068, 0.19466164708137512, -0.2160651981830597, -0.8722231984138489, -0.6432264447212219, -0.9630067944526672, 0.103203684091568, -1.4713279561978498, -1.120398105062236, 0.2001022881867146, 9362.0, 30146.0, 35388.0, 9362.0, 8.251240730285645, -0.366331547498703, 0.6183871030807495, -0.7510114312171936, -0.0914415493607521, -0.009086272679269314, 0.9968663454055786, -0.04838535562157631, 0.03208160400390625, 1.49853515625, 1.297119140625, 0.0532379150390625, 1.494873046875
18737, 1.4216220378875732, -1.2666616439819336, 0.9924526810646057, 0.08699264377355576, -0.09683888405561447, -7.459252834320068, 0.19466164708137512, -0.2160651981830597, -0.8722231984138489, -0.6432058811187744, -0.9630178809165955, 0.10324331372976303, -1.483225239329197, -1.1172990201331743, 0.1902647697451812, 9362.0, 30146.0, 35388.0, 9362.0, 8.251240730285645, -0.1300637274980545, 0.5402156710624695, -0.6024648547172546, -0.0911589041352272, -0.009372450411319733, 0.9934931397438049, -0.04838535562157631, 0.03208160400390625, 1.49853515625, 1.297119140625, 0.0532379150390625, 1.494873046875
18747, 1.4185760021209717, -1.2733509540557861, 0.9872510433197021, 0.0909295454621315, -0.10120808333158493, -7.476707935333252, 0.19903390109539032, -0.22085487842559814, -0.873193621635437, -0.6431736350059509, -0.9629709720611572, 0.10316859185695648, -1.517490175568267, -1.1430280586473032, 0.17532800293287076, 9362.0, 30146.0, 35388.0, 9362.0, 8.251240730285645, -0.1300637274980545, 0.5402156710624695, -0.6024648547172546, -0.09424745291471481, -0.007870424538850784, 0.9915780425071716, -0.04838535562157631, 0.03208160400390625, 1.49853515625, 1.297119140625, 0.0532379150390625, 1.494873046875
18767, 1.4151164293289185, -1.2827461957931519, 0.9791778922080994, 0.09495417773723602, -0.10567275434732437, -7.494185924530029, 0.2034326046705246, -0.22560808062553406, -0.8746880292892456, -0.6430310606956482, -0.9629119634628296, 0.10320842266082764, -1.5116892084266953, -1.111740367985277, 0.06116268284300527, 9362.0, 30146.0, 35388.0, 9362.0, 8.251240730285645, -0.36291587352752686, 0.12908989191055298, -0.744533360004425, -0.09487385302782059, -0.01002616435289383, 0.997195303440094, -0.04838535562157631, 0.03208160400390625, 1.49853515625, 1.297119140625, 0.0532379150390625, 1.494873046875
18777, 1.4122483730316162, -1.284746527671814, 0.973397970199585, 0.09495417773723602, -0.10567275434732437, -7.494185924530029, 0.2034326046705246, -0.22560808062553406, -0.8746880292892456, -0.6430859565734863, -0.9630062580108643, 0.10312999784946442, -1.519779191224493, -1.1202365930939209, 0.15680893371634055, 9362.0, 30146.0, 35388.0, 9362.0, 8.251240730285645, -0.1806064248085022, 0.0838373675942421, 0.08271629363298416, -0.09516939520835876, -0.008604117669165134, 0.9975466132164001, -0.04838535562157631, 0.03208160400390625, 1.49853515625, 1.297119140625, 0.0532379150390625, 1.497802734375
18787, 1.4111605882644653, -1.2849103212356567, 0.9728803634643555, 0.09906721860170364, -0.110232412815094, -7.511690616607666, 0.20787747204303741, -0.2303595095872879, -0.8756539225578308, -0.6430615186691284, -0.9629694819450378, 0.10313484072685242, -1.5258006606335441, -1.108270731256198, 0.12435517488267991, 9362.0, 30146.0, 35388.0, 9362.0, 8.251240730285645, -0.19880913197994232, -0.12103784084320068, -0.22201970219612122, -0.09589190036058426, -0.010478058829903603, 0.9935659766197205, -0.04838535562157631, 0.03208160400390625, 1.49853515625, 1.297119140625, 0.0532379150390625, 1.497802734375
18797, 1.4102206230163574, -1.2839282751083374, 0.9713862538337708, 0.09906721860170364, -0.110232412815094, -7.511690616607666, 0.20787747204303741, -0.2303595095872879, -0.8756539225578308, -0.6431988477706909, -0.9630671739578247, 0.10327775776386261, -1.500535974268042, -1.2162959907156505, 0.28706167371501373, 9362.0, 30146.0, 35388.0, 9362.0, 8.251240730285645, 0.13246296346187592, 0.26134902238845825, 0.2200988382101059, -0.09366270154714584, -0.010833611711859703, 0.9942017793655396, -0.04838535562157631, 0.03208160400390625, 1.49853515625, 1.14990234375, 0.7412872314453125, 1.494873046875
