timeTick, roll, pitch, yaw, stateX, stateY, stateZ, stateVX, stateVY, stateVZ, otX0, otY0, otZ0, otRoll0, otPitch0, otYaw0, left wing, pitch motor, yaw motor, right wing, voltage, roll rate, pitch rate, yaw rate, A_x, A_y, A_z, current, i_raw, v_raw, airflow_voltage, airflow_speed, pot_Pitch
17449, -1.7150523662567139, 2.48868989944458, 4.844125270843506, 0, 0, 0, 0, 0, 0, -0.7696437835693359, -1.0158398151397705, 0.1052895188331604, -1.699154052801711, -2.633989144212876, 10.52830730227882, 0, 0, 0, 0, 0, 0, 0, 0, 0, 0, 0, 0, 0, 0, 0, 0, 0
17459, -1.7141404151916504, 2.4892330169677734, 4.845258712768555, 0.0008532006177119911, -0.0004881219647359103, -8.158774375915527, 0.03819907084107399, -0.021856289356946945, -1.0303020477294922, -0.7695866823196411, -1.015803337097168, 0.10543529689311981, -1.7297534691190228, -2.5492337098518476, 10.587747426828102, 9362.0, 30146.0, 35388.0, 9362.0, 0, 0.26066121459007263, -0.14667363464832306, 0.14721818268299103, -0.12103681266307831, -0.01763809099793434, 0.9950335621833801, 0, 0, 0, 1.494140625, 0.183990478515625, 0
17469, -1.7126879692077637, 2.4890177249908447, 4.8461384773254395, 0.0012128388043493032, -0.0006939232116565108, -8.16908073425293, 0.033728521317243576, -0.01930401846766472, -1.0308936834335327, -0.7696458101272583, -1.0158296823501587, 0.10529562830924988, -1.7017665862884266, -2.6417712716526296, 10.518004586578357, 9362.0, 30146.0, 35388.0, 9362.0, 0, 0.19727690517902374, 0.18831096589565277, 0.4623211920261383, -0.12004002183675766, -0.018685393035411835, 0.9941361546516418, 0, 0, 0, 1.421630859375, 0.0640716552734375, 1.494873046875
17479, -1.7114660739898682, 2.4885056018829346, 4.84883451461792, 0.0015278023201972246, -0.000874230288900435, -8.17939281463623, 0.0292640533298254, -0.016757600009441376, -1.031607747077942, -0.7696482539176941, -1.015865445137024, 0.1052369624376297, -1.6880323766534941, -2.648123023630859, 10.505615782986407, 9362.0, 30146.0, 35388.0, 9362.0, 0, 0.05224744603037834, 0.06611426919698715, -0.31292206048965454, -0.11757872253656387, -0.01979087106883526, 0.9939403533935547, 0, 0, 0, 1.4267578125, 0.070709228515625, 1.494873046875
17489, -1.7099955081939697, 2.4883456230163574, 4.848639965057373, 0.0017981341807171702, -0.0010290889767929912, -8.189712524414062, 0.024802321568131447, -0.014214118011295795, -1.0323586463928223, -0.769544243812561, -1.0158002376556396, 0.10548830777406693, -1.730477221295089, -2.5310543183130676, 10.588356340389426, 9362.0, 30146.0, 35388.0, 9362.0, 0, -0.1258775144815445, -1.256955623626709, -0.9462105631828308, -0.10802266001701355, -0.01910070888698101, 0.9961181879043579, 0, 0, 0, 1.58642578125, 0.3851776123046875, 1.493408203125
17499, -1.7100436687469482, 2.497239112854004, 4.8456292152404785, 0.002023798879235983, -0.0011584954336285591, -8.20003890991211, 0.020330827683210373, -0.011666920967400074, -1.0328819751739502, -0.7699981927871704, -1.0158077478408813, 0.10492181777954102, -1.56119335165936, -2.2909785802352474, 10.53040977080566, 9362.0, 30146.0, 35388.0, 9362.0, 0, 0.12447495013475418, -0.16944336891174316, -0.08408360183238983, -0.12705814838409424, -0.0169156976044178, 0.9939618110656738, 0, 0, 0, 1.464111328125, 0.1283111572265625, 1.493408203125
17509, -1.7089720964431763, 2.5001437664031982, 4.846458435058594, 0.0022047189995646477, -0.001262460253201425, -8.210371017456055, 0.01585317961871624, -0.009126106277108192, -1.0336016416549683, -0.7695784568786621, -1.0158275365829468, 0.10523974150419235, -1.681806667432638, -2.641373265402649, 10.47885418381509, 9362.0, 30146.0, 35388.0, 9362.0, 0, 0.10833225399255753, -0.26309025287628174, -0.5118955969810486, -0.11659298092126846, -0.012241627089679241, 0.9881420731544495, 0, 0, 0, 1.43701171875, 0.085052490234375, 1.493408203125
17519, -1.7071048021316528, 2.50065541267395, 4.843912601470947, 0.0023409435525536537, -0.0013410879764705896, -8.220712661743164, 0.011391843669116497, -0.006599200423806906, -1.0347777605056763, -0.769492506980896, -1.0157884359359741, 0.10544046759605408, -1.7384939232798764, -2.527790380614249, 10.573894367996145, 9362.0, 30146.0, 35388.0, 9362.0, 0, 0.561704158782959, -0.8070665597915649, -0.3817642033100128, -0.11288521438837051, -0.012549227103590965, 0.9887915849685669, 0, 0, 0, 1.534423828125, 0.267578125, 1.493408203125
17529, -1.7020026445388794, 2.5082263946533203, 4.842813968658447, 0.0024325698614120483, -0.0013944717356935143, -8.231066703796387, 0.006933633238077164, -0.004077358171343803, -1.036030888557434, -0.7694420218467712, -1.0157792568206787, 0.1054699495434761, -1.7356391318048672, -2.5353461519347604, 10.5838559121609, 9362.0, 30146.0, 35388.0, 9362.0, 0, 0.3272179365158081, -1.0948761701583862, -0.7981754541397095, -0.11712075769901276, -0.01623491570353508, 0.9977555871009827, 0, 0, 0, 1.494873046875, 0.185455322265625, 1.494140625
17539, -1.6981791257858276, 2.5195016860961914, 4.838687896728516, 0.00247938116081059, -0.0014225877821445465, -8.241429328918457, 0.0024288862477988005, -0.0015454866224899888, -1.036534309387207, -0.76945561170578, -1.0157922506332397, 0.10540401935577393, -1.7345115761711685, -2.5556768683715347, 10.577924054484884, 9362.0, 30146.0, 35388.0, 9362.0, 0, -0.23833099007606506, -0.017454160377383232, 0.9047825336456299, -0.12865397334098816, -0.02191929519176483, 0.9969730377197266, 0, 0, 0, 1.6376953125, 0.5082244873046875, 1.494140625
17549, -1.6985604763031006, 2.5201122760772705, 4.841671943664551, 0.0024810342583805323, -0.0014254136476665735, -8.25179672241211, -0.0020984148140996695, 0.0009800861589610577, -1.036957025527954, -0.7695558667182922, -1.0158445835113525, 0.10525590926408768, -1.6891842760402234, -2.6241767531316214, 10.50449293228158, 9362.0, 30146.0, 35388.0, 9362.0, 8.350414276123047, -0.1290348917245865, 0.7072296738624573, 0.5602132081985474, -0.11291856318712234, -0.01619545742869377, 0.9879772067070007, -0.060120489448308945, -0.08439826965332031, 1.489013671875, 1.55712890625, 0.31793212890625, 1.49267578125
17559, -1.6990211009979248, 2.5138790607452393, 4.838305473327637, 0.002437578048557043, -0.0014030769234523177, -8.262171745300293, -0.006592799909412861, 0.003487504320219159, -1.0381125211715698, -0.7694564461708069, -1.0157796144485474, 0.10546780377626419, -1.7328289158938603, -2.5243641139795443, 10.593314314072963, 9362.0, 30146.0, 35388.0, 9362.0, 8.350414276123047, -0.018099669367074966, 0.45940396189689636, -0.8108813762664795, -0.12237334251403809, -0.013922605663537979, 0.9867502450942993, -0.060120489448308945, -0.08439826965332031, 1.489013671875, 1.553466796875, 0.309661865234375, 1.49267578125
17569, -1.6971379518508911, 2.510744571685791, 4.83333158493042, 0.002349305897951126, -0.0013556983321905136, -8.272560119628906, -0.011061493307352066, 0.005988639779388905, -1.0395917892456055, -0.7694500088691711, -1.0157785415649414, 0.1054745763540268, -1.7441364721763595, -2.539788614175393, 10.578429031579049, 9362.0, 30146.0, 35388.0, 9362.0, 8.350414276123047, 0.06631380319595337, 0.17184194922447205, -0.5705640316009521, -0.11612892895936966, -0.021500566974282265, 0.997014045715332, -0.060120489448308945, -0.08439826965332031, 1.489013671875, 1.620849609375, 0.4671783447265625, 1.491943359375
17579, -1.6964317560195923, 2.506528615951538, 4.829880237579346, 0.002216172171756625, -0.0012832061620429158, -8.282958984375, -0.01556515321135521, 0.00851006805896759, -1.0401896238327026, -0.7694291472434998, -1.0157577991485596, 0.10545241087675095, -1.7535097943451403, -2.566851138696478, 10.588402565999944, 9362.0, 30146.0, 35388.0, 9362.0, 8.350414276123047, -0.07394081354141235, 0.5606043934822083, 0.0055497693829238415, -0.12047091871500015, -0.021891681477427483, 0.9968546628952026, -0.060120489448308945, -0.08439826965332031, 1.489013671875, 1.23193359375, 0.2292022705078125, 1.491943359375
17589, -1.6975880861282349, 2.5005545616149902, 4.829127788543701, 0.0020380022469908, -0.001185480854474008, -8.293362617492676, -0.020068852230906487, 0.01103505864739418, -1.0406285524368286, -0.7694267630577087, -1.0157594680786133, 0.10545855015516281, -1.730304438579307, -2.557916137208224, 10.54556707376452, 9362.0, 30146.0, 35388.0, 9362.0, 8.350414276123047, -0.2830760180950165, 0.9697111248970032, -0.789210855960846, -0.11946512758731842, -0.014817754738032818, 0.9929059147834778, -0.060120489448308945, -0.08439826965332031, 1.489013671875, 1.513916015625, 0.224029541015625, 1.491943359375
17599, -1.6993907690048218, 2.491811752319336, 4.823419570922852, 0.001814920804463327, -0.0010625335853546858, -8.303772926330566, -0.02454729750752449, 0.013554809615015984, -1.041394829750061, -0.7694182991981506, -1.0157541036605835, 0.1055254340171814, -1.7282226178406592, -2.5437723722150736, 10.566237327073695, 9362.0, 30146.0, 35388.0, 9362.0, 8.350414276123047, -0.3895033299922943, 0.4236519932746887, -0.009625623933970928, -0.12019891291856766, -0.013669479638338089, 0.9918676614761353, -0.060120489448308945, -0.08439826965332031, 1.489013671875, 1.3037109375, 0.04412841796875, 1.491943359375
17609, -1.7027229070663452, 2.4858932495117188, 4.822784423828125, 0.0015471697552129626, -0.0009143882198259234, -8.314191818237305, -0.029002953320741653, 0.016074270009994507, -1.0423390865325928, -0.7694104909896851, -1.0157428979873657, 0.10549569129943848, -1.749752188075928, -2.5585554274428546, 10.561428646599966, 9362.0, 30146.0, 35388.0, 9362.0, 8.350414276123047, -0.21977022290229797, 0.653807520866394, 0.26370418071746826, -0.12176510691642761, -0.01855035312473774, 0.9945585131645203, -0.060120489448308945, -0.08439826965332031, 1.489013671875, 1.609130859375, 0.4388580322265625, 1.493408203125
17619, -1.7056905031204224, 2.479849338531494, 4.822879314422607, 0.0012348565505817533, -0.0007409851532429457, -8.324618339538574, -0.033459775149822235, 0.01860630139708519, -1.0430493354797363, -0.7694390416145325, -1.0157550573349, 0.10548250377178192, -1.7285506511976845, -2.532015484808227, 10.54055107830163, 9362.0, 30146.0, 35388.0, 9362.0, 8.350414276123047, -0.32660308480262756, 0.7265216112136841, -0.4459974467754364, -0.12257110327482224, -0.019688157364726067, 0.99703449010849, -0.060120489448308945, -0.08439826965332031, 1.489013671875, 1.29931640625, 0.0500640869140625, 1.493408203125
17629, -1.7079863548278809, 2.4749889373779297, 4.818828582763672, 0.000877970946021378, -0.0005422019748948514, -8.335051536560059, -0.037917204201221466, 0.021150631830096245, -1.04352605342865, -0.7694129347801208, -1.0157315731048584, 0.10545414686203003, -1.7420810204425337, -2.5725540464113408, 10.547793363364093, 9362.0, 30146.0, 35388.0, 9362.0, 8.350414276123047, -0.004246071446686983, 0.10836335271596909, -0.21230562031269073, -0.11946006119251251, -0.01758274808526039, 0.9941599369049072, -0.060120489448308945, -0.08439826965332031, 1.489013671875, 1.12646484375, 0.9649200439453125, 1.49560546875
17639, -1.7097828388214111, 2.474350929260254, 4.816141128540039, 0.00047659073607064784, -0.00031797337578609586, -8.345490455627441, -0.042358703911304474, 0.02369527891278267, -1.044175148010254, -0.7695134878158569, -1.015781283378601, 0.10526493936777115, -1.6991261660732493, -2.6569750027172745, 10.47651173376865, 9362.0, 30146.0, 35388.0, 9362.0, 8.350414276123047, -0.0792105421423912, 0.6523882150650024, 0.20789401233196259, -0.12391967326402664, -0.014876944944262505, 0.9912673234939575, -0.060120489448308945, -0.08439826965332031, 1.489013671875, 1.415771484375, 0.0568695068359375, 1.49560546875
17649, -1.7113295793533325, 2.4700241088867188, 4.818624019622803, 3.0868861358612776e-05, -6.832089275121689e-05, -8.355937004089355, -0.0467858612537384, 0.026234999299049377, -1.0451245307922363, -0.769522488117218, -1.015771746635437, 0.10528354346752167, -1.7019866908352017, -2.6589075294328666, 10.46276704206752, 9362.0, 30146.0, 35388.0, 9362.0, 8.350414276123047, -0.28422701358795166, 0.20612530410289764, 0.3009258508682251, -0.12072642892599106, -0.017395399510860443, 0.9946876168251038, -0.04585575684905052, -0.03959846496582031, 1.49267578125, 1.5849609375, 0.381805419921875, 1.4970703125
17659, -1.713610053062439, 2.467153310775757, 4.821192264556885, -0.0004591424367390573, 0.00020677430438809097, -8.366392135620117, -0.05121653527021408, 0.028783822432160378, -1.045841932296753, -0.7694229483604431, -1.0157544612884521, 0.10549353063106537, -1.7370987361858536, -2.5443067740466176, 10.569579264694996, 9362.0, 30146.0, 35388.0, 9362.0, 8.350414276123047, -0.18428748846054077, 0.036838989704847336, 0.07143471390008926, -0.1242007166147232, -0.01886887103319168, 0.9950692057609558, -0.04585575684905052, -0.03959846496582031, 1.49267578125, 1.44287109375, 0.0936279296875, 1.4970703125
17669, -1.7156398296356201, 2.4666500091552734, 4.821531295776367, -0.0009934678673744202, 0.0005073951906524599, -8.376853942871094, -0.055648576468229294, 0.03134031593799591, -1.0464297533035278, -0.769425630569458, -1.015738606452942, 0.10544763505458832, -1.7303097259360931, -2.549530704721519, 10.541854046372409, 9362.0, 30146.0, 35388.0, 9362.0, 8.350414276123047, -0.0026593974325805902, -0.3998931646347046, -0.1609288454055786, -0.12216182053089142, -0.016180608421564102, 0.9947156310081482, -0.04585575684905052, -0.03959846496582031, 1.49267578125, 1.20556640625, 0.3530731201171875, 1.496337890625
17679, -1.7155778408050537, 2.4684560298919678, 4.821123123168945, -0.0015721018426120281, 0.0008335931925103068, -8.387321472167969, -0.06007819250226021, 0.03389932960271835, -1.0470569133758545, -0.7694078683853149, -1.0157430171966553, 0.10549736022949219, -1.7304079967710915, -2.542369304717056, 10.548145962397708, 9362.0, 30146.0, 35388.0, 9362.0, 8.350414276123047, -0.2729106545448303, -0.23420971632003784, 0.3999394476413727, -0.12292563915252686, -0.016798289492726326, 0.9931380748748779, -0.04585575684905052, -0.03959846496582031, 1.49267578125, 1.278076171875, 0.087799072265625, 1.496337890625
17689, -1.7161357402801514, 2.4708411693573, 4.824239730834961, -0.002195013454183936, 0.0011853602482005954, -8.397795677185059, -0.0645042359828949, 0.03645383194088936, -1.0478330850601196, -0.7695144414901733, -1.0157841444015503, 0.10525499284267426, -1.6879435410826946, -2.6503835823255315, 10.455725425901166, 9362.0, 30146.0, 35388.0, 9362.0, 8.350414276123047, -0.22751052677631378, -0.22957322001457214, 0.5086118578910828, -0.12166213989257812, -0.02021208591759205, 0.9907735586166382, -0.04585575684905052, -0.03959846496582031, 1.49267578125, 1.3095703125, 0.037139892578125, 1.494140625
17699, -1.7178138494491577, 2.4730746746063232, 4.828122138977051, -0.002862156368792057, 0.001562644960358739, -8.408279418945312, -0.06892447918653488, 0.039002805948257446, -1.0488314628601074, -0.769523024559021, -1.0157907009124756, 0.1052490845322609, -1.6951196834042064, -2.6601857216737983, 10.447377247493376, 9362.0, 30146.0, 35388.0, 9362.0, 8.350414276123047, 0.02347300574183464, -0.1319006085395813, 0.22134099900722504, -0.11878741532564163, -0.020617322996258736, 0.9923962354660034, -0.04585575684905052, -0.03959846496582031, 1.49267578125, 1.4736328125, 0.1452178955078125, 1.494140625
17709, -1.717865228652954, 2.475743532180786, 4.830625534057617, -0.0035735447891056538, 0.0019654433708637953, -8.41877269744873, -0.07335329055786133, 0.041556693613529205, -1.0497322082519531, -0.7694974541664124, -1.0157887935638428, 0.10524935275316238, -1.6915834474582256, -2.6452693817542468, 10.46783886232307, 9362.0, 30146.0, 35388.0, 9362.0, 8.350414276123047, 0.11195382475852966, -0.06414207816123962, 0.5045713782310486, -0.12255529314279556, -0.01810072921216488, 0.9920895099639893, -0.04585575684905052, -0.03959846496582031, 1.49267578125, 1.6494140625, 0.5372772216796875, 1.496337890625
17719, -1.7164373397827148, 2.4783241748809814, 4.834564208984375, -0.004329237621277571, 0.0023937742225825787, -8.429274559020996, -0.0777854174375534, 0.04410921037197113, -1.0506627559661865, -0.7695277333259583, -1.0157936811447144, 0.10527404397726059, -1.6923369063661031, -2.6290742593183154, 10.476406133560598, 9362.0, 30146.0, 35388.0, 9362.0, 8.350414276123047, 0.05467747896909714, -0.6579299569129944, 0.29509440064430237, -0.12188941240310669, -0.018396712839603424, 0.9924631118774414, -0.04585575684905052, -0.03959846496582031, 1.49267578125, 1.65380859375, 0.548309326171875, 1.496337890625
17729, -1.7149635553359985, 2.4836935997009277, 4.8373332023620605, -0.005129282828420401, 0.0028476202860474586, -8.439785957336426, -0.08222367614507675, 0.046659816056489944, -1.0515525341033936, -0.769494354724884, -1.0157545804977417, 0.105292409658432, -1.7148011608612672, -2.6366250835283154, 10.471534260361006, 9362.0, 30146.0, 35388.0, 9362.0, 8.350414276123047, 0.21372666954994202, -0.053166113793849945, 0.3146493434906006, -0.12008870393037796, -0.019411584362387657, 0.9940796494483948, -0.04585575684905052, -0.03959846496582031, 1.49267578125, 1.650146484375, 0.539215087890625, 1.4970703125
17739, -1.7138627767562866, 2.4858908653259277, 4.840012550354004, -0.005973789840936661, 0.0033269748091697693, -8.450304985046387, -0.08667784929275513, 0.04921086132526398, -1.0522924661636353, -0.7694119811058044, -1.0157420635223389, 0.10549935698509216, -1.7313168708780127, -2.545490006647526, 10.553572947278774, 9362.0, 30146.0, 35388.0, 9362.0, 8.350414276123047, 0.40993732213974, -0.5068288445472717, 0.17635084688663483, -0.11881103366613388, -0.01885652355849743, 0.9946991801261902, -0.04585575684905052, -0.03959846496582031, 1.49267578125, 1.634765625, 0.5010528564453125, 1.4970703125
17749, -1.711970329284668, 2.4900805950164795, 4.840088844299316, -0.006862877402454615, 0.003831839421764016, -8.460830688476562, -0.09113968163728714, 0.051762089133262634, -1.0529426336288452, -0.7694345116615295, -1.0157265663146973, 0.10545197129249573, -1.7287744221983066, -2.549553143648211, 10.551163750362187, 9362.0, 30146.0, 35388.0, 9362.0, 8.350414276123047, -0.044247500598430634, -0.6654336452484131, -0.12739358842372894, -0.11563493311405182, -0.01470986194908619, 0.9951794147491455, -0.05080841854214668, -0.06647872924804688, 1.490478515625, 1.6669921875, 0.5816650390625, 1.493408203125
17759, -1.7110595703125, 2.494511365890503, 4.839348316192627, -0.007796624209731817, 0.004362200852483511, -8.471363067626953, -0.0956096276640892, 0.054310306906700134, -1.053564190864563, -0.7695028781890869, -1.0157521963119507, 0.10530399531126022, -1.7031543391724604, -2.634285565039221, 10.47701357861294, 9362.0, 30146.0, 35388.0, 9362.0, 8.350414276123047, 0.5554183721542358, 0.05755196511745453, 0.5105405449867249, -0.11560148000717163, -0.019014080986380577, 0.9936062693595886, -0.05080841854214668, -0.06647872924804688, 1.490478515625, 1.080322265625, 1.52886962890625, 1.493408203125
17769, -1.7070391178131104, 2.495476722717285, 4.841830253601074, -0.008775072172284126, 0.0049180141650140285, -8.481902122497559, -0.10008009523153305, 0.05685216933488846, -1.054338812828064, -0.7694898247718811, -1.0157333612442017, 0.10524040460586548, -1.7116891153015674, -2.6830208246374525, 10.464189561809203, 9362.0, 30146.0, 35388.0, 9362.0, 8.350414276123047, 0.1632983535528183, -0.3406502902507782, 0.05043448135256767, -0.11774255335330963, -0.02143193408846855, 0.9924423694610596, -0.05080841854214668, -0.06647872924804688, 1.490478515625, 1.4912109375, 0.178253173828125, 1.487548828125
17779, -1.7050883769989014, 2.5000336170196533, 4.841837406158447, -0.00979821290820837, 0.00549920042976737, -8.492449760437012, -0.10454801470041275, 0.05938507243990898, -1.055190920829773, -0.7695250511169434, -1.015766978263855, 0.10524909943342209, -1.6804688735656386, -2.650865833000921, 10.466793607896895, 9362.0, 30146.0, 35388.0, 9362.0, 8.350414276123047, 0.09914277493953705, -0.48161986470222473, -0.5368298292160034, -0.11888980120420456, -0.018242111429572105, 0.9918267726898193, -0.05080841854214668, -0.06647872924804688, 1.490478515625, 1.478759765625, 0.1546478271484375, 1.487548828125
17789, -1.7037891149520874, 2.5042881965637207, 4.838394641876221, -0.01086606178432703, 0.006105691194534302, -8.503005981445312, -0.10902159661054611, 0.061913371086120605, -1.0560778379440308, -0.7695296406745911, -1.0157569646835327, 0.10529521107673645, -1.6917280442781997, -2.6398095131216905, 10.465826422154064, 9362.0, 30146.0, 35388.0, 9362.0, 8.350414276123047, 0.14963823556900024, -0.2207421213388443, -0.031165489926934242, -0.11760535091161728, -0.015976767987012863, 0.9916634559631348, -0.05080841854214668, -0.06647872924804688, 1.490478515625, 1.57470703125, 0.3579864501953125, 1.494873046875
17799, -1.7020443677902222, 2.505796194076538, 4.837697505950928, -0.011978670954704285, 0.006737446412444115, -8.513571739196777, -0.11350022256374359, 0.06443779915571213, -1.0570087432861328, -0.7695062756538391, -1.015724539756775, 0.1052582636475563, -1.7082657820283587, -2.669987658854069, 10.470729263442013, 9362.0, 30146.0, 35388.0, 9362.0, 8.350414276123047, 0.09710076451301575, -0.22118206322193146, -0.09354643523693085, -0.1160980612039566, -0.017289113253355026, 0.9926771521568298, -0.05080841854214668, -0.06647872924804688, 1.490478515625, 1.23046875, 0.235137939453125, 1.494873046875
17809, -1.7002168893814087, 2.508030891418457, 4.837077617645264, -0.013136088848114014, 0.007394436746835709, -8.52414608001709, -0.11798322200775146, 0.06696029752492905, -1.0578927993774414, -0.7695429921150208, -1.0157463550567627, 0.1052851527929306, -1.6749498795258457, -2.6395071807295096, 10.454323380729463, 9362.0, 30146.0, 35388.0, 9362.0, 8.350414276123047, 0.10516446828842163, 0.28881797194480896, -0.4724787473678589, -0.1180415078997612, -0.016258342191576958, 0.9941826462745667, -0.05080841854214668, -0.06647872924804688, 1.490478515625, 1.57470703125, 0.3579864501953125, 1.49267578125
17819, -1.6984299421310425, 2.506251335144043, 4.834560871124268, -0.014338390901684761, 0.008076655678451061, -8.53472900390625, -0.12247713655233383, 0.06948374956846237, -1.0586163997650146, -0.769539475440979, -1.0156970024108887, 0.10524201393127441, -1.7066649501604438, -2.6495790611947996, 10.46182536500574, 9362.0, 30146.0, 35388.0, 9362.0, 8.350414276123047, 0.06309665739536285, -0.04086946323513985, -0.25134825706481934, -0.1176159605383873, -0.013678092509508133, 0.9948587417602539, -0.05080841854214668, -0.06647872924804688, 1.490478515625, 1.6494140625, 0.5372772216796875, 1.49267578125
17829, -1.697898507118225, 2.50651216506958, 4.835443019866943, -0.015585626475512981, 0.008784102275967598, -8.545318603515625, -0.12697002291679382, 0.07200558483600616, -1.0592912435531616, -0.76951003074646, -1.015720248222351, 0.10526163876056671, -1.7022764631790783, -2.660272561316077, 10.466128464064486, 9362.0, 30146.0, 35388.0, 9362.0, 8.350414276123047, 0.07632584869861603, 0.3194618225097656, -1.9543684720993042, -0.11631476879119873, -0.014373776502907276, 0.9950030446052551, -0.05080841854214668, -0.06647872924804688, 1.490478515625, 1.494140625, 0.183990478515625, 1.493408203125
17839, -1.6962544918060303, 2.503682851791382, 4.828597545623779, -0.016877807676792145, 0.009516770951449871, -8.555914878845215, -0.1314658671617508, 0.07452864944934845, -1.059903860092163, -0.7695387601852417, -1.0157442092895508, 0.10530320554971695, -1.7014425069644095, -2.6242862563808274, 10.476434041376773, 9362.0, 30146.0, 35388.0, 9362.0, 8.350414276123047, -0.19877022504806519, 0.48352304100990295, -0.43194839358329773, -0.12368091940879822, -0.01909535378217697, 0.993546724319458, -0.05080841854214668, -0.06647872924804688, 1.490478515625, 1.194580078125, 0.4152679443359375, 1.493408203125
17849, -1.6974302530288696, 2.5002124309539795, 4.826820373535156, -0.018214894458651543, 0.010274645872414112, -8.56651782989502, -0.13595137000083923, 0.07704649120569229, -1.0606300830841064, -0.7695134282112122, -1.0157121419906616, 0.10525552928447723, -1.700637071109819, -2.664147596180669, 10.453447472788392, 9362.0, 30146.0, 35388.0, 9362.0, 8.33057975769043, 0.054980259388685226, 0.228097602725029, 0.697002649307251, -0.11661424487829208, -0.01501928549259901, 0.9912761449813843, -0.052601467818021774, -0.22775840759277344, 1.477294921875, 1.40478515625, 0.0446624755859375, 1.493408203125
17859, -1.6978663206100464, 2.496614456176758, 4.826864719390869, -0.019596749916672707, 0.01105768047273159, -8.577129364013672, -0.14041991531848907, 0.07956050336360931, -1.0616005659103394, -0.7694258689880371, -1.015669822692871, 0.10549810528755188, -1.7311047871237073, -2.5173637494963543, 10.561759470108344, 9362.0, 30146.0, 35388.0, 9362.0, 8.33057975769043, -0.07049080729484558, 0.40509164333343506, -0.46420273184776306, -0.12049175053834915, -0.017144259065389633, 0.9947582483291626, -0.052601467818021774, -0.22775840759277344, 1.477294921875, 1.647216796875, 0.53179931640625, 1.493408203125
17869, -1.6985249519348145, 2.4915719032287598, 4.8231120109558105, -0.021023323759436607, 0.011865896172821522, -8.587748527526855, -0.14489467442035675, 0.08208303898572922, -1.0623008012771606, -0.7695304155349731, -1.01572585105896, 0.10527759790420532, -1.6813971375307346, -2.6317078887018113, 10.475886531823424, 9362.0, 30146.0, 35388.0, 9362.0, 8.33057975769043, -0.11741446703672409, 0.20318827033042908, 0.24600932002067566, -0.12046387046575546, -0.017792964354157448, 0.9965606331825256, -0.052601467818021774, -0.22775840759277344, 1.477294921875, 1.142578125, 0.8070068359375, 1.494140625
17879, -1.6992321014404297, 2.488274335861206, 4.824331283569336, -0.022494645789265633, 0.012699373997747898, -8.598374366760254, -0.14936991035938263, 0.08461235463619232, -1.0628069639205933, -0.7694365382194519, -1.0156378746032715, 0.10543440282344818, -1.741019641825774, -2.561683765186416, 10.530599702825555, 9362.0, 30146.0, 35388.0, 9362.0, 8.33057975769043, -0.17604272067546844, 0.63157719373703, -0.16385237872600555, -0.11753271520137787, -0.01756986416876316, 0.9916735887527466, -0.052601467818021774, -0.22775840759277344, 1.477294921875, 1.13818359375, 0.8482208251953125, 1.494140625
17889, -1.700848937034607, 2.482149600982666, 4.823288440704346, -0.024010607972741127, 0.013558103702962399, -8.609006881713867, -0.15382248163223267, 0.08713366091251373, -1.063687801361084, -0.769497275352478, -1.0156986713409424, 0.10525190830230713, -1.6972686556589116, -2.6669533339921543, 10.446723136494013, 9362.0, 30146.0, 35388.0, 9362.0, 8.33057975769043, -0.01720038615167141, 0.3546987473964691, -0.06080600246787071, -0.12205883860588074, -0.014865349978208542, 0.9903699159622192, -0.052601467818021774, -0.22775840759277344, 1.477294921875, 1.5673828125, 0.3411102294921875, 1.493408203125
17899, -1.7013705968856812, 2.4791994094848633, 4.823058605194092, -0.025571009144186974, 0.014442045241594315, -8.619648933410645, -0.15825779736042023, 0.0896545872092247, -1.064723253250122, -0.769428551197052, -1.0156811475753784, 0.10549122095108032, -1.7300663895181088, -2.545140996818674, 10.550625332135741, 9362.0, 30146.0, 35388.0, 9362.0, 8.33057975769043, 0.14138378202915192, 0.4015543460845947, -0.11856949329376221, -0.11877811700105667, -0.012665169313549995, 0.9921921491622925, -0.052601467818021774, -0.22775840759277344, 1.477294921875, 1.19677734375, 0.40228271484375, 1.493408203125
17909, -1.7009867429733276, 2.475700855255127, 4.822517395019531, -0.027175771072506905, 0.015351220965385437, -8.630300521850586, -0.16269464790821075, 0.09218055009841919, -1.0656174421310425, -0.7694790363311768, -1.0156989097595215, 0.10525642335414886, -1.7133284614297324, -2.666178345800148, 10.468355262370197, 9362.0, 30146.0, 35388.0, 9362.0, 8.33057975769043, -0.17654964327812195, 0.3390439450740814, 0.1139715239405632, -0.12080585956573486, -0.016722600907087326, 0.9931014180183411, -0.052601467818021774, -0.22775840759277344, 1.477294921875, 1.494873046875, 0.185455322265625, 1.493408203125
17919, -1.702768087387085, 2.4728760719299316, 4.823317050933838, -0.028824884444475174, 0.016285663470625877, -8.640960693359375, -0.16712811589241028, 0.09470775723457336, -1.0664547681808472, -0.7695343494415283, -1.0157190561294556, 0.10527002811431885, -1.6928304271048062, -2.6402755252150882, 10.473031485174022, 9362.0, 30146.0, 35388.0, 9362.0, 8.33057975769043, -0.2935725748538971, 0.44152140617370605, 0.089227095246315, -0.12523506581783295, -0.020196305587887764, 0.9931859970092773, -0.052601467818021774, -0.22775840759277344, 1.477294921875, 1.4912109375, 0.178253173828125, 1.493408203125
17929, -1.7040759325027466, 2.470165252685547, 4.822770595550537, -0.030518323183059692, 0.017245402559638023, -8.651629447937012, -0.17155976593494415, 0.09723998606204987, -1.0672322511672974, -0.7695191502571106, -1.0157023668289185, 0.10529632121324539, -1.6909248698848796, -2.6505238667950266, 10.469346579069207, 9362.0, 30146.0, 35388.0, 9362.0, 8.33057975769043, -0.21354754269123077, 0.0626351460814476, 0.6050930619239807, -0.12066742032766342, -0.016210036352276802, 0.992606520652771, -0.052601467818021774, -0.22775840759277344, 1.477294921875, 1.594482421875, 0.4041595458984375, 1.49267578125
17939, -1.7062522172927856, 2.469013214111328, 4.8257975578308105, -0.030518323183059692, 0.017245402559638023, -8.651629447937012, -0.17155976593494415, 0.09723998606204987, -1.0672322511672974, -0.7695015072822571, -1.015684962272644, 0.10523886978626251, -1.7080688124080838, -2.6814513070373778, 10.455283160890607, 9362.0, 30146.0, 35388.0, 9362.0, 8.33057975769043, -0.11141778528690338, 0.49620234966278076, 0.01621869020164013, -0.12467259913682938, -0.015623463317751884, 0.9936778545379639, -0.052601467818021774, -0.22775840759277344, 1.477294921875, 1.54248046875, 0.28521728515625, 1.49267578125
17959, -1.7081005573272705, 2.4677929878234863, 4.8276753425598145, -0.0358642153441906, 0.02027670480310917, -8.683683395385742, -0.18483133614063263, 0.10485245287418365, -1.069607138633728, -0.7695176005363464, -1.0156886577606201, 0.10531412065029144, -1.689720781526978, -2.6441006395995146, 10.46975008964794, 9362.0, 30146.0, 35388.0, 9362.0, 8.350414276123047, 0.14760351181030273, 0.1868627518415451, 0.4132699966430664, -0.12134756147861481, -0.01781257428228855, 0.9947873950004578, -0.052601467818021774, -0.22775840759277344, 1.477294921875, 1.54248046875, 0.28521728515625, 1.491943359375
17979, -1.7080641984939575, 2.47090482711792, 4.830051898956299, -0.03964945301413536, 0.02242465503513813, -8.705087661743164, -0.19369545578956604, 0.10994376987218857, -1.0707969665527344, -0.7694212198257446, -1.0156445503234863, 0.10546001046895981, -1.7590965690625089, -2.558481880813332, 10.554541247727874, 9362.0, 30146.0, 35388.0, 9362.0, 8.350414276123047, -0.2079482525587082, -0.05819070339202881, 0.2547716498374939, -0.1210390105843544, -0.019620703533291817, 0.9959695935249329, -0.052601467818021774, -0.22775840759277344, 1.477294921875, 1.571044921875, 0.349578857421875, 1.4912109375
17999, -1.71140456199646, 2.474925994873047, 4.835732460021973, -0.04361201822757721, 0.024674393236637115, -8.726517677307129, -0.202562153339386, 0.11503144353628159, -1.072231411933899, -0.769482433795929, -1.015670895576477, 0.10531062632799149, -1.7168583713238885, -2.6513463639147687, 10.471829897390071, 9362.0, 30146.0, 35388.0, 9362.0, 8.350414276123047, 0.27866804599761963, -0.41840675473213196, -0.21870477497577667, -0.12002214044332504, -0.01674921065568924, 0.993108868598938, -0.052601467818021774, -0.22775840759277344, 1.477294921875, 1.3857421875, 0.0280914306640625, 1.4912109375
18019, -1.7110345363616943, 2.4819743633270264, 4.83876371383667, -0.04565981775522232, 0.025837432593107224, -8.73724365234375, -0.2069980800151825, 0.1175764873623848, -1.0730302333831787, -0.7695361971855164, -1.0157102346420288, 0.10529045760631561, -1.6978801104338996, -2.634207760023912, 10.48357987020529, 9362.0, 30146.0, 35388.0, 9362.0, 8.350414276123047, 0.025690050795674324, -0.03283706679940224, 0.1435624212026596, -0.11966349929571152, -0.020345525816082954, 0.9924699068069458, -0.052601467818021774, -0.22775840759277344, 1.477294921875, 1.152099609375, 0.7223052978515625, 1.4912109375
18059, -1.7079328298568726, 2.492558240890503, 4.837887287139893, -0.05206962302327156, 0.029479075223207474, -8.769474029541016, -0.2203284054994583, 0.12519928812980652, -1.075692892074585, -0.7695427536964417, -1.0157169103622437, 0.10525164008140564, -1.715703532211288, -2.6650453309400746, 10.48381806580244, 9362.0, 30146.0, 35388.0, 9362.0, 8.350414276123047, 0.152391716837883, -0.11138508468866348, -0.17807845771312714, -0.12003854662179947, -0.01976640895009041, 0.9931166172027588, -0.052601467818021774, -0.22775840759277344, 1.477294921875, 1.571044921875, 0.349578857421875, 1.493408203125
18079, -1.7062383890151978, 2.4947874546051025, 4.832652568817139, -0.05206962302327156, 0.029479075223207474, -8.769474029541016, -0.2203284054994583, 0.12519928812980652, -1.075692892074585, -0.7695482969284058, -1.01571786403656, 0.10524283349514008, -1.7190345966824159, -2.6483132884455642, 10.504882790442338, 9362.0, 30146.0, 35388.0, 9362.0, 8.350414276123047, 0.10329233855009079, -0.21602584421634674, -0.6588718295097351, -0.11840052902698517, -0.01950673945248127, 0.9929676055908203, -0.052601467818021774, -0.22775840759277344, 1.477294921875, 1.541748046875, 0.2835540771484375, 1.49267578125
18099, -1.7019011974334717, 2.4993391036987305, 4.830200672149658, -0.0636436939239502, 0.03605630248785019, -8.82336139678955, -0.24264632165431976, 0.13788455724716187, -1.079728364944458, -0.7694507241249084, -1.0156763792037964, 0.10547126084566116, -1.746178604157969, -2.5540804650044606, 10.57735472007056, 9362.0, 30146.0, 35388.0, 9362.0, 8.350414276123047, 0.12802593410015106, -0.15621601045131683, -0.5117071270942688, -0.11675296723842621, -0.01716238632798195, 0.9919629096984863, -0.052601467818021774, -0.22775840759277344, 1.477294921875, 1.57177734375, 0.3512115478515625, 1.496337890625
18139, -1.6948953866958618, 2.4943716526031494, 4.825634002685547, -0.073707215487957, 0.041773729026317596, -8.866617202758789, -0.2605302929878235, 0.14798064529895782, -1.0830204486846924, -0.7694800496101379, -1.0156723260879517, 0.10543636977672577, -1.7571130449863166, -2.555326343249277, 10.572679744069541, 9362.0, 30146.0, 35388.0, 9362.0, 8.350414276123047, 0.15934349596500397, -0.023159131407737732, -0.25286665558815, -0.12007923424243927, -0.016452018171548843, 0.9923081994056702, -0.052601467818021774, -0.22775840759277344, 1.477294921875, 1.5673828125, 0.3411102294921875, 1.493408203125
18159, -1.6928917169570923, 2.49245023727417, 4.823099613189697, -0.073707215487957, 0.041773729026317596, -8.866617202758789, -0.2605302929878235, 0.14798064529895782, -1.0830204486846924, -0.7695250511169434, -1.0157183408737183, 0.10525726526975632, -1.7093119397381298, -2.660843135455906, 10.48880860474384, 9362.0, 30146.0, 35388.0, 9362.0, 8.350414276123047, 0.11373674124479294, 0.7828547358512878, 0.7009934782981873, -0.12007923424243927, -0.016452018171548843, 0.9923081994056702, -0.052601467818021774, -0.22775840759277344, 1.477294921875, 1.569580078125, 0.3462371826171875, 1.494140625
18179, -1.6927173137664795, 2.4839632511138916, 4.82466459274292, -0.0844852477312088, 0.04789390414953232, -8.910012245178223, -0.27836766839027405, 0.15802499651908875, -1.0867177248001099, -0.7695215940475464, -1.0157229900360107, 0.10528959333896637, -1.7058224042689283, -2.6457978528796957, 10.504681347665201, 9362.0, 30146.0, 35388.0, 9362.0, 8.350414276123047, -0.18017490208148956, 0.0677296593785286, 0.16454941034317017, -0.1204928606748581, -0.017505710944533348, 0.994737446308136, -0.052601467818021774, -0.22775840759277344, 1.477294921875, 1.446533203125, 0.09930419921875, 1.49560546875
18199, -1.6957165002822876, 2.4854395389556885, 4.827451705932617, -0.0901416465640068, 0.051104675978422165, -8.931761741638184, -0.28727418184280396, 0.1630544364452362, -1.0881885290145874, -0.7694950103759766, -1.0157195329666138, 0.1052575334906578, -1.7205986239369273, -2.644971407423583, 10.492652846566605, 9362.0, 30146.0, 35388.0, 9362.0, 8.350414276123047, 0.06340673565864563, 0.24834966659545898, -0.06721559911966324, -0.11924370378255844, -0.016276350244879723, 0.991774320602417, -0.052601467818021774, -0.22775840759277344, 1.477294921875, 1.63623046875, 0.504730224609375, 1.5
18219, -1.697685956954956, 2.482797384262085, 4.829367160797119, -0.09895995259284973, 0.0561094731092453, -8.964446067810059, -0.3006146252155304, 0.1706010103225708, -1.0907167196273804, -0.7694963216781616, -1.0157008171081543, 0.10525383055210114, -1.7175714633839647, -2.6521282528965457, 10.468638115320532, 9362.0, 30146.0, 35388.0, 9362.0, 8.350414276123047, -0.07002135366201401, 0.35216137766838074, 0.40428873896598816, -0.12016215920448303, -0.018621880561113358, 0.9935495257377625, -0.052601467818021774, -0.22775840759277344, 1.477294921875, 1.63623046875, 0.504730224609375, 1.493408203125
18239, -1.7019920349121094, 2.484140634536743, 4.835204124450684, -0.09895995259284973, 0.0561094731092453, -8.964446067810059, -0.3006146252155304, 0.1706010103225708, -1.0907167196273804, -0.7695030570030212, -1.015697717666626, 0.10526134073734283, -1.7087284456319354, -2.646603844119227, 10.47048536560387, 9362.0, 30146.0, 35388.0, 9362.0, 8.350414276123047, -0.27397748827934265, -0.3421846032142639, 0.2666212320327759, -0.12090084701776505, -0.018636642023921013, 0.9939208030700684, -0.052601467818021774, -0.22775840759277344, 1.477294921875, 1.642822265625, 0.5209503173828125, 1.49853515625
18259, -1.7049174308776855, 2.486316680908203, 4.840784072875977, -0.09895995259284973, 0.0561094731092453, -8.964446067810059, -0.3006146252155304, 0.1706010103225708, -1.0907167196273804, -0.7695056796073914, -1.0157233476638794, 0.10528403520584106, -1.7076602875021496, -2.6236337054804153, 10.484099110492291, 9362.0, 30146.0, 35388.0, 9362.0, 8.350414276123047, -0.18887001276016235, -0.4348134696483612, 0.1575261801481247, -0.12073526531457901, -0.021006502211093903, 0.9934091567993164, -0.0409298837184906, -0.04855918884277344, 1.491943359375, 1.642822265625, 0.5209503173828125, 1.49267578125
18279, -1.7074837684631348, 2.490741491317749, 4.843173980712891, -0.11454689502716064, 0.0649552047252655, -9.01907730102539, -0.3228724002838135, 0.18323932588100433, -1.0945874452590942, -0.7693842053413391, -1.0156410932540894, 0.10543635487556458, -1.7550433427408898, -2.550933812846864, 10.54076798719304, 9362.0, 30146.0, 35388.0, 9362.0, 8.350414276123047, -0.07778012007474899, 0.20135150849819183, -0.07483881711959839, -0.12049774825572968, -0.01855708472430706, 0.9938782453536987, -0.0409298837184906, -0.04855918884277344, 1.491943359375, 1.29931640625, 0.0500640869140625, 1.50146484375
18299, -1.7061673402786255, 2.4917726516723633, 4.8424177169799805, -0.11454689502716064, 0.0649552047252655, -9.01907730102539, -0.3228724002838135, 0.18323932588100433, -1.0945874452590942, -0.7694202661514282, -1.0156394243240356, 0.10544541478157043, -1.7533301960120882, -2.5392607477020874, 10.531637981943076, 9362.0, 30146.0, 35388.0, 9362.0, 8.350414276123047, 0.18091334402561188, -0.002002309076488018, 0.2073991298675537, -0.12188930809497833, -0.018011661246418953, 0.9951278567314148, -0.0409298837184906, -0.04855918884277344, 1.491943359375, 1.440673828125, 0.090423583984375, 1.49560546875
18319, -1.70407235622406, 2.4919888973236084, 4.843050479888916, -0.11454689502716064, 0.0649552047252655, -9.01907730102539, -0.3228724002838135, 0.18323932588100433, -1.0945874452590942, -0.7694807052612305, -1.015654444694519, 0.10531558841466904, -1.6930633440023173, -2.6576353766767795, 10.424142379309941, 9362.0, 30146.0, 35388.0, 9362.0, 8.350414276123047, -0.040954042226076126, -0.6954050064086914, -0.5447293519973755, -0.12086083739995956, -0.017729464918375015, 0.9927541613578796, -0.0409298837184906, -0.04855918884277344, 1.491943359375, 1.58642578125, 0.3851776123046875, 1.49560546875
18339, -1.7018346786499023, 2.4954617023468018, 4.836999416351318, -0.13472242653369904, 0.07640571147203445, -9.084894180297852, -0.349653422832489, 0.19844070076942444, -1.0992627143859863, -0.7694060206413269, -1.015611171722412, 0.10552529990673065, -1.751971445601045, -2.5354376038001476, 10.538246554136569, 9362.0, 30146.0, 35388.0, 9362.0, 8.350414276123047, -0.03227511793375015, -0.4747522473335266, -0.23674972355365753, -0.12189320474863052, -0.020193086937069893, 0.993325412273407, -0.0409298837184906, -0.04855918884277344, 1.491943359375, 1.152099609375, 0.7223052978515625, 1.49560546875
18359, -1.698767900466919, 2.4990453720092773, 4.832986831665039, -0.14541329443454742, 0.08247269690036774, -9.117907524108887, -0.3630756437778473, 0.20602306723594666, -1.1015167236328125, -0.7694810032844543, -1.0156759023666382, 0.10530950129032135, -1.6985516631482718, -2.661881058916663, 10.438016976312502, 9362.0, 30146.0, 35388.0, 9362.0, 8.350414276123047, 0.022595876827836037, 0.08214922249317169, -0.1584278643131256, -0.12121540307998657, -0.017560850828886032, 0.9913547039031982, -0.0409298837184906, -0.04855918884277344, 1.491943359375, 1.5703125, 0.34783935546875, 1.493408203125
18379, -1.6935607194900513, 2.499437093734741, 4.824112415313721, -0.14541329443454742, 0.08247269690036774, -9.117907524108887, -0.3630756437778473, 0.20602306723594666, -1.1015167236328125, -0.7695239782333374, -1.0156583786010742, 0.10527624934911728, -1.688452816242762, -2.6507953793303045, 10.423028076818632, 9362.0, 30146.0, 35388.0, 9362.0, 8.350414276123047, 0.30180564522743225, -0.18286767601966858, -0.32548001408576965, -0.11876101046800613, -0.018605893477797508, 0.9929934144020081, -0.0409298837184906, -0.04855918884277344, 1.491943359375, 1.318359375, 0.028656005859375, 1.496337890625
18399, -1.6887290477752686, 2.502626895904541, 4.814919948577881, -0.1602938175201416, 0.0909147709608078, -9.162041664123535, -0.38095906376838684, 0.21607479453086853, -1.1050359010696411, -0.7694833874702454, -1.0156710147857666, 0.10534552484750748, -1.6931114402585936, -2.6253131716243274, 10.442539260022201, 9362.0, 30146.0, 35388.0, 9362.0, 8.350414276123047, 0.09586770087480545, 0.15449786186218262, -0.3496411442756653, -0.12140848487615585, -0.01706796884536743, 0.9930339455604553, -0.0409298837184906, -0.04855918884277344, 1.491943359375, 1.58935546875, 0.3920440673828125, 1.49267578125
18419, -1.6831152439117432, 2.5032413005828857, 4.809115409851074, -0.16800253093242645, 0.09528633207082748, -9.184158325195312, -0.38990890979766846, 0.2210773527622223, -1.1067556142807007, -0.769528865814209, -1.0156947374343872, 0.10524681955575943, -1.6761947815527212, -2.651586790202515, 10.431070705483922, 9362.0, 30146.0, 35388.0, 9362.0, 8.350414276123047, 0.20460140705108643, 0.01473394874483347, -0.2878383696079254, -0.12035840004682541, -0.016084225848317146, 0.9960652589797974, -0.0409298837184906, -0.04855918884277344, 1.491943359375, 1.157958984375, 0.6731719970703125, 1.49267578125
18439, -1.6789259910583496, 2.502434015274048, 4.8052825927734375, -0.16800253093242645, 0.09528633207082748, -9.184158325195312, -0.38990890979766846, 0.2210773527622223, -1.1067556142807007, -0.7694064974784851, -1.0156396627426147, 0.10550293326377869, -1.7413887264007313, -2.5271386070365907, 10.530890060838349, 9362.0, 30146.0, 35388.0, 9362.0, 8.350414276123047, 0.26553958654403687, -0.09667451679706573, -0.12038698047399521, -0.12005104124546051, -0.017231246456503868, 0.9901317954063416, -0.0409298837184906, -0.04855918884277344, 1.491943359375, 1.573974609375, 0.35626220703125, 1.491943359375
18469, -1.6750596761703491, 2.5009732246398926, 4.804184436798096, -0.18395735323429108, 0.10432896018028259, -9.228487014770508, -0.4078146815299988, 0.23103655874729156, -1.1100493669509888, -0.7694846987724304, -1.015677571296692, 0.10532639175653458, -1.6824241963910296, -2.6442240235140844, 10.431280646140383, 9362.0, 30146.0, 35388.0, 9362.0, 8.350414276123047, 0.12917396426200867, 0.3650664687156677, -0.059054575860500336, -0.1202407032251358, -0.01636349782347679, 0.9933547973632812, -0.0409298837184906, -0.04855918884277344, 1.491943359375, 1.491943359375, 0.179656982421875, 1.4912109375
18479, -1.6742428541183472, 2.498173475265503, 4.803764343261719, -0.18395735323429108, 0.10432896018028259, -9.228487014770508, -0.4078146815299988, 0.23103655874729156, -1.1100493669509888, -0.7694881558418274, -1.0157040357589722, 0.1053096130490303, -1.6839473909743943, -2.636096834268841, 10.437951020550953, 9362.0, 30146.0, 35388.0, 9362.0, 8.350414276123047, -0.12156835943460464, 0.004064688924700022, 0.21169307827949524, -0.1202407032251358, -0.01636349782347679, 0.9933547973632812, -0.0409298837184906, -0.04855918884277344, 1.491943359375, 1.552001953125, 0.3063201904296875, 1.4912109375
18499, -1.677101731300354, 2.4963090419769287, 4.80907678604126, -0.20062771439552307, 0.11376899480819702, -9.272954940795898, -0.42569392919540405, 0.2409621924161911, -1.1134138107299805, -0.7694887518882751, -1.0157090425491333, 0.10529616475105286, -1.6911204877651431, -2.638272270053477, 10.434535413578207, 9362.0, 30146.0, 35388.0, 9362.0, 8.350414276123047, -0.3001764118671417, -0.05427543818950653, 0.5642044544219971, -0.11939466744661331, -0.01719670556485653, 0.9945275783538818, -0.0409298837184906, -0.04855918884277344, 1.491943359375, 1.5908203125, 0.395538330078125, 1.4912109375
18519, -1.6815167665481567, 2.4929912090301514, 4.816898345947266, -0.20490700006484985, 0.11619105935096741, -9.284092903137207, -0.4301634430885315, 0.24344950914382935, -1.114141821861267, -0.7694882154464722, -1.0157091617584229, 0.10529870539903641, -1.6781648915641665, -2.6505514749416363, 10.42945309075834, 9362.0, 30146.0, 35388.0, 9362.0, 8.350414276123047, -0.027594827115535736, -0.03673228621482849, -0.0650901347398758, -0.12097737938165665, -0.01957225613296032, 0.9913972616195679, -0.0409298837184906, -0.04855918884277344, 1.491943359375, 1.169677734375, 0.5817718505859375, 1.500732421875
18529, -1.6831105947494507, 2.493023633956909, 4.816293239593506, -0.20490700006484985, 0.11619105935096741, -9.284092903137207, -0.4301634430885315, 0.24344950914382935, -1.114141821861267, -0.7694598436355591, -1.0156880617141724, 0.10529492795467377, -1.6977761671938483, -2.6461302547033654, 10.439013771159594, 9362.0, 30146.0, 35388.0, 9362.0, 8.350414276123047, -0.14511053264141083, 0.33366528153419495, 0.06708481907844543, -0.11925879865884781, -0.018842536956071854, 0.9928915500640869, -0.0409298837184906, -0.04855918884277344, 1.491943359375, 1.169677734375, 0.5817718505859375, 1.49560546875
18559, -1.6902762651443481, 2.4972167015075684, 4.815334320068359, -0.2269725650548935, 0.12867499887943268, -9.339910507202148, -0.4524586498737335, 0.25592315196990967, -1.1185351610183716, -0.7694653868675232, -1.0156875848770142, 0.10528520494699478, -1.6950294629718479, -2.6673889589836506, 10.428862828104299, 9362.0, 30146.0, 35388.0, 9362.0, 8.350414276123047, 0.04715797305107117, 0.029822872951626778, 0.019975462928414345, -0.11994269490242004, -0.019144706428050995, 0.991458535194397, -0.0409298837184906, -0.04855918884277344, 1.491943359375, 1.56298828125, 0.3311767578125, 1.49560546875
18579, -1.693135142326355, 2.5011489391326904, 4.816840171813965, -0.23151946067810059, 0.13124674558639526, -9.35110092163086, -0.45692116022109985, 0.25842684507369995, -1.1194900274276733, -0.7694845795631409, -1.0156878232955933, 0.1053323820233345, -1.7113104309238383, -2.6419505161352674, 10.446996521546945, 9362.0, 30146.0, 35388.0, 9362.0, 8.350414276123047, 0.05889302119612694, -0.19858086109161377, 0.1151876151561737, -0.12008580565452576, -0.019178874790668488, 0.9950281381607056, -0.0409298837184906, -0.04855918884277344, 1.491943359375, 1.43994140625, 0.089324951171875, 1.48974609375
18599, -1.6957226991653442, 2.5088553428649902, 4.824295997619629, -0.24074730277061462, 0.13646546006202698, -9.373506546020508, -0.4658720791339874, 0.26344913244247437, -1.1210237741470337, -0.7693920135498047, -1.0156394243240356, 0.10549823194742203, -1.7266060177864888, -2.550798048842921, 10.512437354360562, 9362.0, 30146.0, 35388.0, 9362.0, 8.350414276123047, -0.24014069139957428, -0.3717806041240692, -0.30513691902160645, -0.1172383576631546, -0.01713315024971962, 0.9964829683303833, -0.0409298837184906, -0.04855918884277344, 1.491943359375, 1.47802734375, 0.1532745361328125, 1.48974609375
18609, -1.6971596479415894, 2.5132064819335938, 4.825570583343506, -0.24074730277061462, 0.13646546006202698, -9.373506546020508, -0.4658720791339874, 0.26344913244247437, -1.1210237741470337, -0.7694591879844666, -1.0156792402267456, 0.10533025115728378, -1.6980852568318159, -2.648322691081262, 10.431657409353328, 9362.0, 30146.0, 35388.0, 9362.0, 8.350414276123047, -0.14813722670078278, -0.6099610924720764, -0.03469414636492729, -0.1172383576631546, -0.01713315024971962, 0.9964829683303833, -0.0409298837184906, -0.04855918884277344, 1.491943359375, 1.50146484375, 0.1985626220703125, 1.494140625
18639, -1.697002649307251, 2.5142805576324463, 4.830489635467529, -0.26460328698158264, 0.14995278418064117, -9.429634094238281, -0.4883820414543152, 0.2760416567325592, -1.1243162155151367, -0.7694151997566223, -1.0156159400939941, 0.10549408197402954, -1.7355388294070202, -2.53844948517704, 10.515816222554383, 9362.0, 30146.0, 35388.0, 9362.0, 8.350414276123047, 0.09259349852800369, 0.5484129190444946, 0.2851187586784363, -0.12238696217536926, -0.01729656010866165, 0.9930964708328247, -0.0409298837184906, -0.04855918884277344, 1.491943359375, 1.493408203125, 0.1825714111328125, 1.496337890625
18659, -1.6961251497268677, 2.5062382221221924, 4.834352970123291, -0.27446091175079346, 0.15552392601966858, -9.452136993408203, -0.49736541509628296, 0.28106704354286194, -1.1261268854141235, -0.7694812417030334, -1.0156760215759277, 0.10533663630485535, -1.7022582600464404, -2.6372819398778518, 10.44883788822693, 9362.0, 30146.0, 35388.0, 9362.0, 8.350414276123047, 0.2654997706413269, 0.546692967414856, -0.01936836913228035, -0.11996572464704514, -0.016616428270936012, 0.9945787191390991, -0.0409298837184906, -0.04855918884277344, 1.491943359375, 1.131591796875, 0.912628173828125, 1.496337890625
18669, -1.6946449279785156, 2.5019798278808594, 4.835321426391602, -0.2794570028781891, 0.15834717452526093, -9.463401794433594, -0.5018532276153564, 0.2835823893547058, -1.1269038915634155, -0.7694687843322754, -1.0156680345535278, 0.10527633130550385, -1.7053794651259955, -2.678771855991357, 10.438270859525455, 9362.0, 30146.0, 35388.0, 9362.0, 8.350414276123047, 0.003662163158878684, 0.5825652480125427, 0.6115010380744934, -0.11996572464704514, -0.016616428270936012, 0.9945787191390991, -0.0409298837184906, -0.04855918884277344, 1.491943359375, 1.60693359375, 0.4335479736328125, 1.494140625
18679, -1.6948636770248413, 2.4975545406341553, 4.839840412139893, -0.2794570028781891, 0.15834717452526093, -9.463401794433594, -0.5018532276153564, 0.2835823893547058, -1.1269038915634155, -0.7693706154823303, -1.0156235694885254, 0.10548806935548782, -1.7505874768368774, -2.56965014992511, 10.52169882607359, 9362.0, 30146.0, 35388.0, 9362.0, 8.350414276123047, 0.043835628777742386, 0.3528299033641815, 0.1086530014872551, -0.11723607778549194, -0.017718538641929626, 0.9936085343360901, -0.0409298837184906, -0.04855918884277344, 1.491943359375, 1.53515625, 0.2692413330078125, 1.494140625
18719, -1.6912593841552734, 2.4838147163391113, 4.85145378112793, -0.305109441280365, 0.172840878367424, -9.519828796386719, -0.5241918563842773, 0.29614704847335815, -1.1307218074798584, -0.7694643139839172, -1.015665054321289, 0.10528754442930222, -1.7147686388008605, -2.650578098310092, 10.445122257201682, 9362.0, 30146.0, 35388.0, 9362.0, 8.350414276123047, -0.12623876333236694, 0.0968598797917366, 0.34174978733062744, -0.12092592567205429, -0.014731488190591335, 0.9930227994918823, -0.0409298837184906, -0.04855918884277344, 1.491943359375, 1.562255859375, 0.329437255859375, 1.494140625
18729, -1.6917140483856201, 2.4817004203796387, 4.8543925285339355, -0.31037360429763794, 0.1758148968219757, -9.531140327453613, -0.5286403894424438, 0.2986549735069275, -1.1315306425094604, -0.7693691253662109, -1.0156450271606445, 0.10550278425216675, -1.7348256886741495, -2.548821209088004, 10.522144248744139, 9362.0, 30146.0, 35388.0, 9362.0, 8.350414276123047, -0.0842256024479866, 0.48511144518852234, -0.07398476451635361, -0.1231217160820961, -0.014414504170417786, 0.9913845658302307, -0.0409298837184906, -0.04855918884277344, 1.491943359375, 1.5087890625, 0.21337890625, 1.494140625
18739, -1.6909751892089844, 2.476503372192383, 4.853005886077881, -0.31037360429763794, 0.1758148968219757, -9.531140327453613, -0.5286403894424438, 0.2986549735069275, -1.1315306425094604, -0.7694556713104248, -1.015681505203247, 0.10531356930732727, -1.7044905334992586, -2.645803839271508, 10.440877038294442, 9362.0, 30146.0, 35388.0, 9362.0, 8.350414276123047, -0.1754702776670456, 0.18958693742752075, 0.1053464487195015, -0.12254822999238968, -0.014614385552704334, 0.9941858053207397, -0.0409298837184906, -0.04855918884277344, 1.491943359375, 1.5087890625, 0.21337890625, 1.494140625
18759, -1.6912139654159546, 2.475548267364502, 4.851234436035156, -0.3210351765155792, 0.18183812499046326, -9.553789138793945, -0.5375171303749084, 0.3036702871322632, -1.133238673210144, -0.7694268226623535, -1.015668272972107, 0.10533992201089859, -1.6995097358496192, -2.6392863446540957, 10.425456837948593, 9362.0, 30146.0, 35388.0, 9362.0, 8.350414276123047, 0.020062772557139397, 0.2724601924419403, -0.4560372531414032, -0.12246798723936081, -0.016916314139962196, 0.9943308234214783, -0.0409298837184906, -0.04855918884277344, 1.491943359375, 1.434814453125, 0.081787109375, 1.494140625
18799, -1.6885465383529663, 2.4830081462860107, 4.8346171379089355, -0.34846580028533936, 0.1973356306552887, -9.610538482666016, -0.5596908330917358, 0.31621140241622925, -1.1372697353363037, -0.7693077325820923, -1.0156115293502808, 0.1054898351430893, -1.7781236697715694, -2.536790314602854, 10.497390656960793, 9362.0, 30146.0, 35388.0, 9362.0, 8.350414276123047, -0.22895775735378265, -0.08232907950878143, -0.5405901670455933, -0.1209971010684967, -0.018416553735733032, 0.9934196472167969, -0.0409298837184906, -0.04855918884277344, 1.491943359375, 1.1865234375, 0.4651947021484375, 1.497802734375
18819, -1.6882587671279907, 2.4901859760284424, 4.824418067932129, -0.35974857211112976, 0.20370997488498688, -9.633299827575684, -0.5685951113700867, 0.32122817635536194, -1.1386924982070923, -0.7693111300468445, -1.0156270265579224, 0.10550729185342789, -1.749093260042335, -2.510964167868707, 10.480490557122826, 9362.0, 30146.0, 35388.0, 9362.0, 8.350414276123047, -0.15019558370113373, 0.018651966005563736, -0.36255303025245667, -0.12060583382844925, -0.016494249925017357, 0.9957043528556824, -0.0409298837184906, -0.04855918884277344, 1.491943359375, 1.5791015625, 0.368133544921875, 1.497802734375
18839, -1.6904163360595703, 2.492908239364624, 4.817078590393066, -0.36545678973197937, 0.20693477988243103, -9.64469051361084, -0.5730510950088501, 0.32373201847076416, -1.139532208442688, -0.7692967653274536, -1.0156137943267822, 0.10557077080011368, -1.7495582346209237, -2.5005516419316223, 10.46961776908469, 9362.0, 30146.0, 35388.0, 9362.0, 8.350414276123047, -0.1424732208251953, -0.14541839063167572, -0.19626007974147797, -0.11915800720453262, -0.018994618207216263, 0.9949103593826294, -0.0409298837184906, -0.04855918884277344, 1.491943359375, 1.56591796875, 0.337738037109375, 1.49560546875
18879, -1.6940758228302002, 2.504699945449829, 4.811520099639893, -0.3887351453304291, 0.22008433938026428, -9.690349578857422, -0.590886652469635, 0.33375611901283264, -1.143256425857544, -0.7694441676139832, -1.0156596899032593, 0.10534122586250305, -1.698482912076635, -2.6667395604089563, 10.416445779986606, 9362.0, 30146.0, 35388.0, 9362.0, 8.350414276123047, -0.039099447429180145, 0.09851590543985367, 0.07846681773662567, -0.11549355089664459, -0.01758374273777008, 0.9962607622146606, -0.0409298837184906, -0.04855918884277344, 1.491943359375, 1.5732421875, 0.354736328125, 1.491943359375
18899, -1.6962461471557617, 2.505858898162842, 4.815155506134033, -0.3887351453304291, 0.22008433938026428, -9.690349578857422, -0.590886652469635, 0.33375611901283264, -1.143256425857544, -0.769524872303009, -1.0157610177993774, 0.1055690124630928, -1.6298106558125596, -2.713017826082506, 10.505034822892211, 9362.0, 30146.0, 35388.0, 9362.0, 8.350414276123047, 0.14763472974300385, 0.05328008159995079, 0.25016161799430847, -0.11948010325431824, -0.01842363364994526, 0.9917741417884827, -0.0409298837184906, -0.04855918884277344, 1.491943359375, 1.553466796875, 0.309661865234375, 1.493408203125
18919, -1.695629358291626, 2.5017776489257812, 4.819153785705566, -0.41272950172424316, 0.23363584280014038, -9.736136436462402, -0.6088213324546814, 0.34381306171417236, -1.1464139223098755, -0.7694497108459473, -1.0156240463256836, 0.10515400022268295, -1.7098378881040763, -2.6046626738726957, 10.361320083967435, 9362.0, 30146.0, 35388.0, 9362.0, 8.350414276123047, 0.02929718978703022, 0.3251326382160187, 0.3552981913089752, -0.11724135279655457, -0.01895514503121376, 0.993948757648468, -0.0409298837184906, -0.04855918884277344, 1.491943359375, 1.298583984375, 0.051055908203125, 1.493408203125
18959, -1.6941730976104736, 2.489164113998413, 4.838926315307617, -0.4374408423900604, 0.24758966267108917, -9.782054901123047, -0.626733124256134, 0.3538728952407837, -1.1496248245239258, -0.7694015502929688, -1.0156234502792358, 0.1052129715681076, -1.6957903131012748, -2.6308714022048036, 10.33905416397772, 9362.0, 30146.0, 35388.0, 9362.0, 8.350414276123047, 0.08012472093105316, 0.2814343273639679, 0.4362950325012207, -0.11905604600906372, -0.017934858798980713, 0.9930362701416016, -0.0409298837184906, -0.04855918884277344, 1.491943359375, 1.573974609375, 0.35626220703125, 1.491943359375
18979, -1.6940999031066895, 2.4844841957092285, 4.8505539894104, -0.45644375681877136, 0.25831907987594604, -9.81657600402832, -0.6401183605194092, 0.3614177703857422, -1.1518126726150513, -0.7694075703620911, -1.015571117401123, 0.10518327355384827, -1.7178839713996563, -2.6081189432238716, 10.332645526751117, 9362.0, 30146.0, 35388.0, 9362.0, 8.350414276123047, 0.0384371243417263, 0.20832914113998413, -0.10775794088840485, -0.12130909413099289, -0.017979715019464493, 0.9942116737365723, -0.0409298837184906, -0.04855918884277344, 1.491943359375, 1.587158203125, 0.3869171142578125, 1.499267578125
18999, -1.695103645324707, 2.479588747024536, 4.855226039886475, -0.46933525800704956, 0.26559776067733765, -9.839625358581543, -0.6490296125411987, 0.36645054817199707, -1.153120994567871, -0.7693611979484558, -1.015600562095642, 0.10524772107601166, -1.7056176027902559, -2.6057772738771803, 10.320244954214195, 9362.0, 30146.0, 35388.0, 9362.0, 8.350414276123047, 0.11334855109453201, -0.22769135236740112, 0.1747955083847046, -0.12347466498613358, -0.01751900278031826, 0.9938523769378662, -0.0409298837184906, -0.04855918884277344, 1.491943359375, 1.59375, 0.4024658203125, 1.49267578125
19039, -1.697510004043579, 2.478163957595825, 4.857807636260986, -0.4890061616897583, 0.2767045199871063, -9.874252319335938, -0.6623642444610596, 0.3739987313747406, -1.1553995609283447, -0.7693334817886353, -1.0155789852142334, 0.1052713617682457, -1.713865171909456, -2.609497231534931, 10.312877723960165, 9362.0, 30146.0, 35388.0, 9362.0, 8.350414276123047, -0.004759201314300299, 0.0017703442135825753, -0.5588241815567017, -0.12174984067678452, -0.017506029456853867, 0.9922288060188293, -0.0409298837184906, -0.04855918884277344, 1.491943359375, 1.552734375, 0.3080596923828125, 1.496337890625
