timeTick, roll, pitch, yaw, stateX, stateY, stateZ, stateVX, stateVY, stateVZ, otX0, otY0, otZ0, otRoll0, otPitch0, otYaw0, left wing, pitch motor, yaw motor, right wing, voltage, roll rate, pitch rate, yaw rate, A_x, A_y, A_z, current, i_raw, v_raw, airflow_voltage, airflow_speed, pot_Pitch
48344, -8.591094970703125, -1.8791531324386597, -2.383270263671875, 0, 0, 0, 0, 0, 0, -0.622668445110321, -0.9899913668632507, 0.10360727459192276, -1.6664442719972274, -1.5317966863130152, 0.743097247990977, 0, 0, 0, 0, 0, 0, 0, 0, 0, 0, 0, 0, 0, 0, 0, 0, 0
48354, -8.592209815979004, -1.8792004585266113, -2.3836076259613037, -0.0014493850758299232, -0.005539825651794672, -46.04093551635742, -0.06869903206825256, -0.26256510615348816, -1.950799822807312, -0.6227470636367798, -0.98995041847229, 0.1035849004983902, -1.6740213146975913, -1.4646399598595679, 0.7965235184135199, 9362.0, 30146.0, 35388.0, 9362.0, 0, 0.12350542843341827, 0.1679455041885376, 0.08400198072195053, 0, 0, 0, 0, 0, 0, 0, 0, 0
48364, -8.591171264648438, -1.879220962524414, -2.383774995803833, -0.0021175406873226166, -0.008093321695923805, -46.06045150756836, -0.06493198871612549, -0.24813398718833923, -1.9524755477905273, -0.6226683259010315, -0.9899691343307495, 0.10359808802604675, -1.6686765988361265, -1.528835729507989, 0.7363529916609821, 9362.0, 30146.0, 35388.0, 9362.0, 0, 0.12070786952972412, 0.3254542052745819, -0.008176146075129509, -0.09345560520887375, -0.014588489197194576, 0.9956642389297485, 0, 0, 0, 1.41943359375, 0.0612945556640625, 0
48374, -8.590997695922852, -1.881027340888977, -2.383521795272827, -0.0027479943819344044, -0.01050238125026226, -46.07998275756836, -0.06115870177745819, -0.23367786407470703, -1.9539964199066162, -0.6226534247398376, -0.989974319934845, 0.10360612720251083, -1.663525791097829, -1.5314930131569895, 0.739587205746119, 9362.0, 30146.0, 35388.0, 9362.0, 0, 0.09029583632946014, -0.40297675132751465, -0.20700916647911072, -0.09540339559316635, -0.014970197342336178, 0.9955227971076965, 0, 0, 0, 1.2041015625, 0.3609771728515625, 1.499267578125
48384, -8.590476036071777, -1.8770840167999268, -2.3841683864593506, -0.0033407353330403566, -0.012766964733600616, -46.09952926635742, -0.057389602065086365, -0.21923892199993134, -1.9556204080581665, -0.6227039098739624, -0.9899636507034302, 0.10366208851337433, -1.658220577235447, -1.500384973296832, 0.7685260112337946, 9362.0, 30146.0, 35388.0, 9362.0, 0, -0.23789265751838684, -0.27499186992645264, 0.3298099935054779, -0.09460846334695816, -0.014869834296405315, 0.9937715530395508, 0, 0, 0, 1.575439453125, 0.3596649169921875, 1.499267578125
48394, -8.591475486755371, -1.8753637075424194, -2.3824942111968994, -0.003895780071616173, -0.014887198805809021, -46.11909484863281, -0.053619083017110825, -0.20480790734291077, -1.9572938680648804, -0.6226758360862732, -0.9899725317955017, 0.10359319299459457, -1.674133692481088, -1.525083385532696, 0.7378995922311995, 9362.0, 30146.0, 35388.0, 9362.0, 0, -0.3373623192310333, -0.32456067204475403, 0.19354647397994995, -0.09324388206005096, -0.013292892836034298, 0.9943543076515198, 0, 0, 0, 1.292724609375, 0.060089111328125, 1.49267578125
48404, -8.593326568603516, -1.873866081237793, -2.3813977241516113, -0.004413172602653503, -0.016863204538822174, -46.138675689697266, -0.04985983297228813, -0.19039322435855865, -1.9590733051300049, -0.6226610541343689, -0.9899907112121582, 0.10359793156385422, -1.6664493185967417, -1.5345870590779498, 0.7385703640961145, 9362.0, 30146.0, 35388.0, 9362.0, 0, -0.03277173265814781, 0.18502549827098846, -0.11588554829359055, -0.0924229696393013, -0.013449829071760178, 0.9957050681114197, 0, 0, 0, 1.640625, 0.5154571533203125, 1.49267578125
48414, -8.593291282653809, -1.8744046688079834, -2.3823082447052, -0.004892951808869839, -0.018694911152124405, -46.15827560424805, -0.046096280217170715, -0.1759481281042099, -1.9606618881225586, -0.6226637959480286, -0.9899876713752747, 0.10358299314975739, -1.66431272929798, -1.5374885394752482, 0.743730269385784, 9362.0, 30146.0, 35388.0, 9362.0, 0, 0.11433807015419006, 0.21810902655124664, -0.17506369948387146, -0.09205585718154907, -0.011751648969948292, 0.9968722462654114, 0, 0, 0, 1.18212890625, 0.49395751953125, 1.491943359375
48424, -8.59281063079834, -1.874438762664795, -2.3837573528289795, -0.0053350841626524925, -0.020382054150104523, -46.17789077758789, -0.04232994094491005, -0.1614806205034256, -1.9621227979660034, -0.622646152973175, -0.989978015422821, 0.10363331437110901, -1.666149353003046, -1.5250336372326672, 0.7368276238172887, 9362.0, 30146.0, 35388.0, 9362.0, 0, -0.026494475081562996, 0.07537977397441864, 0.011234050616621971, -0.09353772550821304, -0.01421621534973383, 0.9975569248199463, 0, 0, 0, 1.23046875, 0.235137939453125, 1.491943359375
48434, -8.592550277709961, -1.8753291368484497, -2.3831536769866943, -0.005739541724324226, -0.021924501284956932, -46.19751739501953, -0.03856119513511658, -0.14700894057750702, -1.9635545015335083, -0.6226614713668823, -0.9899669289588928, 0.10359298437833786, -1.662303661826096, -1.5397165281475793, 0.7491513156518127, 9362.0, 30146.0, 35388.0, 9362.0, 0, 0.13584113121032715, -0.23392806947231293, -0.14384452998638153, -0.09431389719247818, -0.013492579571902752, 0.9946435689926147, 0, 0, 0, 1.597412109375, 0.4110870361328125, 1.493408203125
48444, -8.59177017211914, -1.8735946416854858, -2.3838438987731934, -0.006106323562562466, -0.023322289809584618, -46.217159271240234, -0.0347953699529171, -0.1325487196445465, -1.965057373046875, -0.6226655840873718, -0.9899858236312866, 0.10360421240329742, -1.6625052937411224, -1.5290619907027008, 0.7450538997481045, 9362.0, 30146.0, 35388.0, 9362.0, 8.370248794555664, -0.026046600192785263, 0.10417997092008591, 0.033086419105529785, -0.09268578886985779, -0.012206974439322948, 0.9954536557197571, 0, 0, 0, 1.556396484375, 0.316192626953125, 1.493408203125
48454, -8.592157363891602, -1.8747799396514893, -2.384315252304077, -0.006435461342334747, -0.024575557559728622, -46.23681640625, -0.03103196993470192, -0.11810499429702759, -1.966666579246521, -0.6227378249168396, -0.9899492263793945, 0.10365341603755951, -1.6596269460389468, -1.475680161014708, 0.8185052437707186, 9362.0, 30146.0, 35388.0, 9362.0, 8.370248794555664, 0.3184982240200043, -0.3571428656578064, -0.09046861529350281, -0.09141960740089417, -0.014324142597615719, 0.9948182702064514, -0.04345943406224251, -0.07543754577636719, 1.48974609375, 1.193115234375, 0.424102783203125, 1.4912109375
48464, -8.590065956115723, -1.8726544380187988, -2.3856794834136963, -0.006726982071995735, -0.025684405118227005, -46.256492614746094, -0.0272720605134964, -0.10366465151309967, -1.968289852142334, -0.6226503252983093, -0.9899728894233704, 0.10358432680368423, -1.6660404459105869, -1.536135491656097, 0.7570251600620415, 9362.0, 30146.0, 35388.0, 9362.0, 8.370248794555664, -0.0410180501639843, -0.3408809304237366, -0.14305464923381805, -0.09145618230104446, -0.013292267918586731, 0.9956544041633606, -0.04345943406224251, -0.07543754577636719, 1.48974609375, 1.612060546875, 0.4459686279296875, 1.4912109375
48474, -8.589791297912598, -1.8688918352127075, -2.387312173843384, -0.006980887148529291, -0.02664882503449917, -46.27618408203125, -0.023508518934249878, -0.08921927213668823, -1.969882845878601, -0.6226579546928406, -0.9899998903274536, 0.10360872745513916, -1.66774509832692, -1.5362452580311583, 0.745048612143637, 9362.0, 30146.0, 35388.0, 9362.0, 8.370248794555664, 0.0823293998837471, 0.06329207867383957, -0.015863269567489624, -0.09295833855867386, -0.011325233615934849, 0.9954018592834473, -0.04345943406224251, -0.07543754577636719, 1.48974609375, 1.60693359375, 0.4335479736328125, 1.48974609375
48484, -8.588811874389648, -1.8687080144882202, -2.3877906799316406, -0.007197175174951553, -0.027468813583254814, -46.29589080810547, -0.019748544320464134, -0.07477866858243942, -1.9714840650558472, -0.6226948499679565, -0.9899701476097107, 0.10365094244480133, -1.652464065744397, -1.4951235401074712, 0.7950801369211121, 9362.0, 30146.0, 35388.0, 9362.0, 8.370248794555664, 4.2602459870977327e-07, -0.10787308216094971, -0.23674596846103668, -0.09375744313001633, -0.012253403663635254, 0.9980579614639282, -0.04345943406224251, -0.07543754577636719, 1.48974609375, 1.50439453125, 0.2044219970703125, 1.48974609375
48494, -8.589152336120605, -1.868035912513733, -2.3892688751220703, -0.007375858724117279, -0.028144266456365585, -46.31561279296875, -0.015988050028681755, -0.06031190976500511, -1.9729083776474, -0.6226944327354431, -0.9899578094482422, 0.10368519276380539, -1.654437361314654, -1.4928573766173372, 0.787392571491447, 9362.0, 30146.0, 35388.0, 9362.0, 8.370248794555664, 0.13148775696754456, 0.30267661809921265, -0.091640904545784, -0.0936824381351471, -0.012469295412302017, 0.9972106218338013, -0.04345943406224251, -0.07543754577636719, 1.48974609375, 1.6171875, 0.4583282470703125, 1.49267578125
48504, -8.588207244873047, -1.8707571029663086, -2.39024019241333, -0.007516928482800722, -0.02867501974105835, -46.335350036621094, -0.012225478887557983, -0.04583895578980446, -1.9742799997329712, -0.6226897835731506, -0.9899667501449585, 0.10367439687252045, -1.6559581359375632, -1.4957828627792367, 0.7830948058671329, 9362.0, 30146.0, 35388.0, 9362.0, 8.370248794555664, 0.026911845430731773, -0.139668270945549, -0.3412036597728729, -0.09413331747055054, -0.012904529459774494, 0.9932239651679993, -0.04345943406224251, -0.07543754577636719, 1.48974609375, 1.61572265625, 0.45465087890625, 1.49267578125
48514, -8.587835311889648, -1.869368076324463, -2.3920230865478516, -0.007620429620146751, -0.029061248525977135, -46.3551025390625, -0.008474595844745636, -0.03140677884221077, -1.9759272336959839, -0.6226534247398376, -0.9899770021438599, 0.10362011194229126, -1.6737539936576293, -1.5284605582932045, 0.7463622015735647, 9362.0, 30146.0, 35388.0, 9362.0, 8.370248794555664, 0.1969013810157776, 0.2624335289001465, -0.09095661342144012, -0.09327950328588486, -0.012632413767278194, 0.993026614189148, -0.04345943406224251, -0.07543754577636719, 1.48974609375, 1.55712890625, 0.31793212890625, 1.493408203125
48524, -8.586418151855469, -1.8710675239562988, -2.392327308654785, -0.007686442695558071, -0.029303334653377533, -46.37487030029297, -0.004727496765553951, -0.01701049506664276, -1.977802038192749, -0.6226571798324585, -0.9899808764457703, 0.10362961143255234, -1.6611433778147664, -1.5244543996717823, 0.7465353217990724, 9362.0, 30146.0, 35388.0, 9362.0, 8.370248794555664, -0.26227638125419617, 0.20953676104545593, 0.369752436876297, -0.09299982339143753, -0.013233349658548832, 0.9949949979782104, -0.04345943406224251, -0.07543754577636719, 1.48974609375, 1.423828125, 0.066802978515625, 1.493408203125
48534, -8.58737564086914, -1.8726680278778076, -2.3901383876800537, -0.0077149588614702225, -0.029401324689388275, -46.394657135009766, -0.0009756727959029377, -0.00258754868991673, -1.9794948101043701, -0.6226398348808289, -0.9899795651435852, 0.10360465943813324, -1.6669654002100147, -1.530838646875111, 0.7484262836229845, 9362.0, 30146.0, 35388.0, 9362.0, 8.370248794555664, -0.018980491906404495, -0.01291861291974783, -0.24949467182159424, -0.09121519327163696, -0.012268341146409512, 0.993370532989502, -0.04345943406224251, -0.07543754577636719, 1.48974609375, 1.556396484375, 0.316192626953125, 1.49853515625
48544, -8.588191986083984, -1.8730642795562744, -2.392082691192627, -0.007705947384238243, -0.029355116188526154, -46.414459228515625, 0.002777427202090621, 0.01182947214692831, -1.9812114238739014, -0.6226477026939392, -0.9899777173995972, 0.1036069318652153, -1.6606629805636337, -1.535371523468683, 0.7470348859676401, 9362.0, 30146.0, 35388.0, 9362.0, 8.370248794555664, 0.26021215319633484, 0.05110475793480873, -0.1384168565273285, -0.09099903702735901, -0.013124295510351658, 0.9955947995185852, -0.04345943406224251, -0.07543754577636719, 1.48974609375, 1.610595703125, 0.442352294921875, 1.49853515625
48554, -8.587769508361816, -1.8725839853286743, -2.3939061164855957, -0.007659373339265585, -0.029164651408791542, -46.43428039550781, 0.00653785141184926, 0.026263326406478882, -1.9828250408172607, -0.6226648688316345, -0.9899739027023315, 0.10359461605548859, -1.6567742081379149, -1.533154406523522, 0.748991786878275, 9362.0, 30146.0, 35388.0, 9362.0, 8.370248794555664, 0.15905477106571198, -0.2957231104373932, 0.0630604550242424, -0.09430497139692307, -0.013585954904556274, 0.9949204325675964, -0.06837739795446396, -0.2994365692138672, 1.471435546875, 1.6171875, 0.4583282470703125, 1.493408203125
48564, -8.58691692352295, -1.8697923421859741, -2.394726037979126, -0.0075751859694719315, -0.028829829767346382, -46.45411682128906, 0.010300136171281338, 0.04070105403661728, -1.9844207763671875, -0.6227060556411743, -0.9899536967277527, 0.10369335114955902, -1.6409075904431483, -1.4967415589554776, 0.7978796867823952, 9362.0, 30146.0, 35388.0, 9362.0, 8.370248794555664, -0.03557632118463516, 0.4709044098854065, 0.16154436767101288, -0.09373162686824799, -0.013105233199894428, 0.9954404830932617, -0.06837739795446396, -0.2994365692138672, 1.471435546875, 1.546875, 0.2949676513671875, 1.493408203125
48574, -8.58699893951416, -1.8715490102767944, -2.3938417434692383, -0.007453387603163719, -0.028350673615932465, -46.473968505859375, 0.014059855602681637, 0.05513021722435951, -1.9860683679580688, -0.6223862767219543, -0.9900581240653992, 0.10382693260908127, -1.643139799125951, -1.6562758690812132, 0.9306244962758626, 9362.0, 30146.0, 35388.0, 9362.0, 8.370248794555664, 0.12466999888420105, -0.11511688679456711, 0.2897043526172638, -0.09324915707111359, -0.013560809195041656, 0.9947808980941772, -0.06837739795446396, -0.2994365692138672, 1.471435546875, 1.355712890625, 0.0155029296875, 1.5
48584, -8.585420608520508, -1.8700077533721924, -2.393259048461914, -0.007294011302292347, -0.027727218344807625, -46.49383544921875, 0.017815178260207176, 0.06956098973751068, -1.9876976013183594, -0.6227031946182251, -0.9899522662162781, 0.10367967933416367, -1.6539027379533482, -1.5033725200394201, 0.7890868446716437, 9362.0, 30146.0, 35388.0, 9362.0, 8.370248794555664, -0.09491119533777237, -0.46795815229415894, 0.011116646230220795, -0.09301991015672684, -0.013392112217843533, 0.9954636096954346, -0.06837739795446396, -0.2994365692138672, 1.471435546875, 1.24951171875, 0.1648101806640625, 1.5
48594, -8.585853576660156, -1.866002082824707, -2.3928604125976562, -0.007097059860825539, -0.02695942483842373, -46.51372146606445, 0.021575000137090683, 0.0839979276061058, -1.9892857074737549, -0.6226553320884705, -0.9899799823760986, 0.10359072685241699, -1.6674693473360032, -1.5358666759784114, 0.7517034698490344, 9362.0, 30146.0, 35388.0, 9362.0, 8.370248794555664, -0.26399293541908264, -0.07627015560865402, -0.32368817925453186, -0.09353440254926682, -0.01365215890109539, 0.9944763779640198, -0.06837739795446396, -0.2994365692138672, 1.471435546875, 1.26708984375, 0.1136474609375, 1.493408203125
48604, -8.587352752685547, -1.864736795425415, -2.3942883014678955, -0.0068625411950051785, -0.02604733780026436, -46.53362274169922, 0.025328760966658592, 0.09841955453157425, -1.9909588098526, -0.6226537823677063, -0.9899665117263794, 0.10359413921833038, -1.6624027646111017, -1.5236255659255562, 0.7611558313622323, 9362.0, 30146.0, 35388.0, 9362.0, 8.370248794555664, 0.17641523480415344, -0.18123121559619904, -0.13732601702213287, -0.09344213455915451, -0.014571470208466053, 0.9940532445907593, -0.06837739795446396, -0.2994365692138672, 1.471435546875, 1.398193359375, 0.03826904296875, 1.493408203125
48614, -8.586609840393066, -1.8630138635635376, -2.3949780464172363, -0.006590521894395351, -0.02499104104936123, -46.55353927612305, 0.02907547913491726, 0.11283960193395615, -1.9926483631134033, -0.6226989030838013, -0.989957332611084, 0.10356052964925766, -1.67266961780124, -1.5031052743802036, 0.796489138003473, 9362.0, 30146.0, 35388.0, 9362.0, 8.370248794555664, -0.03030036948621273, 0.2162773758172989, 0.07196304202079773, -0.09403648972511292, -0.013477245345711708, 0.9960942268371582, -0.06837739795446396, -0.2994365692138672, 1.471435546875, 1.29345703125, 0.05889892578125, 1.49267578125
48624, -8.586763381958008, -1.8639333248138428, -2.394270420074463, -0.00628103269264102, -0.02379048801958561, -46.5734748840332, 0.032822564244270325, 0.1272708773612976, -1.994280457496643, -0.6227283477783203, -0.9899453520774841, 0.10350000858306885, -1.660427981567028, -1.490477475594787, 0.8137070457302852, 9362.0, 30146.0, 35388.0, 9362.0, 8.370248794555664, 0.15719152987003326, 0.08730319142341614, -0.10189784318208694, -0.09297347813844681, -0.013459249399602413, 0.9962688684463501, -0.06837739795446396, -0.2994365692138672, 1.471435546875, 1.4619140625, 0.1246185302734375, 1.49267578125
48634, -8.5863037109375, -1.8647924661636353, -2.3945472240448, -0.005934059154242277, -0.022445522248744965, -46.59342575073242, 0.0365719310939312, 0.14172214269638062, -1.9957714080810547, -0.6227821111679077, -0.9899795651435852, 0.10359698534011841, -1.651133103930785, -1.4569281564776873, 0.8408402431658434, 9362.0, 30146.0, 35388.0, 9362.0, 8.370248794555664, 0.024697380140423775, 0.30284902453422546, 0.051500216126441956, -0.09321793913841248, -0.011426174081861973, 0.9963646531105042, -0.06837739795446396, -0.2994365692138672, 1.471435546875, 1.653076171875, 0.54644775390625, 1.496337890625
48644, -8.58655834197998, -1.8668837547302246, -2.3950533866882324, -0.005549591034650803, -0.020956065505743027, -46.6133918762207, 0.04032181203365326, 0.15616922080516815, -1.997291922569275, -0.6227815747261047, -0.9899709820747375, 0.10358890891075134, -1.6359149101427402, -1.4569040610564912, 0.8341802197523877, 9362.0, 30146.0, 35388.0, 9362.0, 8.370248794555664, 0.11534325033426285, 0.0047683557495474815, -0.23154021799564362, -0.09141849726438522, -0.011192836798727512, 0.9967948198318481, -0.06837739795446396, -0.2994365692138672, 1.471435546875, 1.564453125, 0.3344879150390625, 1.496337890625
48654, -8.586187362670898, -1.8670668601989746, -2.3962504863739014, -0.005127611104398966, -0.019322121515870094, -46.63337326049805, 0.044074270874261856, 0.17061962187290192, -1.9987841844558716, -0.6228029727935791, -0.9900421500205994, 0.10355021804571152, -1.6026182792793018, -1.4633104024540273, 0.8602749571157011, 9362.0, 30146.0, 35388.0, 9362.0, 8.370248794555664, -0.11796098202466965, -0.005830933339893818, -0.11627659201622009, -0.0914549008011818, -0.011123713105916977, 0.9945355653762817, -0.061589572578668594, -0.3442363739013672, 1.4677734375, 1.36962890625, 0.01910400390625, 1.494140625
48664, -8.586541175842285, -1.86714506149292, -2.3966405391693115, -0.004668114706873894, -0.017543775960803032, -46.65336990356445, 0.04782526567578316, 0.18504959344863892, -2.0004143714904785, -0.6225504279136658, -0.9899758100509644, 0.10362936556339264, -1.663768134275146, -1.6080218850296717, 0.9390144090242739, 9362.0, 30146.0, 35388.0, 9362.0, 8.370248794555664, 0.0659363716840744, 0.045805223286151886, 0.16507451236248016, -0.09494785964488983, -0.012504019774496555, 0.9934606552124023, -0.061589572578668594, -0.3442363739013672, 1.4677734375, 1.330810546875, 0.0203399658203125, 1.494140625
48674, -8.585542678833008, -1.8682126998901367, -2.395702362060547, -0.0041711218655109406, -0.015621194615960121, -46.67338180541992, 0.05157344788312912, 0.19946657121181488, -2.002126932144165, -0.6227830052375793, -0.9899511337280273, 0.103623166680336, -1.6226866619703078, -1.4636327810177363, 0.8474107492456874, 9362.0, 30146.0, 35388.0, 9362.0, 8.370248794555664, 0.0556737519800663, 0.01266505941748619, -0.25166741013526917, -0.0932501032948494, -0.010866040363907814, 0.9935504198074341, -0.061589572578668594, -0.3442363739013672, 1.4677734375, 1.544677734375, 0.2900543212890625, 1.489013671875
48684, -8.584341049194336, -1.8689874410629272, -2.3972465991973877, -0.0036366693675518036, -0.013554532080888748, -46.69341278076172, 0.05531679838895798, 0.21386602520942688, -2.0039610862731934, -0.6227313876152039, -0.9899587631225586, 0.10356619954109192, -1.654444515663915, -1.4969255013854763, 0.8041409705075608, 9362.0, 30146.0, 35388.0, 9362.0, 8.370248794555664, 0.2929980456829071, 0.13287267088890076, -0.08145304024219513, -0.09156599640846252, -0.010045604780316353, 0.9951220750808716, -0.061589572578668594, -0.3442363739013672, 1.4677734375, 1.56005859375, 0.324493408203125, 1.489013671875
48694, -8.583293914794922, -1.8703107833862305, -2.3968520164489746, -0.0030647357925772667, -0.011343728750944138, -46.71345901489258, 0.05907030776143074, 0.22829459607601166, -2.0055887699127197, -0.6227675080299377, -0.9900276064872742, 0.10358890146017075, -1.598543955090238, -1.4569749393321274, 0.879485605753816, 9362.0, 30146.0, 35388.0, 9362.0, 8.370248794555664, 0.18829011917114258, 0.10213063657283783, -0.045635443180799484, -0.0918044000864029, -0.013202589936554432, 0.9939695000648499, -0.061589572578668594, -0.3442363739013672, 1.4677734375, 1.6025390625, 0.423187255859375, 1.4912109375
48704, -8.58249282836914, -1.8723466396331787, -2.3970847129821777, -0.002455265261232853, -0.008988674730062485, -46.733524322509766, 0.06282369047403336, 0.2427162230014801, -2.0072476863861084, -0.622635543346405, -0.9899967908859253, 0.10361601412296295, -1.6530424282392342, -1.5081650480505004, 0.7759246025074916, 9362.0, 30146.0, 35388.0, 9362.0, 8.370248794555664, 0.10992272943258286, -0.1741468608379364, 0.00600561685860157, -0.0917910560965538, -0.015181186608970165, 0.9935761094093323, -0.061589572578668594, -0.3442363739013672, 1.4677734375, 1.134521484375, 0.88360595703125, 1.4912109375
48714, -8.582210540771484, -1.8709118366241455, -2.3976857662200928, -0.0018082780297845602, -0.006489519029855728, -46.753604888916016, 0.06657376885414124, 0.257114976644516, -2.0090479850769043, -0.622774600982666, -0.9900420308113098, 0.10355782508850098, -1.6131017300208905, -1.4451867126728644, 0.8800771331014325, 9362.0, 30146.0, 35388.0, 9362.0, 8.370248794555664, 0.022062601521611214, 0.08340136706829071, 0.014841963537037373, -0.09245615452528, -0.015467028133571148, 0.9955984950065613, -0.061589572578668594, -0.3442363739013672, 1.4677734375, 1.547607421875, 0.296478271484375, 1.493408203125
48724, -8.582806587219238, -1.8703511953353882, -2.3971736431121826, -0.001123742200434208, -0.0038462660741060972, -46.773704528808594, 0.0703335627913475, 0.27153560519218445, -2.010690927505493, -0.6227791905403137, -0.9900509119033813, 0.10359004139900208, -1.6132226576236, -1.4464665702538184, 0.8766673557411866, 9362.0, 30146.0, 35388.0, 9362.0, 8.370248794555664, 0.06554709374904633, 0.056917209178209305, -0.3873138427734375, -0.0913681834936142, -0.015058179385960102, 0.9972779154777527, -0.061589572578668594, -0.3442363739013672, 1.4677734375, 1.349853515625, 0.015350341796875, 1.493408203125
48734, -8.582980155944824, -1.8694905042648315, -2.398454189300537, -0.0004015822196379304, -0.001058664871379733, -46.793819427490234, 0.07409831136465073, 0.2859846353530884, -2.012140989303589, -0.6226283311843872, -0.990001916885376, 0.10361062735319138, -1.6747589127034526, -1.5108861333674781, 0.7633659473970228, 9362.0, 30146.0, 35388.0, 9362.0, 8.370248794555664, -0.0715365931391716, -0.18242469429969788, -0.2811731696128845, -0.0933704599738121, -0.012601951137185097, 0.9954515099525452, -0.061589572578668594, -0.3442363739013672, 1.4677734375, 1.60400390625, 0.4266204833984375, 1.493408203125
48744, -8.5837984085083, -1.8674331903457642, -2.3998045921325684, 0.00035820924676954746, 0.0018733907490968704, -46.81394958496094, 0.07786032557487488, 0.30042651295661926, -2.0136466026306152, -0.6226222515106201, -0.9899901151657104, 0.10364583134651184, -1.6630846360859133, -1.5154844479633311, 0.7659595844021976, 9362.0, 30146.0, 35388.0, 9362.0, 8.370248794555664, 0.1709921807050705, 0.4562740921974182, 0.1828780472278595, -0.0933007076382637, -0.01398610882461071, 0.9944854378700256, -0.061589572578668594, -0.3442363739013672, 1.4677734375, 1.163818359375, 0.6264495849609375, 1.493408203125
48754, -8.583406448364258, -1.870334267616272, -2.398669481277466, 0.0011555859819054604, 0.004949755035340786, -46.8340950012207, 0.08161541074514389, 0.31484612822532654, -2.0153021812438965, -0.6226663589477539, -0.9900436997413635, 0.1036519855260849, -1.627056531294113, -1.4699318731281608, 0.8143365224220174, 9362.0, 30146.0, 35388.0, 9362.0, 8.370248794555664, 0.04755217209458351, -0.035812076181173325, 0.1691674143075943, -0.09431672841310501, -0.012856211513280869, 0.9936404824256897, -0.0825740396976471, 0.0052013397216796875, 1.496337890625, 1.546142578125, 0.2932891845703125, 1.493408203125
48764, -8.58350944519043, -1.869733452796936, -2.396972179412842, 0.00199047545902431, 0.00817023403942585, -46.85425567626953, 0.08536209166049957, 0.329249769449234, -2.0170764923095703, -0.6226787567138672, -0.9900258183479309, 0.10366801172494888, -1.616602981716959, -1.4852286770750993, 0.7850904707259041, 9362.0, 30146.0, 35388.0, 9362.0, 8.370248794555664, 0.1329999566078186, -0.3996870517730713, -0.08258144557476044, -0.09368494153022766, -0.012654487043619156, 0.9940639138221741, -0.0825740396976471, 0.0052013397216796875, 1.496337890625, 1.56298828125, 0.3311767578125, 1.493408203125
48774, -8.582772254943848, -1.8664954900741577, -2.3963630199432373, 0.002862866036593914, 0.011534788645803928, -46.87443542480469, 0.08911556005477905, 0.34366127848625183, -2.018792152404785, -0.6226633787155151, -0.9900457262992859, 0.10364781320095062, -1.6088977312029753, -1.4767396303388978, 0.8053008703568924, 9362.0, 30146.0, 35388.0, 9362.0, 8.370248794555664, -0.21983467042446136, 0.41330602765083313, -0.1078786849975586, -0.09315096586942673, -0.01329643465578556, 0.9919045567512512, -0.0825740396976471, 0.0052013397216796875, 1.496337890625, 1.565185546875, 0.336090087890625, 1.49560546875
48784, -8.584479331970215, -1.8696351051330566, -2.3970956802368164, 0.00377275631763041, 0.015043354593217373, -46.89463424682617, 0.09286250174045563, 0.3580520451068878, -2.02064847946167, -0.6226766109466553, -0.9900744557380676, 0.10362230241298676, -1.6093507065645416, -1.475059947859961, 0.8190928176780118, 9362.0, 30146.0, 35388.0, 9362.0, 8.370248794555664, -0.034428879618644714, 0.19200336933135986, 0.011731097474694252, -0.09339910000562668, -0.013831323012709618, 0.9948208928108215, -0.0825740396976471, 0.0052013397216796875, 1.496337890625, 1.59375, 0.4024658203125, 1.49560546875
48794, -8.585034370422363, -1.8702013492584229, -2.3976364135742188, 0.004720103926956654, 0.018695885315537453, -46.91484832763672, 0.09660711139440536, 0.3724540174007416, -2.0224223136901855, -0.6227623820304871, -0.9901378750801086, 0.10352610051631927, -1.5725093190631998, -1.4507502392268066, 0.8652393969756932, 9362.0, 30146.0, 35388.0, 9362.0, 8.370248794555664, 0.003936456050723791, -0.01635889708995819, -0.12779538333415985, -0.09526079148054123, -0.015658000484108925, 0.9947365522384644, -0.0825740396976471, 0.0052013397216796875, 1.496337890625, 1.552001953125, 0.3063201904296875, 1.4970703125
48804, -8.584857940673828, -1.8688807487487793, -2.3990914821624756, 0.005704959854483604, 0.022492580115795135, -46.935081481933594, 0.10036414861679077, 0.3868849575519562, -2.0240213871002197, -0.622682511806488, -0.9900708198547363, 0.10366366803646088, -1.6071222612555465, -1.4806840352304391, 0.7940678568069155, 9362.0, 30146.0, 35388.0, 9362.0, 8.370248794555664, 0.12103880941867828, -0.30554601550102234, -0.006790780462324619, -0.09439525008201599, -0.014931812882423401, 0.9933605194091797, -0.0825740396976471, 0.0052013397216796875, 1.496337890625, 1.12646484375, 0.9649200439453125, 1.4970703125
48814, -8.584967613220215, -1.8666517734527588, -2.3996903896331787, 0.0067273639142513275, 0.026433482766151428, -46.95532989501953, 0.10411708056926727, 0.40129533410072327, -2.0257627964019775, -0.6227512955665588, -0.9900612831115723, 0.10356102138757706, -1.6155022092948983, -1.4562916430380142, 0.8568868513012903, 9362.0, 30146.0, 35388.0, 9362.0, 8.370248794555664, -0.17065845429897308, 0.07356139272451401, 0.1246342808008194, -0.08942537009716034, -0.012348157353699207, 0.9923960566520691, -0.0825740396976471, 0.0052013397216796875, 1.496337890625, 1.20849609375, 0.3375701904296875, 1.489013671875
48824, -8.585488319396973, -1.8678196668624878, -2.400113344192505, 0.007787263486534357, 0.030518392100930214, -46.9755973815918, 0.10786303132772446, 0.41568657755851746, -2.0276288986206055, -0.6227887272834778, -0.9901761412620544, 0.1035650297999382, -1.5857067165251026, -1.464455959132465, 0.9337569000281966, 9362.0, 30146.0, 35388.0, 9362.0, 8.370248794555664, -0.2689663767814636, -0.17589016258716583, -0.3079758584499359, -0.09106843918561935, -0.012566928751766682, 0.994064211845398, -0.0825740396976471, 0.0052013397216796875, 1.496337890625, 1.541748046875, 0.2835540771484375, 1.489013671875
48834, -8.587141036987305, -1.865688681602478, -2.402235746383667, 0.008884611539542675, 0.03474724292755127, -46.99588394165039, 0.1116066426038742, 0.4300835132598877, -2.029461145401001, -0.6227174997329712, -0.9901285171508789, 0.10367979109287262, -1.62500585157958, -1.4967595702891856, 0.8903304469109213, 9362.0, 30146.0, 35388.0, 9362.0, 8.370248794555664, 0.17672649025917053, 0.03308062627911568, -0.7808877229690552, -0.0921720489859581, -0.018252572044730186, 0.9963997602462769, -0.0825740396976471, 0.0052013397216796875, 1.496337890625, 1.2802734375, 0.0831756591796875, 1.493408203125
48844, -8.586606979370117, -1.8639087677001953, -2.4056639671325684, 0.010019468143582344, 0.039120305329561234, -47.01618576049805, 0.11536528170108795, 0.44452884793281555, -2.0309736728668213, -0.6228377223014832, -0.9901708960533142, 0.10357709228992462, -1.5908854824637406, -1.4604130493318621, 0.9723513055698682, 9362.0, 30146.0, 35388.0, 9362.0, 8.370248794555664, 0.5062187910079956, 0.405409574508667, -0.4464578330516815, -0.09754419326782227, -0.010744782164692879, 0.9951093792915344, -0.0825740396976471, 0.0052013397216796875, 1.496337890625, 1.6025390625, 0.423187255859375, 1.493408203125
48864, -8.574197769165039, -1.870717167854309, -2.4023897647857666, 0.012401752173900604, 0.04829937219619751, -47.05683898925781, 0.12286050617694855, 0.47337090969085693, -2.0343544483184814, -0.6227903366088867, -0.990100622177124, 0.10360554605722427, -1.6382468855687262, -1.4631082890899734, 0.918463661706762, 9362.0, 30146.0, 35388.0, 9362.0, 8.370248794555664, 0.059378672391176224, 0.28170618414878845, 0.266220360994339, -0.0956895723938942, -0.003480563871562481, 0.9931530952453613, -0.04477311670780182, -0.06647872924804688, 1.490478515625, 1.433349609375, 0.0797576904296875, 1.494873046875
48874, -8.572938919067383, -1.873840570449829, -2.4005212783813477, 0.013649066910147667, 0.053104959428310394, -47.07719039916992, 0.12660139799118042, 0.48774704337120056, -2.036282539367676, -0.6227878332138062, -0.9900826811790466, 0.10359311103820801, -1.6437589599561517, -1.4693937071899938, 0.9244866787760055, 9362.0, 30146.0, 35388.0, 9362.0, 8.370248794555664, -0.37537485361099243, 0.16928546130657196, -0.47998079657554626, -0.0956895723938942, -0.003480563871562481, 0.9931530952453613, -0.04477311670780182, -0.06647872924804688, 1.490478515625, 1.433349609375, 0.0797576904296875, 1.4970703125
48894, -8.584244728088379, -1.8708453178405762, -2.402222156524658, 0.013649066910147667, 0.053104959428310394, -47.07719039916992, 0.12660139799118042, 0.48774704337120056, -2.036282539367676, -0.6228078007698059, -0.9901764392852783, 0.10356709361076355, -1.6079920152515543, -1.4688822907152712, 0.9530578565169451, 9362.0, 30146.0, 35388.0, 9362.0, 8.370248794555664, -0.7439706325531006, 0.045090802013874054, -0.26310521364212036, -0.0956895723938942, -0.003480563871562481, 0.9931530952453613, -0.04477311670780182, -0.06647872924804688, 1.490478515625, 1.581298828125, 0.3732147216796875, 1.49560546875
48904, -8.591526985168457, -1.8691102266311646, -2.4045488834381104, 0.017616599798202515, 0.06838679313659668, -47.138343811035156, 0.1379159837961197, 0.5310882329940796, -2.0404045581817627, -0.6228191256523132, -0.9901428818702698, 0.10359808802604675, -1.5999134108207593, -1.4761800000549101, 0.9648964359440396, 9362.0, 30146.0, 35388.0, 9362.0, 8.370248794555664, -0.3190558850765228, -0.2836523950099945, 0.44479623436927795, -0.0956895723938942, -0.003480563871562481, 0.9931530952453613, -0.04477311670780182, -0.06647872924804688, 1.490478515625, 1.40771484375, 0.0478363037109375, 1.49560546875
48924, -8.596423149108887, -1.868962049484253, -2.3990800380706787, 0.020450299605727196, 0.07929790765047073, -47.179176330566406, 0.14544616639614105, 0.5600074529647827, -2.043292760848999, -0.6228230595588684, -0.990149199962616, 0.10356920957565308, -1.608329190827534, -1.4748822572784661, 0.9527514015720825, 9362.0, 30146.0, 35388.0, 9362.0, 8.370248794555664, -0.29933175444602966, -0.013439641334116459, -1.0605696439743042, -0.0956895723938942, -0.003480563871562481, 0.9931530952453613, -0.04477311670780182, -0.06647872924804688, 1.490478515625, 1.603271484375, 0.4249420166015625, 1.490478515625
48944, -8.601027488708496, -1.870717167854309, -2.4020252227783203, 0.02343403361737728, 0.09078598022460938, -47.2200813293457, 0.15292799472808838, 0.5887914299964905, -2.0472686290740967, -0.6227724552154541, -0.9900912046432495, 0.10360584408044815, -1.641717507546138, -1.4877291119883012, 0.932493651060905, 9362.0, 30146.0, 35388.0, 9362.0, 8.370248794555664, -0.03302284702658653, 0.1100533977150917, 0.18611182272434235, -0.0956895723938942, -0.003480563871562481, 0.9931530952453613, -0.04477311670780182, -0.06647872924804688, 1.490478515625, 1.382080078125, 0.0256195068359375, 1.490478515625
48954, -8.601235389709473, -1.872645616531372, -2.402009963989258, 0.02343403361737728, 0.09078598022460938, -47.2200813293457, 0.15292799472808838, 0.5887914299964905, -2.0472686290740967, -0.6226539611816406, -0.9900835752487183, 0.10364873707294464, -1.6589207178197518, -1.5407899911316463, 0.849527670066276, 9362.0, 30146.0, 35388.0, 9362.0, 8.370248794555664, 0.15162841975688934, 0.19665353000164032, 0.18856076896190643, -0.0956895723938942, -0.003480563871562481, 0.9931530952453613, -0.06669717282056808, -0.09335899353027344, 1.48828125, 1.288330078125, 0.0676116943359375, 1.490478515625
48964, -8.599918365478516, -1.8752992153167725, -2.400926113128662, 0.02343403361737728, 0.09078598022460938, -47.2200813293457, 0.15292799472808838, 0.5887914299964905, -2.0472686290740967, -0.6226440668106079, -0.9901081919670105, 0.10366090387105942, -1.6697573009451392, -1.5467006406406085, 0.8421848141831472, 9362.0, 30146.0, 35388.0, 9362.0, 8.370248794555664, 0.16476057469844818, 0.02948949486017227, 0.19031545519828796, -0.0956895723938942, -0.003480563871562481, 0.9931530952453613, -0.06669717282056808, -0.09335899353027344, 1.48828125, 1.43408203125, 0.080810546875, 1.490478515625
48974, -8.597587585449219, -1.876650094985962, -2.4013671875, 0.028191035613417625, 0.10910020768642426, -47.28157043457031, 0.16421261429786682, 0.6321716904640198, -2.052029848098755, -0.6228128671646118, -0.9901882410049438, 0.10353463888168335, -1.5962647940869215, -1.483605584109057, 0.9592212451382987, 9362.0, 30146.0, 35388.0, 9362.0, 8.370248794555664, 0.434253990650177, -0.04031508415937424, 0.11553052812814713, -0.0956895723938942, -0.003480563871562481, 0.9931530952453613, -0.06669717282056808, -0.09335899353027344, 1.48828125, 1.56005859375, 0.324493408203125, 1.490478515625
48984, -8.594269752502441, -1.8763538599014282, -2.4006690979003906, 0.02985202707350254, 0.11549429595470428, -47.30209732055664, 0.1679859459400177, 0.6466464996337891, -2.0535082817077637, -0.6227466464042664, -0.9901521801948547, 0.10360658913850784, -1.6464356735713253, -1.471598909980628, 0.9422106850998565, 9362.0, 30146.0, 35388.0, 9362.0, 8.370248794555664, 0.4158984124660492, 0.2793196141719818, -0.04395408555865288, -0.0956895723938942, -0.003480563871562481, 0.9931530952453613, -0.06669717282056808, -0.09335899353027344, 1.48828125, 1.4501953125, 0.1050872802734375, 1.490478515625
49014, -8.578266143798828, -1.8803693056106567, -2.4029228687286377, 0.035061269998550415, 0.1355438381433487, -47.363773345947266, 0.17929136753082275, 0.689946711063385, -2.058568000793457, -0.6226889491081238, -0.9901608228683472, 0.10368382930755615, -1.6147792862655965, -1.5073159154913753, 0.8789751747480022, 9362.0, 30146.0, 35388.0, 9362.0, 8.370248794555664, 0.6503470540046692, 0.23159536719322205, 0.32880571484565735, -0.0956895723938942, -0.003480563871562481, 0.9931530952453613, -0.06669717282056808, -0.09335899353027344, 1.48828125, 1.1923828125, 0.4285125732421875, 1.4912109375
49024, -8.571975708007812, -1.882001280784607, -2.4027457237243652, 0.035061269998550415, 0.1355438381433487, -47.363773345947266, 0.17929136753082275, 0.689946711063385, -2.058568000793457, -0.6227098107337952, -0.9901556372642517, 0.10369109362363815, -1.6120343663737182, -1.5124435408233126, 0.8991708105157166, 9362.0, 30146.0, 35388.0, 9362.0, 8.370248794555664, 0.5052478313446045, 0.136194109916687, -0.7268713712692261, -0.0956895723938942, -0.003480563871562481, 0.9931530952453613, -0.06669717282056808, -0.09335899353027344, 1.48828125, 1.449462890625, 0.103973388671875, 1.4912109375
49034, -8.56662368774414, -1.8823511600494385, -2.4075255393981934, 0.03872242569923401, 0.14963075518608093, -47.40497970581055, 0.1868295818567276, 0.7187536954879761, -2.0620508193969727, -0.6227157711982727, -0.9901836514472961, 0.10367710888385773, -1.6122253952493328, -1.5056261880666284, 0.8841234364034765, 9362.0, 30146.0, 35388.0, 9362.0, 8.370248794555664, 0.5011663436889648, -0.2587924301624298, 0.10613255947828293, -0.0956895723938942, -0.003480563871562481, 0.9931530952453613, -0.06669717282056808, -0.09335899353027344, 1.48828125, 1.247314453125, 0.172119140625, 1.4912109375
49044, -8.5617094039917, -1.8806792497634888, -2.4074130058288574, 0.03872242569923401, 0.14963075518608093, -47.40497970581055, 0.1868295818567276, 0.7187536954879761, -2.0620508193969727, -0.6226968765258789, -0.9902049899101257, 0.10366828739643097, -1.6089582697457947, -1.499221415015569, 0.8817640811108316, 9362.0, 30146.0, 35388.0, 9362.0, 8.370248794555664, 0.5011663436889648, -0.2587924301624298, 0.10613255947828293, -0.0956895723938942, -0.003480563871562481, 0.9931530952453613, -0.06669717282056808, -0.09335899353027344, 1.48828125, 1.505126953125, 0.205902099609375, 1.4912109375
49054, -8.559844970703125, -1.8782336711883545, -2.412479877471924, 0.04253477603197098, 0.16429461538791656, -47.44624710083008, 0.19440516829490662, 0.7476224303245544, -2.0648298263549805, -0.6227025389671326, -0.9901865720748901, 0.10369545221328735, -1.601378032189111, -1.499601356026119, 0.8915517634370325, 9362.0, 30146.0, 35388.0, 9362.0, 8.370248794555664, 0.15190349519252777, -0.23288239538669586, -0.046825774013996124, -0.0956895723938942, -0.003480563871562481, 0.9931530952453613, -0.06669717282056808, -0.09335899353027344, 1.48828125, 1.505126953125, 0.205902099609375, 1.499267578125
49064, -8.557573318481445, -1.8751401901245117, -2.4123549461364746, 0.044497717171907425, 0.1718428134918213, -47.46690368652344, 0.19818459451198578, 0.7620185613632202, -2.06638765335083, -0.6227210164070129, -0.9902104139328003, 0.10365041345357895, -1.603153863658158, -1.4995941239776585, 0.8789067498969272, 9362.0, 30146.0, 35388.0, 9362.0, 8.370248794555664, 0.16848894953727722, 0.024137428030371666, 0.013688083738088608, -0.0956895723938942, -0.003480563871562481, 0.9931530952453613, -0.06669717282056808, -0.09335899353027344, 1.48828125, 1.08837890625, 1.4176025390625, 1.499267578125
49074, -8.5559720993042, -1.8737634420394897, -2.413037061691284, 0.044497717171907425, 0.1718428134918213, -47.46690368652344, 0.19818459451198578, 0.7620185613632202, -2.06638765335083, -0.6227396130561829, -0.9901953339576721, 0.10366350412368774, -1.5976184647682055, -1.5001675604359548, 0.8666419530120854, 9362.0, 30146.0, 35388.0, 9362.0, 8.370248794555664, 0.16848894953727722, 0.024137428030371666, 0.013688083738088608, -0.0956895723938942, -0.003480563871562481, 0.9931530952453613, -0.06669717282056808, -0.09335899353027344, 1.48828125, 1.4091796875, 0.04937744140625, 1.491943359375
49084, -8.557267189025879, -1.8735957145690918, -2.4132368564605713, 0.04853666201233864, 0.187370166182518, -47.50826644897461, 0.20570829510688782, 0.7907193899154663, -2.0700485706329346, -0.622715175151825, -0.9901940822601318, 0.10370639711618423, -1.606498064666114, -1.4940555014926247, 0.8728795291504461, 9362.0, 30146.0, 35388.0, 9362.0, 8.370248794555664, -0.00650597270578146, 0.2701757550239563, 0.21703781187534332, -0.0956895723938942, -0.003480563871562481, 0.9931530952453613, -0.06669717282056808, -0.09335899353027344, 1.48828125, 1.568115234375, 0.3428955078125, 1.491943359375
49104, -8.559782981872559, -1.869990587234497, -2.4152612686157227, 0.0527261421084404, 0.20347216725349426, -47.54970169067383, 0.2132364809513092, 0.8194714784622192, -2.073322296142578, -0.6227349042892456, -0.9901884198188782, 0.10366910696029663, -1.5990558386926148, -1.4945785714053557, 0.8766389391856868, 9362.0, 30146.0, 35388.0, 9362.0, 8.370248794555664, -0.1434316784143448, -0.3487258553504944, 0.03363099321722984, -0.09290726482868195, -0.011397338472306728, 0.9954786896705627, -0.06669717282056808, -0.09335899353027344, 1.48828125, 1.3447265625, 0.0158538818359375, 1.4970703125
49114, -8.561895370483398, -1.8658190965652466, -2.4144022464752197, 0.054877329617738724, 0.21173875033855438, -47.57044219970703, 0.2170017659664154, 0.8338441848754883, -2.074993133544922, -0.6227443814277649, -0.990200400352478, 0.10366911441087723, -1.6067741750306046, -1.4828976469626411, 0.8627752030540206, 9362.0, 30146.0, 35388.0, 9362.0, 8.370248794555664, -0.4716557562351227, -0.057272978127002716, -0.49650838971138, -0.09290726482868195, -0.011397338472306728, 0.9954786896705627, -0.06669717282056808, -0.09335899353027344, 1.48828125, 1.396728515625, 0.0370025634765625, 1.4970703125
49134, -8.569616317749023, -1.8611291646957397, -2.41733455657959, 0.059292640537023544, 0.2287037968635559, -47.611968994140625, 0.22452440857887268, 0.8626545667648315, -2.077974557876587, -0.6227096915245056, -0.9901139140129089, 0.10368268191814423, -1.6100517910295034, -1.4812318127397646, 0.810332199273565, 9362.0, 30146.0, 35388.0, 9362.0, 8.370248794555664, -0.4089392125606537, -0.3815763294696808, -0.5749136805534363, -0.09290726482868195, -0.011397338472306728, 0.9954786896705627, -0.06669717282056808, -0.09335899353027344, 1.48828125, 1.4853515625, 0.1669921875, 1.49267578125
49154, -8.579483032226562, -1.8539080619812012, -2.420712471008301, 0.06385818123817444, 0.24624517560005188, -47.65355682373047, 0.23202577233314514, 0.891472339630127, -2.0810623168945312, -0.6227171421051025, -0.990086555480957, 0.10365346074104309, -1.6186319008371959, -1.469777722715122, 0.8002513294183224, 9362.0, 30146.0, 35388.0, 9362.0, 8.370248794555664, -0.3313262462615967, 0.2846100330352783, -0.014900828711688519, -0.09290726482868195, -0.011397338472306728, 0.9954786896705627, -0.0428411029279232, 0.10376167297363281, 1.50439453125, 1.31103515625, 0.0355682373046875, 1.49267578125
49164, -8.582606315612793, -1.8546534776687622, -2.4208927154541016, 0.06619714200496674, 0.25523194670677185, -47.674373626708984, 0.23576697707176208, 0.9058823585510254, -2.08267879486084, -0.6227548122406006, -0.9901058077812195, 0.10355032980442047, -1.6210930072573555, -1.4428951901053608, 0.8407530211814016, 9362.0, 30146.0, 35388.0, 9362.0, 8.370248794555664, -0.27944570779800415, 0.13392284512519836, -0.20963077247142792, -0.09290726482868195, -0.011397338472306728, 0.9954786896705627, -0.0428411029279232, 0.10376167297363281, 1.50439453125, 1.31103515625, 0.0355682373046875, 1.49267578125
49174, -8.585460662841797, -1.855015516281128, -2.423053741455078, 0.06619714200496674, 0.25523194670677185, -47.674373626708984, 0.23576697707176208, 0.9058823585510254, -2.08267879486084, -0.6227991580963135, -0.9901299476623535, 0.10349903255701065, -1.5924673375496914, -1.4446392749767085, 0.8565661615856222, 9362.0, 30146.0, 35388.0, 9362.0, 8.370248794555664, -0.10496921837329865, 0.3283734619617462, 0.23881657421588898, -0.09290726482868195, -0.011397338472306728, 0.9954786896705627, -0.0428411029279232, 0.10376167297363281, 1.50439453125, 1.433349609375, 0.0797576904296875, 1.496337890625
49184, -8.586564064025879, -1.8569238185882568, -2.4222829341888428, 0.07098720222711563, 0.2736380696296692, -47.716060638427734, 0.24324312806129456, 0.9347387552261353, -2.085824728012085, -0.6227916479110718, -0.9901288151741028, 0.10353399813175201, -1.6007778171735705, -1.4508177092115488, 0.8647277491668255, 9362.0, 30146.0, 35388.0, 9362.0, 8.370248794555664, -0.12453863769769669, -0.2572098672389984, 0.26117390394210815, -0.09290726482868195, -0.011397338472306728, 0.9954786896705627, -0.0428411029279232, 0.10376167297363281, 1.50439453125, 1.571044921875, 0.349578857421875, 1.496337890625
49194, -8.58814525604248, -1.8573768138885498, -2.42026948928833, 0.07343835383653641, 0.28305771946907043, -47.7369270324707, 0.24698664247989655, 0.9491894841194153, -2.087296724319458, -0.6227969527244568, -0.9901143312454224, 0.10351601243019104, -1.595649202204172, -1.449302137273719, 0.8493275899313283, 9362.0, 30146.0, 35388.0, 9362.0, 8.370248794555664, -0.17671486735343933, 0.18205136060714722, -0.17834261059761047, -0.09290726482868195, -0.011397338472306728, 0.9954786896705627, -0.0428411029279232, 0.10376167297363281, 1.50439453125, 1.571044921875, 0.349578857421875, 1.496337890625
49214, -8.590868949890137, -1.8619654178619385, -2.4201037883758545, 0.07845291495323181, 0.3023301362991333, -47.77870559692383, 0.2544669806957245, 0.9780461192131042, -2.0905869007110596, -0.6227800250053406, -0.9901090860366821, 0.10354071855545044, -1.5992294441683652, -1.4509565775309454, 0.8503059309959742, 9362.0, 30146.0, 35388.0, 9362.0, 8.370248794555664, 0.13823069632053375, -0.05921066924929619, -0.08039461821317673, -0.09290726482868195, -0.011397338472306728, 0.9954786896705627, -0.0428411029279232, 0.10376167297363281, 1.50439453125, 1.572509765625, 0.3528594970703125, 1.496337890625
49254, -8.586892127990723, -1.8668265342712402, -2.4201035499572754, 0.08625549077987671, 0.3323209881782532, -47.841495513916016, 0.2657049000263214, 1.0213329792022705, -2.0956060886383057, -0.6227796077728271, -0.9900960326194763, 0.10354582220315933, -1.5885937308934044, -1.472694860479038, 0.8461799133906063, 9362.0, 30146.0, 35388.0, 9362.0, 8.370248794555664, 0.34905722737312317, 0.25497233867645264, -0.2972988784313202, -0.09483541548252106, -0.015107030048966408, 0.9955266118049622, -0.04695339873433113, 0.09480094909667969, 1.503662109375, 1.452392578125, 0.10870361328125, 1.4912109375
49264, -8.584900856018066, -1.8706028461456299, -2.417985200881958, 0.0916447639465332, 0.3530365228652954, -47.88344192504883, 0.2732238173484802, 1.0502195358276367, -2.0987250804901123, -0.6226759552955627, -0.990074634552002, 0.1035098135471344, -1.6296316469620544, -1.5336013014208447, 0.7618177286693, 9362.0, 30146.0, 35388.0, 9362.0, 8.370248794555664, 0.34905722737312317, 0.25497233867645264, -0.2972988784313202, -0.09483541548252106, -0.015107030048966408, 0.9955266118049622, -0.04695339873433113, 0.09480094909667969, 1.503662109375, 1.130126953125, 0.9273529052734375, 1.4912109375
49274, -8.582468032836914, -1.8726623058319092, -2.4269731044769287, 0.09439585357904434, 0.3636111319065094, -47.90443420410156, 0.27699410915374756, 1.064702033996582, -2.0999982357025146, -0.6226463317871094, -0.9900768995285034, 0.10357625782489777, -1.6306594751965489, -1.5370206083875928, 0.7529359765978518, 9362.0, 30146.0, 35388.0, 9362.0, 8.370248794555664, -0.3315200209617615, -0.5797704458236694, 4.262688636779785, -0.09483541548252106, -0.015107030048966408, 0.9955266118049622, -0.04695339873433113, 0.09480094909667969, 1.503662109375, 1.12353515625, 0.9957122802734375, 1.4912109375
49284, -8.585816383361816, -1.871403694152832, -2.40421462059021, 0.09439585357904434, 0.3636111319065094, -47.90443420410156, 0.27699410915374756, 1.064702033996582, -2.0999982357025146, -0.6226693391799927, -0.9900708794593811, 0.10353114455938339, -1.6358250541820087, -1.535787285965739, 0.748521469963422, 9362.0, 30146.0, 35388.0, 9362.0, 8.370248794555664, -0.15789920091629028, 0.4640005826950073, -5.730893611907959, -0.09483541548252106, -0.015107030048966408, 0.9955266118049622, -0.04695339873433113, 0.09480094909667969, 1.503662109375, 1.26123046875, 0.129302978515625, 1.4912109375
49294, -8.58697509765625, -1.8691705465316772, -2.4402201175689697, 0.10001115500926971, 0.3851940929889679, -47.94646453857422, 0.28451991081237793, 1.093543291091919, -2.103297710418701, -0.622645378112793, -0.9900650382041931, 0.10357537865638733, -1.6402491850586478, -1.5490301947716603, 0.7327086692491802, 9362.0, 30146.0, 35388.0, 9362.0, 8.370248794555664, 0.4896632134914398, -0.2250000685453415, 5.519134044647217, -0.09483541548252106, -0.015107030048966408, 0.9955266118049622, -0.04695339873433113, 0.09480094909667969, 1.503662109375, 1.51904296875, 0.2346954345703125, 1.493408203125
49304, -8.579825401306152, -1.8712023496627808, -2.423064708709717, 0.10001115500926971, 0.3851940929889679, -47.94646453857422, 0.28451991081237793, 1.093543291091919, -2.103297710418701, -0.622651994228363, -0.9900675415992737, 0.10357172042131424, -1.6317059944829, -1.5468641038102078, 0.7335041840575494, 9362.0, 30146.0, 35388.0, 9362.0, 8.370248794555664, 0.5962523221969604, 0.72691810131073, 2.3088433742523193, -0.09483541548252106, -0.015107030048966408, 0.9955266118049622, -0.04695339873433113, 0.09480094909667969, 1.503662109375, 1.084716796875, 1.4674530029296875, 1.493408203125
49324, -8.565536499023438, -1.8699959516525269, -2.4210097789764404, 0.10871593654155731, 0.41864845156669617, -48.009647369384766, 0.2957841753959656, 1.1367058753967285, -2.1089181900024414, -0.6226664185523987, -0.9900540709495544, 0.10353918373584747, -1.6322064882341916, -1.5396857297890563, 0.7155103379814006, 9362.0, 30146.0, 35388.0, 9362.0, 8.370248794555664, 0.8253606557846069, 0.07344192266464233, -1.0771844387054443, -0.09483541548252106, -0.015107030048966408, 0.9955266118049622, -0.04695339873433113, 0.09480094909667969, 1.503662109375, 1.087646484375, 1.4275054931640625, 1.49560546875
49334, -8.558465003967285, -1.86855947971344, -2.4252355098724365, 0.1116926297545433, 0.43008750677108765, -48.03074645996094, 0.29955729842185974, 1.1511073112487793, -2.110556125640869, -0.6226987838745117, -0.9900450706481934, 0.10364988446235657, -1.6245298918832924, -1.4994129085109762, 0.7583407104052869, 9362.0, 30146.0, 35388.0, 9362.0, 8.370248794555664, 0.6168393492698669, -0.23604145646095276, -1.551476001739502, -0.09483541548252106, -0.015107030048966408, 0.9955266118049622, -0.04695339873433113, 0.09480094909667969, 1.503662109375, 1.3798828125, 0.0243377685546875, 1.49560546875
49384, -8.53803825378418, -1.858341097831726, -2.438352108001709, 0.12714150547981262, 0.4894448518753052, -48.136444091796875, 0.31836867332458496, 1.2230901718139648, -2.117790460586548, -0.6227205395698547, -0.9900569915771484, 0.1036292314529419, -1.6197669246466715, -1.4875866110479876, 0.7732014140774094, 9362.0, 30146.0, 35388.0, 9362.0, 8.370248794555664, 0.436658650636673, -0.42391762137413025, 0.635277509689331, -0.09483541548252106, -0.015107030048966408, 0.9955266118049622, -0.04695339873433113, 0.09480094909667969, 1.503662109375, 1.19677734375, 0.40228271484375, 1.497802734375
49394, -8.536237716674805, -1.8543593883514404, -2.433440923690796, 0.1303439885377884, 0.5017478466033936, -48.15762710571289, 0.32212936878204346, 1.2375060319900513, -2.1189563274383545, -0.6227259635925293, -0.9900484085083008, 0.1036175787448883, -1.6282793634753674, -1.490085591975145, 0.76497098696131, 9362.0, 30146.0, 35388.0, 9362.0, 8.370248794555664, -0.33071133494377136, -0.4544343054294586, -1.2155674695968628, -0.09483541548252106, -0.015107030048966408, 0.9955266118049622, -0.04695339873433113, 0.09480094909667969, 1.503662109375, 1.184326171875, 0.479400634765625, 1.496337890625
49404, -8.540525436401367, -1.8497381210327148, -2.440849542617798, 0.13358399271965027, 0.5141946077346802, -48.17882537841797, 0.3258715271949768, 1.2518491744995117, -2.1205966472625732, -0.622722327709198, -0.9900466799736023, 0.10364136099815369, -1.6346849276089033, -1.4851072305658022, 0.769500402301738, 9362.0, 30146.0, 35388.0, 9362.0, 8.370248794555664, -0.4175323247909546, -0.16740119457244873, 0.25749221444129944, -0.09483541548252106, -0.015107030048966408, 0.9955266118049622, -0.04695339873433113, 0.09480094909667969, 1.503662109375, 1.0341796875, 2.28289794921875, 1.496337890625
49424, -8.547850608825684, -1.847257375717163, -2.4424209594726562, 0.14017608761787415, 0.5395183563232422, -48.22127151489258, 0.3333366811275482, 1.2805311679840088, -2.1239123344421387, -0.6227261424064636, -0.990035891532898, 0.10366359353065491, -1.6336020507571727, -1.4985146293423952, 0.7696754300087556, 9362.0, 30146.0, 35388.0, 9362.0, 8.370248794555664, -0.6134267449378967, 0.29985448718070984, 0.3141288161277771, -0.09483541548252106, -0.015107030048966408, 0.9955266118049622, -0.04695339873433113, 0.09480094909667969, 1.503662109375, 1.534423828125, 0.267578125, 1.491943359375
49444, -8.559575080871582, -1.8485989570617676, -2.4397761821746826, 0.14691729843616486, 0.5654157400131226, -48.26378631591797, 0.34077706933021545, 1.3091893196105957, -2.127568006515503, -0.622713029384613, -0.990052342414856, 0.10363717377185822, -1.6457334771295915, -1.4940457015571837, 0.7780637761696344, 9362.0, 30146.0, 35388.0, 9362.0, 8.370248794555664, -0.6492478847503662, -0.09748634696006775, 0.03142634779214859, -0.09269802272319794, -0.014807043597102165, 0.991073727607727, -0.04695339873433113, 0.09480094909667969, 1.503662109375, 1.0751953125, 1.6026458740234375, 1.49560546875
49454, -8.56765079498291, -1.8509159088134766, -2.4404497146606445, 0.15034370124340057, 0.5785794258117676, -48.28506851196289, 0.3445044159889221, 1.323553442955017, -2.129246711730957, -0.6227052211761475, -0.9900538325309753, 0.10365121066570282, -1.6384954095574629, -1.4907209390004539, 0.7959879202397737, 9362.0, 30146.0, 35388.0, 9362.0, 8.370248794555664, -0.7223441004753113, 0.46689194440841675, 0.45811599493026733, -0.09269802272319794, -0.014807043597102165, 0.991073727607727, -0.04695339873433113, 0.09480094909667969, 1.503662109375, 1.0751953125, 1.6026458740234375, 1.49853515625
49464, -8.574984550476074, -1.8551864624023438, -2.437378168106079, 0.15380744636058807, 0.5918870568275452, -48.306365966796875, 0.34824398159980774, 1.3379749059677124, -2.1306118965148926, -0.6227028369903564, -0.9900406002998352, 0.10368242859840393, -1.6440800052387596, -1.4973921639281684, 0.776897086338826, 9362.0, 30146.0, 35388.0, 9362.0, 8.370248794555664, -0.7223441004753113, 0.46689194440841675, 0.45811599493026733, -0.09269802272319794, -0.014807043597102165, 0.991073727607727, -0.04695339873433113, 0.09480094909667969, 1.503662109375, 1.36376953125, 0.017181396484375, 1.49853515625
49474, -8.579957008361816, -1.857417106628418, -2.436979293823242, 0.15730857849121094, 0.6053388714790344, -48.32767868041992, 0.3519822955131531, 1.3523913621902466, -2.1321043968200684, -0.6226622462272644, -0.9900633692741394, 0.10359176248311996, -1.6436358216483813, -1.526389134022537, 0.7619526529528203, 9362.0, 30146.0, 35388.0, 9362.0, 8.370248794555664, -0.5737448334693909, 0.5965664982795715, 0.25669562816619873, -0.09269802272319794, -0.014807043597102165, 0.991073727607727, -0.04695339873433113, 0.09480094909667969, 1.503662109375, 1.56298828125, 0.3311767578125, 1.49853515625
49494, -8.590679168701172, -1.8686833381652832, -2.434725522994995, 0.1644229143857956, 0.6326743364334106, -48.370357513427734, 0.3594537079334259, 1.381163477897644, -2.135719060897827, -0.6227086186408997, -0.9900197982788086, 0.10367104411125183, -1.641496600616959, -1.4962114139354412, 0.7856189949392538, 9362.0, 30146.0, 35388.0, 9362.0, 8.370248794555664, -0.2545188367366791, 0.9243469834327698, 0.4343082308769226, -0.09269802272319794, -0.014807043597102165, 0.991073727607727, -0.04695339873433113, 0.09480094909667969, 1.503662109375, 1.222412109375, 0.269989013671875, 1.4912109375
49504, -8.593071937561035, -1.876183032989502, -2.4315602779388428, 0.1644229143857956, 0.6326743364334106, -48.370357513427734, 0.3594537079334259, 1.381163477897644, -2.135719060897827, -0.6227357387542725, -0.990018367767334, 0.10365207493305206, -1.6413128091362301, -1.50070855346803, 0.7801988094535734, 9362.0, 30146.0, 35388.0, 9362.0, 8.370248794555664, -0.3109104037284851, 0.7165478467941284, 0.34740716218948364, -0.0946769043803215, -0.014885511249303818, 0.9959326386451721, -0.04695339873433113, 0.09480094909667969, 1.503662109375, 1.442138671875, 0.0926361083984375, 1.4912109375
49524, -8.596546173095703, -1.8849403858184814, -2.428025245666504, 0.17537598311901093, 0.674759566783905, -48.43449401855469, 0.3707614839076996, 1.4245164394378662, -2.140249490737915, -0.6227319836616516, -0.9900327920913696, 0.10363806039094925, -1.6444746763782492, -1.4980920443174455, 0.7961271539986217, 9362.0, 30146.0, 35388.0, 9362.0, 8.370248794555664, -0.41754150390625, 0.3666449785232544, 0.4488948881626129, -0.0955609381198883, -0.016251543536782265, 0.9955431818962097, -0.04695339873433113, 0.09480094909667969, 1.503662109375, 1.517578125, 0.231689453125, 1.4912109375
49534, -8.598152160644531, -1.8888673782348633, -2.4234671592712402, 0.17910254001617432, 0.6890770196914673, -48.45590591430664, 0.37454816699028015, 1.4389703273773193, -2.141807794570923, -0.6227011680603027, -0.9900497794151306, 0.10357034206390381, -1.6599427195073357, -1.5506768838664584, 0.7486846381117304, 9362.0, 30146.0, 35388.0, 9362.0, 8.370248794555664, 0.10448836535215378, 0.29606544971466064, 0.30626431107521057, -0.0955609381198883, -0.016251543536782265, 0.9955431818962097, -0.04695339873433113, 0.09480094909667969, 1.503662109375, 1.517578125, 0.231689453125, 1.4970703125
49544, -8.596475601196289, -1.8917397260665894, -2.4208083152770996, 0.17910254001617432, 0.6890770196914673, -48.45590591430664, 0.37454816699028015, 1.4389703273773193, -2.141807794570923, -0.6226900219917297, -0.9900671243667603, 0.10356317460536957, -1.660440835927355, -1.5484718039557492, 0.7488887929732538, 9362.0, 30146.0, 35388.0, 9362.0, 8.370248794555664, 0.10448836535215378, 0.29606544971466064, 0.30626431107521057, -0.0955609381198883, -0.016251543536782265, 0.9955431818962097, -0.04695339873433113, 0.09480094909667969, 1.503662109375, 1.16455078125, 0.620697021484375, 1.4970703125
49554, -8.595732688903809, -1.894660234451294, -2.4192850589752197, 0.18666943907737732, 0.7181457877159119, -48.49877166748047, 0.382141649723053, 1.467897891998291, -2.1448276042938232, -0.6227186322212219, -0.990039050579071, 0.10355175286531448, -1.6696742762396293, -1.5531977571585571, 0.7333689740883297, 9362.0, 30146.0, 35388.0, 9362.0, 8.370248794555664, 0.24765104055404663, 0.4865127503871918, -0.0731087401509285, -0.0955609381198883, -0.016251543536782265, 0.9955431818962097, -0.04695339873433113, 0.09480094909667969, 1.503662109375, 1.52783203125, 0.253387451171875, 1.4970703125
