timeTick, roll, pitch, yaw, stateX, stateY, stateZ, stateVX, stateVY, stateVZ, otX0, otY0, otZ0, otRoll0, otPitch0, otYaw0, left wing, pitch motor, yaw motor, right wing, voltage, roll rate, pitch rate, yaw rate, A_x, A_y, A_z, current, i_raw, v_raw, airflow_voltage, airflow_speed, pot_Pitch
16900, 2.27217435836792, -2.2216670513153076, 0.8878955841064453, 0, 0, 0, 0, 0, 0, -0.4366213083267212, -0.9707132577896118, 0.09883967787027359, -1.3106087664728192, -1.255801749332619, 1.6649867718631575, 0, 0, 0, 0, 0, 0, 0, 0, 0, 0, 0, 0, 0, 0, 0, 0, 0
16910, 2.2712347507476807, -2.2194747924804688, 0.8894465565681458, -0.00031259810202755034, 0.0003101353067904711, -6.439939975738525, -0.029343176633119583, 0.02911216765642166, -0.8425730466842651, -0.4366370141506195, -0.9706974029541016, 0.09876406192779541, -1.3431295591641128, -1.2658120843300367, 1.670942856746784, 9362.0, 30146.0, 35388.0, 9362.0, 0, 0.020586255937814713, -0.2712739408016205, 0.07043109089136124, -0.11454524844884872, -0.03616461530327797, 0.9912645816802979, 0, 0, 0, 0, 0, 0
16920, 2.270270586013794, -2.2183542251586914, 0.8894052505493164, -0.0005868907319381833, 0.0005822654347866774, -6.448370456695557, -0.025515208020806313, 0.025313954800367355, -0.8435331583023071, -0.4366730749607086, -0.9707329273223877, 0.09878521412611008, -1.314596769722721, -1.2761937487594253, 1.653382303267677, 9362.0, 30146.0, 35388.0, 9362.0, 0, -0.0850784033536911, -0.4367670714855194, -0.1425653100013733, -0.11634060740470886, -0.036255113780498505, 0.9925219416618347, 0, 0, 0, 1.456787109375, 0.115966796875, 0
16930, 2.271167039871216, -2.219082832336426, 0.8890708684921265, -0.0008229187806136906, 0.0008164186147041619, -6.456810474395752, -0.021690385416150093, 0.021516669541597366, -0.844477653503418, -0.43661701679229736, -0.9707071185112, 0.09884767979383469, -1.3180211580335455, -1.2613437204400384, 1.6590358345010503, 9362.0, 30146.0, 35388.0, 9362.0, 0, 0.1287381947040558, 0.23278990387916565, 0.07609383761882782, -0.11483491957187653, -0.03695996478199959, 0.9945681095123291, 0, 0, 0, 1.7021484375, 0.67376708984375, 1.5
16940, 2.2718398571014404, -2.2196035385131836, 0.8894227743148804, -0.0010206735460087657, 0.0010125725530087948, -6.465259075164795, -0.017860613763332367, 0.017714107409119606, -0.8452461957931519, -0.4366622567176819, -0.9707189202308655, 0.09881513565778732, -1.3013087123890237, -1.2835209794457967, 1.6423656595281948, 9362.0, 30146.0, 35388.0, 9362.0, 0, -0.05956410989165306, -0.020057588815689087, -0.17741970717906952, -0.11405379325151443, -0.03707464784383774, 0.9912038445472717, 0, 0, 0, 1.591552734375, 0.3972320556640625, 1.5
16950, 2.2722887992858887, -2.2202401161193848, 0.8895854353904724, -0.0011801373912021518, 0.0011707061203196645, -6.473715782165527, -0.014032143168151379, 0.01391263771802187, -0.8460806012153625, -0.43662089109420776, -0.9707027673721313, 0.09884676337242126, -1.3186244659258577, -1.2623768695986257, 1.663498055621653, 9362.0, 30146.0, 35388.0, 9362.0, 0, -0.06511940062046051, 0.13747382164001465, -0.0029008383862674236, -0.1149255782365799, -0.03697047010064125, 0.993718683719635, 0, 0, 0, 1.638427734375, 0.510040283203125, 1.4970703125
16960, 2.2718889713287354, -2.2195284366607666, 0.8867020010948181, -0.001301321666687727, 0.0012908291537314653, -6.482181072235107, -0.010204709134995937, 0.010111975483596325, -0.8469643592834473, -0.43662044405937195, -0.970724880695343, 0.09885353595018387, -1.3174935941697516, -1.26675997921393, 1.6597400472916501, 9362.0, 30146.0, 35388.0, 9362.0, 0, -0.08689576387405396, 0.27662143111228943, -0.5079867839813232, -0.11360256373882294, -0.034963298588991165, 0.9920613169670105, 0, 0, 0, 1.60400390625, 0.4266204833984375, 1.4970703125
16970, 2.2724902629852295, -2.2184576988220215, 0.8838785886764526, -0.0013842098414897919, 0.001372925704345107, -6.490654945373535, -0.006373116280883551, 0.006307147443294525, -0.8477656841278076, -0.4366331398487091, -0.9707198143005371, 0.09882323443889618, -1.3180096209647894, -1.259200622232271, 1.6568387520720087, 9362.0, 30146.0, 35388.0, 9362.0, 0, 0.17473642528057098, -0.26148563623428345, 0.0942741259932518, -0.11338682472705841, -0.036149751394987106, 0.9905526041984558, 0, 0, 0, 1.39013671875, 0.0314483642578125, 1.49853515625
16980, 2.271474599838257, -2.219263792037964, 0.8853407502174377, -0.0014288373058661819, 0.0014170241774991155, -6.499137878417969, -0.0025525344535708427, 0.0025123637169599533, -0.8488116264343262, -0.4366580843925476, -0.9707227945327759, 0.09881030023097992, -1.3211574869859264, -1.2681657165897207, 1.653446596766711, 9362.0, 30146.0, 35388.0, 9362.0, 0, -0.0578494630753994, 0.3388306200504303, 0.3048778176307678, -0.11392506211996078, -0.03547649458050728, 0.9918878078460693, 0, 0, 0, 1.058349609375, 1.8621978759765625, 1.49853515625
16990, 2.2718420028686523, -2.222433567047119, 0.8864961266517639, -0.0014352708822116256, 0.0014231705572456121, -6.507631301879883, 0.001265908358618617, -0.0012829992920160294, -0.849867582321167, -0.43663570284843445, -0.9707233905792236, 0.09883350878953934, -1.3180449131799994, -1.2643500829286438, 1.659811082059054, 9362.0, 30146.0, 35388.0, 9362.0, 0, 0.14510397613048553, 0.3133595287799835, -0.2819920480251312, -0.11631698906421661, -0.03645411878824234, 0.9925578832626343, 0, 0, 0, 1.5087890625, 0.21337890625, 1.4912109375
17000, 2.2717180252075195, -2.2236692905426025, 0.8863872289657593, -0.0014034764608368278, 0.0013913364382460713, -6.516134262084961, 0.0050930180586874485, -0.005083757918328047, -0.8507388830184937, -0.43662768602371216, -0.9706822037696838, 0.09876161068677902, -1.3419044907841131, -1.2772808892239595, 1.6572909545510737, 9362.0, 30146.0, 35388.0, 9362.0, 8.152067184448242, 0.06443239003419876, 0.10870222747325897, 0.1626289039850235, -0.11497564613819122, -0.03620575740933418, 0.9909442663192749, -0.05093090981245041, -0.13815879821777344, 1.484619140625, 1.26123046875, 0.129302978515625, 1.4912109375
17010, 2.271547555923462, -2.2234175205230713, 0.8860716819763184, -0.0013334082905203104, 0.0013215169310569763, -6.524646759033203, 0.008920586667954922, -0.008880152367055416, -0.851735532283783, -0.4366288483142853, -0.970686137676239, 0.09880631417036057, -1.3344383858408868, -1.2742518389332531, 1.6481463314311162, 9362.0, 30146.0, 35388.0, 9362.0, 8.152067184448242, -0.009091421961784363, -0.29779502749443054, -0.63591068983078, -0.11542520672082901, -0.036133699119091034, 0.9909467101097107, -0.05093090981245041, -0.13815879821777344, 1.484619140625, 1.406982421875, 0.046966552734375, 1.48974609375
17020, 2.271258592605591, -2.2235488891601562, 0.8846107721328735, -0.0012250639265403152, 0.0012137445155531168, -6.533169269561768, 0.01274826005101204, -0.012674367055296898, -0.8527826070785522, -0.4366687834262848, -0.9707349538803101, 0.09876330941915512, -1.3182477787161004, -1.2829850319406546, 1.6484932116103794, 9362.0, 30146.0, 35388.0, 9362.0, 8.152067184448242, -0.22256489098072052, -0.05445239320397377, 0.014961425215005875, -0.11534212529659271, -0.03871607780456543, 0.9916328191757202, -0.05093090981245041, -0.13815879821777344, 1.484619140625, 1.259033203125, 0.135589599609375, 1.48974609375
17030, 2.270406723022461, -2.2253258228302, 0.8859835863113403, -0.0010784391779452562, 0.0010680253617465496, -6.5417022705078125, 0.01657659187912941, -0.016469573602080345, -0.8537997007369995, -0.4366401731967926, -0.9707151055335999, 0.09883147478103638, -1.3166715738944115, -1.2654457531448031, 1.658201285501208, 9362.0, 30146.0, 35388.0, 9362.0, 8.152067184448242, 0.04133561998605728, 0.22808945178985596, 0.2965349853038788, -0.11624951660633087, -0.038467444479465485, 0.9920353889465332, -0.05093090981245041, -0.13815879821777344, 1.484619140625, 1.58349609375, 0.3784332275390625, 1.494140625
17040, 2.2698652744293213, -2.226914882659912, 0.8862077593803406, -0.0008935097721405327, 0.0008843354880809784, -6.5502448081970215, 0.0204093586653471, -0.02026832476258278, -0.8547114133834839, -0.436653733253479, -0.9707317352294922, 0.0988122820854187, -1.3095323026968917, -1.2520814493043133, 1.6680593732764235, 9362.0, 30146.0, 35388.0, 9362.0, 8.152067184448242, 0.03925672173500061, 0.15809300541877747, -0.1304689645767212, -0.11490331590175629, -0.03687901794910431, 0.9916359782218933, -0.05093090981245041, -0.13815879821777344, 1.484619140625, 1.494873046875, 0.185455322265625, 1.494140625
17050, 2.2696340084075928, -2.2269091606140137, 0.8844358921051025, -0.0006702508544549346, 0.0006626796093769372, -6.5587968826293945, 0.024242402985692024, -0.024062851443886757, -0.855692446231842, -0.4366396963596344, -0.9707598090171814, 0.09885430335998535, -1.2888981043488514, -1.254398740252384, 1.6617440645467092, 9362.0, 30146.0, 35388.0, 9362.0, 8.152067184448242, -0.018237629905343056, 0.22044473886489868, -0.03032120130956173, -0.1150418221950531, -0.035857804119586945, 0.9916790127754211, -0.05093090981245041, -0.13815879821777344, 1.484619140625, 1.177001953125, 0.52899169921875, 1.491943359375
17060, 2.26993727684021, -2.2300586700439453, 0.8831959962844849, -0.00040863934555090964, 0.00040307469316758215, -6.567358493804932, 0.02807978168129921, -0.027858247980475426, -0.8566294312477112, -0.4367058575153351, -0.9707319140434265, 0.09875562787055969, -1.3013465612814639, -1.2719504490912925, 1.6419810556357832, 9362.0, 30146.0, 35388.0, 9362.0, 8.152067184448242, 0.2198832482099533, 0.10611326992511749, -0.09863024950027466, -0.1138828694820404, -0.03780804201960564, 0.9928826093673706, -0.05093090981245041, -0.13815879821777344, 1.484619140625, 1.21142578125, 0.3224945068359375, 1.491943359375
17070, 2.270418882369995, -2.2299692630767822, 0.8824553489685059, -0.00010866016964428127, 0.00010552254389040172, -6.575929641723633, 0.03191591054201126, -0.031652260571718216, -0.8575941324234009, -0.436693400144577, -0.9707596302032471, 0.09880141913890839, -1.278681194978209, -1.2686050640424469, 1.6456027968995146, 9362.0, 30146.0, 35388.0, 9362.0, 8.152067184448242, 0.2993922531604767, 0.23970545828342438, 0.35196927189826965, -0.11470319330692291, -0.03816244751214981, 0.991213321685791, -0.05093090981245041, -0.13815879821777344, 1.484619140625, 1.611328125, 0.44427490234375, 1.4970703125
17080, 2.271467924118042, -2.2313406467437744, 0.8831682205200195, 0.00022973024169914424, -0.0002299956977367401, -6.58450984954834, 0.03576212376356125, -0.03545143082737923, -0.8584392666816711, -0.43669623136520386, -0.9707374572753906, 0.09877853095531464, -1.292729272570465, -1.2655000476245277, 1.6431597886051759, 9362.0, 30146.0, 35388.0, 9362.0, 8.152067184448242, 0.02459551766514778, 0.1319173276424408, 0.010783025994896889, -0.1169484406709671, -0.03855753690004349, 0.9930412769317627, -0.05093090981245041, -0.13815879821777344, 1.484619140625, 1.597412109375, 0.4110870361328125, 1.4970703125
17090, 2.271758556365967, -2.232300281524658, 0.8836756944656372, 0.0006065539200790226, -0.0006034823600202799, -6.593099117279053, 0.039602622389793396, -0.03924582526087761, -0.859425961971283, -0.4366781413555145, -0.9707529544830322, 0.09881624579429626, -1.2877487765232534, -1.2690795736287441, 1.6416804714814222, 9362.0, 30146.0, 35388.0, 9362.0, 8.152067184448242, -0.06323974579572678, -0.3335992097854614, -0.057481277734041214, -0.11583239585161209, -0.03609253466129303, 0.9908480048179626, -0.05093090981245041, -0.13815879821777344, 1.484619140625, 1.576904296875, 0.36309814453125, 1.493408203125
17100, 2.272423505783081, -2.2342913150787354, 0.8851734399795532, 0.0010218153474852443, -0.0010149419540539384, -6.60169792175293, 0.043449677526950836, -0.04304605722427368, -0.8603077530860901, -0.43668487668037415, -0.9707485437393188, 0.09882941097021103, -1.2850429149433733, -1.260307548532893, 1.652591411333532, 9362.0, 30146.0, 35388.0, 9362.0, 8.152067184448242, 0.06922731548547745, 0.30953606963157654, 0.1273917853832245, -0.1160808652639389, -0.03589837998151779, 0.9920886754989624, -0.06271497905254364, -0.11127853393554688, 1.48681640625, 1.53662109375, 0.27239990234375, 1.493408203125
17110, 2.2726597785949707, -2.2357113361358643, 0.8854441046714783, 0.0014755302108824253, -0.001464380882680416, -6.610306262969971, 0.04729336127638817, -0.046841636300086975, -0.8613181114196777, -0.43662551045417786, -0.9707558155059814, 0.09889038652181625, -1.2865733899119272, -1.2517109725480964, 1.661317001820902, 9362.0, 30146.0, 35388.0, 9362.0, 8.152067184448242, 0.09277401864528656, 0.22652405500411987, 0.06466713547706604, -0.11488001048564911, -0.03727702423930168, 0.9929450154304504, -0.06271497905254364, -0.11127853393554688, 1.48681640625, 1.349853515625, 0.015350341796875, 1.49853515625
17120, 2.27236008644104, -2.2328975200653076, 0.8863004446029663, 0.001967719290405512, -0.0019518001936376095, -6.618924140930176, 0.05114445835351944, -0.05064220726490021, -0.862227737903595, -0.4366399347782135, -0.9707635641098022, 0.09884265810251236, -1.2910239869135762, -1.2505994139420693, 1.6600349369390057, 9362.0, 30146.0, 35388.0, 9362.0, 8.152067184448242, 0.12684260308742523, -0.2550337314605713, -0.060410648584365845, -0.11512577533721924, -0.03625938668847084, 0.9910369515419006, -0.06271497905254364, -0.11127853393554688, 1.48681640625, 1.20556640625, 0.3530731201171875, 1.49853515625
17130, 2.2739098072052, -2.231250762939453, 0.8879244923591614, 0.0024984346237033606, -0.0024772300384938717, -6.627551078796387, 0.05499871447682381, -0.05444370210170746, -0.8631216883659363, -0.4366925060749054, -0.9707531929016113, 0.09881826490163803, -1.286370851158597, -1.2567687169245971, 1.6525672831495044, 9362.0, 30146.0, 35388.0, 9362.0, 8.152067184448242, 0.1620360165834427, -0.40094438195228577, 0.08195580542087555, -0.11653073132038116, -0.03811768814921379, 0.9911286234855652, -0.06271497905254364, -0.11127853393554688, 1.48681640625, 1.5615234375, 0.3278350830078125, 1.493408203125
17140, 2.274535655975342, -2.2275779247283936, 0.887588620185852, 0.003067630110308528, -0.0030406340956687927, -6.636187553405762, 0.05884050205349922, -0.05823696777224541, -0.86421138048172, -0.4366456866264343, -0.970763087272644, 0.09883645176887512, -1.2873806566789903, -1.2480165097018983, 1.6651416979198288, 9362.0, 30146.0, 35388.0, 9362.0, 8.152067184448242, 0.1483134776353836, -0.35678112506866455, 0.31342965364456177, -0.11629445105791092, -0.035899385809898376, 0.9939481616020203, -0.06271497905254364, -0.11127853393554688, 1.48681640625, 1.57470703125, 0.3579864501953125, 1.493408203125
17150, 2.276292562484741, -2.2262697219848633, 0.8895197510719299, 0.003675276879221201, -0.003642029594630003, -6.644834041595459, 0.0626889020204544, -0.062042172998189926, -0.8650652170181274, -0.43663644790649414, -0.9707677960395813, 0.0988764688372612, -1.2902039260004692, -1.2539946698740039, 1.6619182555314427, 9362.0, 30146.0, 35388.0, 9362.0, 8.152067184448242, 0.17261359095573425, 0.07523714751005173, -0.07149378955364227, -0.11756362020969391, -0.0359315425157547, 0.9938243627548218, -0.06271497905254364, -0.11127853393554688, 1.48681640625, 1.2685546875, 0.1099395751953125, 1.49267578125
17160, 2.2759811878204346, -2.2259440422058105, 0.8922249674797058, 0.004321401473134756, -0.004281507804989815, -6.6534881591796875, 0.06653618812561035, -0.06585337966680527, -0.8657918572425842, -0.4365733563899994, -0.9706293940544128, 0.09905514866113663, -1.1995206566190804, -1.2754333241792324, 1.5477686081057798, 9362.0, 30146.0, 35388.0, 9362.0, 8.152067184448242, -0.00742515129968524, -0.17742228507995605, 0.20893993973731995, -0.11595743149518967, -0.03680934011936188, 0.9920910596847534, -0.06271497905254364, -0.11127853393554688, 1.48681640625, 1.5556640625, 0.3145904541015625, 1.49267578125
17170, 2.2767558097839355, -2.2255020141601562, 0.8961650729179382, 0.005005969200283289, -0.004959093406796455, -6.6621503829956055, 0.07037749886512756, -0.06966351717710495, -0.8666187524795532, -0.4365493059158325, -0.9705824851989746, 0.09906881302595139, -1.184745481123286, -1.2812618255512689, 1.4935748966456495, 9362.0, 30146.0, 35388.0, 9362.0, 8.152067184448242, -0.027977488934993744, 0.0981140211224556, 0.36592406034469604, -0.11466720700263977, -0.03575102984905243, 0.9916595220565796, -0.06271497905254364, -0.11127853393554688, 1.48681640625, 1.524169921875, 0.2455596923828125, 1.494873046875
17180, 2.2770931720733643, -2.224916934967041, 0.895821750164032, 0.005728921387344599, -0.005674750544130802, -6.670821189880371, 0.0742131918668747, -0.07346758246421814, -0.8675799369812012, -0.436551034450531, -0.9705518484115601, 0.09909548610448837, -1.1698118412302476, -1.2805043477826246, 1.4801376040952436, 9362.0, 30146.0, 35388.0, 9362.0, 8.152067184448242, 0.023104360327124596, -0.08199747651815414, -0.0030477019026875496, -0.1133919432759285, -0.03694836422801018, 0.9901536703109741, -0.06271497905254364, -0.11127853393554688, 1.48681640625, 0.92431640625, 5.0470123291015625, 1.494873046875
17190, 2.2768962383270264, -2.2227210998535156, 0.8956350684165955, 0.006490218453109264, -0.006428443361073732, -6.679502010345459, 0.07804614305496216, -0.07727101445198059, -0.8685920238494873, -0.4365692734718323, -0.9703196287155151, 0.0992259606719017, -1.1325225332881954, -1.2939293509121796, 1.37294861795474, 9362.0, 30146.0, 35388.0, 9362.0, 8.152067184448242, 0.1433587670326233, 0.027907947078347206, -0.015870824456214905, -0.11396083235740662, -0.03821079060435295, 0.9911820292472839, -0.06271497905254364, -0.11127853393554688, 1.48681640625, 1.546142578125, 0.2932891845703125, 1.494873046875
17200, 2.277820110321045, -2.2226550579071045, 0.8957001566886902, 0.007289816625416279, -0.007220150902867317, -6.6881937980651855, 0.08187354356050491, -0.08107049018144608, -0.8697203993797302, -0.4366447627544403, -0.970758855342865, 0.09886928647756577, -1.285096552252938, -1.2517344945749187, 1.6622020930897357, 9362.0, 30146.0, 35388.0, 9362.0, 8.152067184448242, 0.042039670050144196, -0.24226635694503784, -0.13446654379367828, -0.113911472260952, -0.03789771348237991, 0.992713212966919, -0.06634203344583511, -0.0037593841552734375, 1.49560546875, 1.604736328125, 0.428436279296875, 1.494873046875
17210, 2.2769882678985596, -2.221500873565674, 0.8960499167442322, 0.00812771636992693, -0.00804989691823721, -6.696895599365234, 0.08570633828639984, -0.08487877994775772, -0.8706167340278625, -0.4366176724433899, -0.9703402519226074, 0.09924578666687012, -1.1173656685467876, -1.3143429757525382, 1.3656171133373876, 9362.0, 30146.0, 35388.0, 9362.0, 8.152067184448242, -0.15663868188858032, 0.30005574226379395, 0.10955072194337845, -0.11663922667503357, -0.03585110977292061, 0.9916035532951355, -0.06634203344583511, -0.0037593841552734375, 1.49560546875, 1.29052734375, 0.06378173828125, 1.49560546875
17220, 2.2767066955566406, -2.2227399349212646, 0.8969880938529968, 0.009003926068544388, -0.008917716331779957, -6.705606460571289, 0.08953557163476944, -0.08868513256311417, -0.8716020584106445, -0.43657276034355164, -0.9703329205513, 0.09925371408462524, -1.1142001712088943, -1.3137756330220327, 1.3722855185446636, 9362.0, 30146.0, 35388.0, 9362.0, 8.152067184448242, -0.06151935085654259, 0.06647218018770218, -0.06782931834459305, -0.11604472994804382, -0.03720063716173172, 0.9929751753807068, -0.06634203344583511, -0.0037593841552734375, 1.49560546875, 1.048828125, 2.02093505859375, 1.49560546875
17230, 2.2755253314971924, -2.222170829772949, 0.8983796238899231, 0.009918448515236378, -0.009823623113334179, -6.714326858520508, 0.0933690220117569, -0.09249617159366608, -0.8724313378334045, -0.43662649393081665, -0.9703350067138672, 0.09921664744615555, -1.1154201227248952, -1.3215884147454915, 1.3683649067035233, 9362.0, 30146.0, 35388.0, 9362.0, 8.152067184448242, -0.08838248252868652, 0.02994799241423607, 0.04552307352423668, -0.11302774399518967, -0.03638188913464546, 0.9884541630744934, -0.06634203344583511, -0.0037593841552734375, 1.49560546875, 1.056884765625, 1.886077880859375, 1.4970703125
17240, 2.277555465698242, -2.2210137844085693, 0.8980237245559692, 0.010871266946196556, -0.010767588391900063, -6.723056793212891, 0.09719470143318176, -0.09629669040441513, -0.8735130429267883, -0.43656817078590393, -0.9703322052955627, 0.09927663207054138, -1.118863830081638, -1.3141511839010036, 1.365160430204215, 9362.0, 30146.0, 35388.0, 9362.0, 8.152067184448242, 0.03440580517053604, -0.04616227746009827, -0.13400474190711975, -0.11197002977132797, -0.037395231425762177, 0.9919438362121582, -0.06634203344583511, -0.0037593841552734375, 1.49560546875, 1.44873046875, 0.102813720703125, 1.4970703125
17250, 2.276425838470459, -2.220869302749634, 0.9010707139968872, 0.011862318031489849, -0.011749529279768467, -6.731797695159912, 0.10101554542779922, -0.10009141266345978, -0.8746918439865112, -0.43657028675079346, -0.9703241586685181, 0.0992814153432846, -1.1207232740793591, -1.2996162203932045, 1.3703434925249112, 9362.0, 30146.0, 35388.0, 9362.0, 8.152067184448242, -0.2038951963186264, -0.060783468186855316, 0.4870612919330597, -0.11435822397470474, -0.036078404635190964, 0.993135392665863, -0.06634203344583511, -0.0037593841552734375, 1.49560546875, 1.49853515625, 0.1927032470703125, 1.49267578125
17260, 2.275296449661255, -2.223844289779663, 0.9012930393218994, 0.012891632504761219, -0.012769498862326145, -6.740549087524414, 0.10484758764505386, -0.10390227288007736, -0.8755431175231934, -0.4365631341934204, -0.9703235626220703, 0.09928900003433228, -1.1155680005228163, -1.3019201144425097, 1.36664793494112, 9362.0, 30146.0, 35388.0, 9362.0, 8.152067184448242, 0.029189391061663628, 0.29259219765663147, -0.16101577877998352, -0.11518280953168869, -0.03743942081928253, 0.9911037087440491, -0.06634203344583511, -0.0037593841552734375, 1.49560546875, 1.613525390625, 0.44940185546875, 1.49267578125
17270, 2.2749016284942627, -2.2258999347686768, 0.901184618473053, 0.013959256000816822, -0.013827554881572723, -6.749309062957764, 0.10867708921432495, -0.10770899802446365, -0.8764516711235046, -0.43660998344421387, -0.9705612659454346, 0.09902257472276688, -1.17915654849565, -1.2889298933248483, 1.4663424458653531, 9362.0, 30146.0, 35388.0, 9362.0, 8.152067184448242, -0.25509265065193176, -0.030685080215334892, -0.15150153636932373, -0.11592470854520798, -0.03622649237513542, 0.9925729036331177, -0.06634203344583511, -0.0037593841552734375, 1.49560546875, 1.6171875, 0.4583282470703125, 1.497802734375
17280, 2.2748024463653564, -2.225614070892334, 0.9004935622215271, 0.015065187588334084, -0.014923656359314919, -6.758078575134277, 0.11250919103622437, -0.11151131242513657, -0.877420961856842, -0.43660151958465576, -0.9706056714057922, 0.0990436002612114, -1.181555958445029, -1.2892332420544221, 1.4916403977089787, 9362.0, 30146.0, 35388.0, 9362.0, 8.152067184448242, -0.022762401029467583, 0.265247642993927, -0.07687868922948837, -0.11614593118429184, -0.03554143011569977, 0.9935486316680908, -0.06634203344583511, -0.0037593841552734375, 1.49560546875, 1.2099609375, 0.329986572265625, 1.497802734375
17290, 2.2748448848724365, -2.2238917350769043, 0.900915801525116, 0.01620948500931263, -0.016057806089520454, -6.766857147216797, 0.1163504347205162, -0.11531855911016464, -0.8782468438148499, -0.4366532862186432, -0.9707517027854919, 0.0988796204328537, -1.2883846309937028, -1.2531969313953368, 1.6580849934190427, 9362.0, 30146.0, 35388.0, 9362.0, 8.152067184448242, -0.052574895322322845, -0.22142387926578522, -0.3292849361896515, -0.11553483456373215, -0.03753658011555672, 0.9932907223701477, -0.06634203344583511, -0.0037593841552734375, 1.49560546875, 1.074462890625, 1.6134033203125, 1.494873046875
17300, 2.2751431465148926, -2.2232840061187744, 0.9000927209854126, 0.017392221838235855, -0.01723005622625351, -6.7756428718566895, 0.12019702047109604, -0.11913136392831802, -0.8789259195327759, -0.436638206243515, -0.9707463979721069, 0.09886669367551804, -1.2880507165957147, -1.2505266895048521, 1.6627489317316861, 9362.0, 30146.0, 35388.0, 9362.0, 8.152067184448242, 0.14071020483970642, 0.11118785291910172, 0.0649903416633606, -0.11524404585361481, -0.03643064945936203, 0.9915897250175476, -0.0562126561999321, -0.07543754577636719, 1.48974609375, 1.49560546875, 0.1868743896484375, 1.494873046875
17310, 2.2766919136047363, -2.225395679473877, 0.9003934860229492, 0.018613358959555626, -0.018440384417772293, -6.7844367027282715, 0.12403036653995514, -0.12293419986963272, -0.8798643350601196, -0.4366961121559143, -0.9707686305046082, 0.09881289303302765, -1.288422822603959, -1.2627167508697994, 1.6643541194000506, 9362.0, 30146.0, 35388.0, 9362.0, 8.152067184448242, -0.12441229820251465, 0.0005343491793610156, -0.04184615612030029, -0.11443409323692322, -0.03657883405685425, 0.9931523203849792, -0.0562126561999321, -0.07543754577636719, 1.48974609375, 1.313232421875, 0.0333251953125, 1.50146484375
17320, 2.275975465774536, -2.225238561630249, 0.900048017501831, 0.01987283118069172, -0.019688749685883522, -6.793240070343018, 0.12786410748958588, -0.12673893570899963, -0.8807663917541504, -0.4366339445114136, -0.9707533121109009, 0.09886299818754196, -1.2894244439880171, -1.249849352248873, 1.6644472085197946, 9362.0, 30146.0, 35388.0, 9362.0, 8.152067184448242, 0.10601557791233063, 0.2093818634748459, 0.05061640217900276, -0.11225563287734985, -0.03487313166260719, 0.990602433681488, -0.0562126561999321, -0.07543754577636719, 1.48974609375, 1.62158203125, 0.46893310546875, 1.50146484375
17330, 2.277221918106079, -2.226051092147827, 0.900073766708374, 0.021170662716031075, -0.020975179970264435, -6.802052021026611, 0.13170228898525238, -0.13054710626602173, -0.8816486597061157, -0.4366362988948822, -0.9707566499710083, 0.0988529846072197, -1.285471685698972, -1.2549064965533887, 1.6554182672260251, 9362.0, 30146.0, 35388.0, 9362.0, 8.152067184448242, 0.030013352632522583, 0.07180823385715485, 0.07774510234594345, -0.11414207518100739, -0.036456748843193054, 0.9914646148681641, -0.0562126561999321, -0.07543754577636719, 1.48974609375, 1.65966796875, 0.5630340576171875, 1.496337890625
17340, 2.2777857780456543, -2.226346731185913, 0.901090681552887, 0.022506840527057648, -0.02229965291917324, -6.810873985290527, 0.135533407330513, -0.13434727489948273, -0.8827018737792969, -0.4366336762905121, -0.9707494378089905, 0.09885534644126892, -1.288222698586173, -1.2457652442074334, 1.6698352071901423, 9362.0, 30146.0, 35388.0, 9362.0, 8.152067184448242, 0.1916339248418808, -0.3180723190307617, -0.14001375436782837, -0.11504656076431274, -0.0368880070745945, 0.9922757148742676, -0.0562126561999321, -0.07543754577636719, 1.48974609375, 1.14111328125, 0.8206024169921875, 1.496337890625
17350, 2.27781343460083, -2.2272794246673584, 0.9004570841789246, 0.02388136088848114, -0.023662161082029343, -6.819705486297607, 0.13937072455883026, -0.13815417885780334, -0.8836368918418884, -0.43669363856315613, -0.9707301259040833, 0.09877196699380875, -1.2975846045999566, -1.2706477411892365, 1.656981090481083, 9362.0, 30146.0, 35388.0, 9362.0, 8.152067184448242, -0.05462861433625221, 0.33415183424949646, 0.28613513708114624, -0.11478446424007416, -0.038226138800382614, 0.991854190826416, -0.0562126561999321, -0.07543754577636719, 1.48974609375, 1.3857421875, 0.0280914306640625, 1.50146484375
17360, 2.2781155109405518, -2.22760272026062, 0.9018348455429077, 0.025294259190559387, -0.025062745437026024, -6.828546524047852, 0.14320902526378632, -0.14196264743804932, -0.8845565915107727, -0.4366418719291687, -0.9707409739494324, 0.09888207912445068, -1.2910616084504531, -1.2574021780030762, 1.6667491528680265, 9362.0, 30146.0, 35388.0, 9362.0, 8.152067184448242, 0.13493725657463074, 0.0900198295712471, 0.11717624962329865, -0.1142246425151825, -0.03687578812241554, 0.9929347634315491, -0.0562126561999321, -0.07543754577636719, 1.48974609375, 1.078125, 1.5602264404296875, 1.50146484375
17370, 2.279327392578125, -2.2268483638763428, 0.903143048286438, 0.026745550334453583, -0.02650141529738903, -6.837396621704102, 0.14704923331737518, -0.14577123522758484, -0.8854717016220093, -0.43662652373313904, -0.970745861530304, 0.09889808297157288, -1.2873615751220076, -1.2543388765568864, 1.6647091452634009, 9362.0, 30146.0, 35388.0, 9362.0, 8.152067184448242, 0.28218162059783936, 0.028073998168110847, 0.23268403112888336, -0.11350597441196442, -0.03686072304844856, 0.9935911893844604, -0.0562126561999321, -0.07543754577636719, 1.48974609375, 1.4384765625, 0.0871429443359375, 1.4912109375
17380, 2.2797975540161133, -2.2251696586608887, 0.9046614766120911, 0.028235267847776413, -0.027978194877505302, -6.846255302429199, 0.15089447796344757, -0.1495845466852188, -0.886276364326477, -0.43669942021369934, -0.9707624316215515, 0.09876780956983566, -1.2947736749921952, -1.2589735146551675, 1.6522152722168035, 9362.0, 30146.0, 35388.0, 9362.0, 8.152067184448242, 0.06836938858032227, -0.006506161764264107, -0.007059955038130283, -0.11345290392637253, -0.03778499364852905, 0.9939192533493042, -0.0562126561999321, -0.07543754577636719, 1.48974609375, 1.660400390625, 0.5649566650390625, 1.4912109375
17390, 2.2806882858276367, -2.227293014526367, 0.9059526920318604, 0.028235267847776413, -0.027978194877505302, -6.846255302429199, 0.15089447796344757, -0.1495845466852188, -0.886276364326477, -0.43663346767425537, -0.9707571864128113, 0.09887976199388504, -1.2899539159652131, -1.2555386120917262, 1.6635574098304924, 9362.0, 30146.0, 35388.0, 9362.0, 8.152067184448242, 0.054135262966156006, -0.1895880252122879, -0.05785025656223297, -0.11167151480913162, -0.035377126187086105, 0.9934608340263367, -0.0562126561999321, -0.07543754577636719, 1.48974609375, 1.562255859375, 0.329437255859375, 1.494873046875
17410, 2.2812671661376953, -2.224449634552002, 0.9091135859489441, 0.028235267847776413, -0.027978194877505302, -6.846255302429199, 0.15089447796344757, -0.1495845466852188, -0.886276364326477, -0.4366586208343506, -0.9707474708557129, 0.09885537624359131, -1.274751428666552, -1.2571379677631853, 1.6526881671854028, 9362.0, 30146.0, 35388.0, 9362.0, 8.152067184448242, -0.015146277844905853, -0.1272086501121521, -0.07580436766147614, -0.11524410545825958, -0.03677132725715637, 0.9921890497207642, -0.0562126561999321, -0.07543754577636719, 1.48974609375, 1.562255859375, 0.329437255859375, 1.49560546875
17420, 2.2810230255126953, -2.2259957790374756, 0.9084258079528809, 0.03457856550812721, -0.03426691144704819, -6.881769180297852, 0.16626937687397003, -0.16485066711902618, -0.8895137310028076, -0.43667906522750854, -0.9707463979721069, 0.09883575141429901, -1.2760819156940046, -1.2635219935097552, 1.6474829073432853, 9362.0, 30146.0, 35388.0, 9362.0, 8.152067184448242, -0.07523620128631592, -0.053808920085430145, 0.5102763175964355, -0.11524410545825958, -0.03677132725715637, 0.9921890497207642, -0.0562126561999321, -0.07543754577636719, 1.48974609375, 1.562255859375, 0.329437255859375, 1.49560546875
17430, 2.281092405319214, -2.2235844135284424, 0.9116131067276001, 0.03457856550812721, -0.03426691144704819, -6.881769180297852, 0.16626937687397003, -0.16485066711902618, -0.8895137310028076, -0.43670323491096497, -0.9707232713699341, 0.09874581545591354, -1.289924655653063, -1.2650991177592914, 1.6453920787239524, 9362.0, 30146.0, 35388.0, 9362.0, 8.152067184448242, -0.188968688249588, -0.15421311557292938, 0.24652975797653198, -0.11803144216537476, -0.03573549911379814, 0.9910298585891724, -0.0562126561999321, -0.07543754577636719, 1.48974609375, 1.562255859375, 0.329437255859375, 1.49560546875
17440, 2.2816333770751953, -2.221590042114258, 0.914595365524292, 0.03457856550812721, -0.03426691144704819, -6.881769180297852, 0.16626937687397003, -0.16485066711902618, -0.8895137310028076, -0.4366610050201416, -0.9707618951797485, 0.09881716221570969, -1.2807883186160265, -1.240373687101652, 1.6623441383996858, 9362.0, 30146.0, 35388.0, 9362.0, 8.152067184448242, 0.11211143434047699, -0.37593522667884827, 0.02311776578426361, -0.11080488562583923, -0.0348934568464756, 0.9923168420791626, -0.0562126561999321, -0.07543754577636719, 1.48974609375, 1.562255859375, 0.329437255859375, 1.49560546875
17450, 2.2823548316955566, -2.22084379196167, 0.9184398055076599, 0.03457856550812721, -0.03426691144704819, -6.881769180297852, 0.16626937687397003, -0.16485066711902618, -0.8895137310028076, -0.4366976022720337, -0.9707814455032349, 0.09879934042692184, -1.2566780182475816, -1.2352896988639657, 1.640956574874792, 9362.0, 30146.0, 35388.0, 9362.0, 8.152067184448242, -0.019203707575798035, 0.023533377796411514, 0.4492867887020111, -0.11259330809116364, -0.03551621735095978, 0.992597222328186, -0.0562126561999321, -0.07543754577636719, 1.48974609375, 1.562255859375, 0.329437255859375, 1.49560546875
17460, 2.2828283309936523, -2.2198121547698975, 0.9207059144973755, 0.03457856550812721, -0.03426691144704819, -6.881769180297852, 0.16626937687397003, -0.16485066711902618, -0.8895137310028076, -0.43664705753326416, -0.970791757106781, 0.09892376512289047, -1.2571233041658052, -1.2677930310090346, 1.6461421808309125, 9362.0, 30146.0, 35388.0, 9362.0, 8.152067184448242, -0.2381441444158554, -0.44274264574050903, 0.2772773504257202, -0.11447802186012268, -0.03820682317018509, 0.993071436882019, -0.0562126561999321, -0.07543754577636719, 1.48974609375, 1.562255859375, 0.329437255859375, 1.49560546875
17480, 2.2805514335632324, -2.218886613845825, 0.9216601252555847, 0.04524519294500351, -0.04484458267688751, -6.935301780700684, 0.18927404284477234, -0.18774034082889557, -0.8949148654937744, -0.4366055727005005, -0.970788836479187, 0.09895013272762299, -1.269171030777936, -1.2581372330429588, 1.6697062899263908, 9362.0, 30146.0, 35388.0, 9362.0, 8.152067184448242, -0.03441869840025902, 0.15324847400188446, 0.3694643974304199, -0.11507751047611237, -0.035507604479789734, 0.9935054183006287, -0.0562126561999321, -0.07543754577636719, 1.48974609375, 1.562255859375, 0.329437255859375, 1.49560546875
17490, 2.2809600830078125, -2.215538263320923, 0.9242137670516968, 0.04524519294500351, -0.04484458267688751, -6.935301780700684, 0.18927404284477234, -0.18774034082889557, -0.8949148654937744, -0.4366048276424408, -0.9707845449447632, 0.09893900156021118, -1.2644325470210886, -1.262977064360058, 1.664861966503985, 9362.0, 30146.0, 35388.0, 9362.0, 8.152067184448242, 0.03387194499373436, -0.5080279111862183, 0.07321414351463318, -0.11653751134872437, -0.03497801721096039, 0.9942019581794739, -0.0562126561999321, -0.07543754577636719, 1.48974609375, 1.562255859375, 0.329437255859375, 1.494873046875
17500, 2.28025484085083, -2.216172456741333, 0.925584077835083, 0.04524519294500351, -0.04484458267688751, -6.935301780700684, 0.18927404284477234, -0.18774034082889557, -0.8949148654937744, -0.4366088807582855, -0.9707855582237244, 0.09894150495529175, -1.257294734249093, -1.2569652392131445, 1.664984615243114, 9362.0, 30146.0, 35388.0, 9362.0, 8.152067184448242, 0.03387194499373436, -0.5080279111862183, 0.07321414351463318, -0.11199378967285156, -0.03652659058570862, 0.9936967492103577, -0.0562126561999321, -0.07543754577636719, 1.48974609375, 1.562255859375, 0.329437255859375, 1.494873046875
17510, 2.280266046524048, -2.219067335128784, 0.9260641932487488, 0.04524519294500351, -0.04484458267688751, -6.935301780700684, 0.18927404284477234, -0.18774034082889557, -0.8949148654937744, -0.43654361367225647, -0.9706265926361084, 0.09915345162153244, -1.1645921861683155, -1.2922116869896172, 1.5124385608431805, 9362.0, 30146.0, 35388.0, 9362.0, 8.152067184448242, -0.19591732323169708, 0.21538420021533966, -0.27454641461372375, -0.11199378967285156, -0.03652659058570862, 0.9936967492103577, -0.0562126561999321, -0.07543754577636719, 1.48974609375, 1.562255859375, 0.329437255859375, 1.494873046875
17520, 2.280611038208008, -2.2195663452148438, 0.927051842212677, 0.053122587502002716, -0.0526595264673233, -6.971162796020508, 0.20459268987178802, -0.2030077874660492, -0.8980932831764221, -0.4366035461425781, -0.9703624248504639, 0.09929937869310379, -1.0811664582350147, -1.3369555764159884, 1.354432770080427, 9362.0, 30146.0, 35388.0, 9362.0, 8.152067184448242, -0.026736348867416382, 0.028770780190825462, 0.22733768820762634, -0.11491093039512634, -0.0362909771502018, 0.9926698803901672, -0.0562126561999321, -0.07543754577636719, 1.48974609375, 1.562255859375, 0.329437255859375, 1.494873046875
17540, 2.2812650203704834, -2.2196969985961914, 0.9280385375022888, 0.05729098618030548, -0.056795891374349594, -6.989143371582031, 0.21224738657474518, -0.21062856912612915, -0.8999808430671692, -0.43660056591033936, -0.9703654050827026, 0.09926806390285492, -1.081329293604471, -1.3545079866987066, 1.3551982895904293, 9362.0, 30146.0, 35388.0, 9362.0, 8.152067184448242, 0.20544852316379547, 0.41422978043556213, -0.2097642719745636, -0.11435823887586594, -0.03538355976343155, 0.9908246397972107, -0.0562126561999321, -0.07543754577636719, 1.48974609375, 1.017333984375, 2.612091064453125, 1.494873046875
17550, 2.279723644256592, -2.2220795154571533, 0.9284096360206604, 0.05729098618030548, -0.056795891374349594, -6.989143371582031, 0.21224738657474518, -0.21062856912612915, -0.8999808430671692, -0.43654412031173706, -0.9703525900840759, 0.09935604780912399, -1.0882180955324336, -1.3299048233608914, 1.3606697526937641, 9362.0, 30146.0, 35388.0, 9362.0, 8.152067184448242, -0.12476656585931778, 0.31018295884132385, 0.030462730675935745, -0.11458729207515717, -0.03553016856312752, 0.9927401542663574, -0.0562126561999321, -0.07543754577636719, 1.48974609375, 1.017333984375, 2.612091064453125, 1.49560546875
17560, 2.2791085243225098, -2.2231335639953613, 0.9253170490264893, 0.05729098618030548, -0.056795891374349594, -6.989143371582031, 0.21224738657474518, -0.21062856912612915, -0.8999808430671692, -0.4365430474281311, -0.9703565835952759, 0.09935516864061356, -1.0925252232112224, -1.3270718906454988, 1.370315344004753, 9362.0, 30146.0, 35388.0, 9362.0, 8.152067184448242, -0.06958220154047012, 0.1273985207080841, -0.16642771661281586, -0.11458729207515717, -0.03553016856312752, 0.9927401542663574, -0.0562126561999321, -0.07543754577636719, 1.48974609375, 1.017333984375, 2.612091064453125, 1.49560546875
17570, 2.2786035537719727, -2.2202720642089844, 0.924396276473999, 0.05729098618030548, -0.056795891374349594, -6.989143371582031, 0.21224738657474518, -0.21062856912612915, -0.8999808430671692, -0.43653565645217896, -0.9703642129898071, 0.09936057031154633, -1.0869952831537975, -1.3312801997082317, 1.3697863236204804, 9362.0, 30146.0, 35388.0, 9362.0, 8.152067184448242, -0.06404559314250946, 0.02608601562678814, -0.045880768448114395, -0.11588150262832642, -0.036857202649116516, 0.9908036589622498, -0.0562126561999321, -0.07543754577636719, 1.48974609375, 1.017333984375, 2.612091064453125, 1.49560546875
17610, 2.278482675552368, -2.2277538776397705, 0.9219288229942322, 0.07071497291326523, -0.07011913508176804, -7.04331636428833, 0.23521463572978973, -0.23346804082393646, -0.9059638381004333, -0.43653130531311035, -0.9703570008277893, 0.09935003519058228, -1.0834845047930013, -1.3338875271231814, 1.3583241563570088, 9362.0, 30146.0, 35388.0, 9362.0, 8.152067184448242, -0.08239483088254929, 0.11287785321474075, -0.13414065539836884, -0.11428873986005783, -0.03672102838754654, 0.9914879202842712, -0.04804166406393051, 0.07688140869140625, 1.502197265625, 1.017333984375, 2.612091064453125, 1.496337890625
17620, 2.2788214683532715, -2.2305593490600586, 0.9193172454833984, 0.07071497291326523, -0.07011913508176804, -7.04331636428833, 0.23521463572978973, -0.23346804082393646, -0.9059638381004333, -0.43654701113700867, -0.9703518152236938, 0.09930094331502914, -1.0992755394021245, -1.330948068268782, 1.36925668902273, 9362.0, 30146.0, 35388.0, 9362.0, 8.152067184448242, 0.12553034722805023, 0.6996769309043884, -0.12055636197328568, -0.11343733966350555, -0.03721725568175316, 0.9924149513244629, -0.04804166406393051, 0.07688140869140625, 1.502197265625, 1.017333984375, 2.612091064453125, 1.496337890625
17630, 2.280758857727051, -2.2332355976104736, 0.9163417816162109, 0.07071497291326523, -0.07011913508176804, -7.04331636428833, 0.23521463572978973, -0.23346804082393646, -0.9059638381004333, -0.4367333948612213, -0.9704291224479675, 0.09902272373437881, -1.0873886772528358, -1.2344109834760957, 1.3642452801893588, 9362.0, 30146.0, 35388.0, 9362.0, 8.152067184448242, -0.03751140087842941, 0.16200122237205505, -0.1447245180606842, -0.11305412650108337, -0.03627979755401611, 0.9900575876235962, -0.04804166406393051, 0.07688140869140625, 1.502197265625, 1.017333984375, 2.612091064453125, 1.49853515625
17640, 2.28023362159729, -2.236328363418579, 0.9165810346603394, 0.07071497291326523, -0.07011913508176804, -7.04331636428833, 0.23521463572978973, -0.23346804082393646, -0.9059638381004333, -0.4365549087524414, -0.9703769087791443, 0.09932887554168701, -1.0770713371656078, -1.3377359799127646, 1.3594058727118548, 9362.0, 30146.0, 35388.0, 9362.0, 8.152067184448242, 0.05813745781779289, 0.3089980185031891, -0.09453043341636658, -0.11630334705114365, -0.03659220039844513, 0.9920145869255066, -0.04804166406393051, 0.07688140869140625, 1.502197265625, 1.017333984375, 2.612091064453125, 1.49853515625
17650, 2.2805533409118652, -2.238973379135132, 0.9174342751502991, 0.07071497291326523, -0.07011913508176804, -7.04331636428833, 0.23521463572978973, -0.23346804082393646, -0.9059638381004333, -0.4367225766181946, -0.9704330563545227, 0.09903624653816223, -1.07850272514475, -1.2526018081656503, 1.3614290348949794, 9362.0, 30146.0, 35388.0, 9362.0, 8.152067184448242, -0.028296099975705147, 0.06688642501831055, -0.355760395526886, -0.11529425531625748, -0.03639933094382286, 0.9914857745170593, -0.04804166406393051, 0.07688140869140625, 1.502197265625, 1.017333984375, 2.612091064453125, 1.49853515625
17660, 2.2795135974884033, -2.2405707836151123, 0.9153566956520081, 0.08551986515522003, -0.08481331914663315, -7.097825050354004, 0.25829416513442993, -0.2563326060771942, -0.9112778902053833, -0.4366663694381714, -0.9704322218894958, 0.09911981970071793, -1.0696382573043526, -1.2458511089541275, 1.3737301568151845, 9362.0, 30146.0, 35388.0, 9362.0, 8.152067184448242, -0.06617336720228195, 0.09341782331466675, -0.31781506538391113, -0.11529425531625748, -0.03639933094382286, 0.9914857745170593, -0.04804166406393051, 0.07688140869140625, 1.502197265625, 1.017333984375, 2.612091064453125, 1.49853515625
17670, 2.2806169986724854, -2.2428841590881348, 0.9129005074501038, 0.08551986515522003, -0.08481331914663315, -7.097825050354004, 0.25829416513442993, -0.2563326060771942, -0.9112778902053833, -0.43670153617858887, -0.9704250693321228, 0.09911099821329117, -1.0816110818205713, -1.2649901015602438, 1.3667595830477388, 9362.0, 30146.0, 35388.0, 9362.0, 8.152067184448242, 0.07197480648756027, 0.6073125600814819, -0.09112699329853058, -0.11540491133928299, -0.03771471977233887, 0.9918487071990967, -0.04804166406393051, 0.07688140869140625, 1.502197265625, 1.017333984375, 2.612091064453125, 1.493408203125
17680, 2.2810239791870117, -2.2446177005767822, 0.9153778553009033, 0.08551986515522003, -0.08481331914663315, -7.097825050354004, 0.25829416513442993, -0.2563326060771942, -0.9112778902053833, -0.43669939041137695, -0.9704175591468811, 0.09909293055534363, -1.0740982865661344, -1.273142825653963, 1.3638254245838544, 9362.0, 30146.0, 35388.0, 9362.0, 8.152067184448242, -0.06310441344976425, -0.038175880908966064, 0.22156886756420135, -0.11465100944042206, -0.03604002669453621, 0.9943895936012268, -0.04804166406393051, 0.07688140869140625, 1.502197265625, 1.017333984375, 2.612091064453125, 1.493408203125
17710, 2.28074049949646, -2.2480404376983643, 0.9176570177078247, 0.09616046398878098, -0.0953712910413742, -7.1343560218811035, 0.27375516295433044, -0.27157771587371826, -0.9149893522262573, -0.43665510416030884, -0.9704194664955139, 0.09913299977779388, -1.0785605437639072, -1.2572256599966067, 1.3728153984123659, 9362.0, 30146.0, 35388.0, 9362.0, 8.152067184448242, -0.18810847401618958, -0.04434872791171074, 0.0021289740689098835, -0.1155828908085823, -0.03573213517665863, 0.9928288459777832, -0.08103621006011963, -0.08439826965332031, 1.489013671875, 1.017333984375, 2.612091064453125, 1.49560546875
17720, 2.2812061309814453, -2.2487287521362305, 0.9186519384384155, 0.09616046398878098, -0.0953712910413742, -7.1343560218811035, 0.27375516295433044, -0.27157771587371826, -0.9149893522262573, -0.43669992685317993, -0.9704400897026062, 0.09908735007047653, -1.0767429364008456, -1.2677906559302983, 1.3680610748648026, 9362.0, 30146.0, 35388.0, 9362.0, 8.152067184448242, -0.010114178992807865, -0.17359113693237305, 0.085284024477005, -0.1155828908085823, -0.03573213517665863, 0.9928288459777832, -0.08103621006011963, -0.08439826965332031, 1.489013671875, 1.017333984375, 2.612091064453125, 1.49560546875
17730, 2.281911611557007, -2.246941328048706, 0.9194685816764832, 0.09616046398878098, -0.0953712910413742, -7.1343560218811035, 0.27375516295433044, -0.27157771587371826, -0.9149893522262573, -0.4367050230503082, -0.9704347252845764, 0.09906041622161865, -1.0730563018957955, -1.272280092220882, 1.3668257263341326, 9362.0, 30146.0, 35388.0, 9362.0, 8.152067184448242, 0.05614724010229111, -0.12570862472057343, 0.31146979331970215, -0.11455358564853668, -0.037819184362888336, 0.9923421144485474, -0.08103621006011963, -0.08439826965332031, 1.489013671875, 1.59375, 0.4024658203125, 1.49560546875
17740, 2.282346248626709, -2.2452545166015625, 0.9198026061058044, 0.10742071270942688, -0.10653938353061676, -7.1710286140441895, 0.28925836086273193, -0.28682562708854675, -0.9186955690383911, -0.43671247363090515, -0.9704333543777466, 0.09906930476427078, -1.0708595092859146, -1.2720693384287642, 1.3631966512300182, 9362.0, 30146.0, 35388.0, 9362.0, 8.152067184448242, -0.01634327694773674, -0.04514539986848831, -0.07663045823574066, -0.11465819925069809, -0.03742466866970062, 0.9919408559799194, -0.08103621006011963, -0.08439826965332031, 1.489013671875, 1.587890625, 0.38861083984375, 1.49560546875
17750, 2.281795024871826, -2.2452917098999023, 0.9193308353424072, 0.10742071270942688, -0.10653938353061676, -7.1710286140441895, 0.28925836086273193, -0.28682562708854675, -0.9186955690383911, -0.4366401433944702, -0.9704101085662842, 0.099140465259552, -1.082388839125549, -1.2550664894619104, 1.374944145888513, 9362.0, 30146.0, 35388.0, 9362.0, 8.152067184448242, -0.032109335064888, -0.23791304230690002, 0.18629170954227448, -0.11639595031738281, -0.038593634963035583, 0.9919047355651855, -0.08103621006011963, -0.08439826965332031, 1.489013671875, 1.587890625, 0.38861083984375, 1.49560546875
17760, 2.2812201976776123, -2.2458903789520264, 0.9207078218460083, 0.11328336596488953, -0.1123521700501442, -7.1894211769104, 0.2970040738582611, -0.2944529056549072, -0.9205576777458191, -0.436667263507843, -0.9704208374023438, 0.09911604225635529, -1.0820094799758257, -1.2617711939653873, 1.3669354788208177, 9362.0, 30146.0, 35388.0, 9362.0, 8.152067184448242, -0.06776939332485199, -0.02605615369975567, 0.28893157839775085, -0.11825678497552872, -0.036559097468853, 0.9931108951568604, -0.08103621006011963, -0.08439826965332031, 1.489013671875, 1.587890625, 0.38861083984375, 1.49560546875
17770, 2.2799646854400635, -2.246398687362671, 0.9227281808853149, 0.11627276241779327, -0.1153157576918602, -7.198631763458252, 0.30087465047836304, -0.2982650101184845, -0.9215132594108582, -0.43663766980171204, -0.9704158902168274, 0.09915762394666672, -1.0777656647332619, -1.2544560567307599, 1.3696920619105037, 9362.0, 30146.0, 35388.0, 9362.0, 8.152067184448242, 0.14382345974445343, 0.23993194103240967, 0.013807722367346287, -0.11608576029539108, -0.03656114265322685, 0.9930287599563599, -0.08103621006011963, -0.08439826965332031, 1.489013671875, 1.343994140625, 0.015899658203125, 1.49853515625
17780, 2.2802205085754395, -2.2461118698120117, 0.9223914742469788, 0.11930089443922043, -0.11831749230623245, -7.207850933074951, 0.3047522008419037, -0.3020817041397095, -0.9223222732543945, -0.43665626645088196, -0.9703997373580933, 0.09908618032932281, -1.097441049178032, -1.249023293107399, 1.3778419242431297, 9362.0, 30146.0, 35388.0, 9362.0, 8.152067184448242, -0.07880080491304398, 0.08734910935163498, -0.08027742058038712, -0.11106640845537186, -0.03547216206789017, 0.9931420087814331, -0.08103621006011963, -0.08439826965332031, 1.489013671875, 1.5498046875, 0.3014678955078125, 1.49853515625
17790, 2.280256509780884, -2.2461252212524414, 0.9223203063011169, 0.12236779928207397, -0.12135737389326096, -7.21707820892334, 0.30862873792648315, -0.30589452385902405, -0.9231762290000916, -0.43665221333503723, -0.9704111218452454, 0.09913234412670135, -1.0809469468943254, -1.2628120617303864, 1.3686315480369595, 9362.0, 30146.0, 35388.0, 9362.0, 8.152067184448242, 0.04006874933838844, -0.01115246769040823, 0.0005392791354097426, -0.11423434317111969, -0.03696306422352791, 0.9934847354888916, -0.08103621006011963, -0.08439826965332031, 1.489013671875, 1.3681640625, 0.0185394287109375, 1.49853515625
17800, 2.281048536300659, -2.2456796169281006, 0.9209620356559753, 0.12236779928207397, -0.12135737389326096, -7.21707820892334, 0.30862873792648315, -0.30589452385902405, -0.9231762290000916, -0.4366500675678253, -0.9704042077064514, 0.09915978461503983, -1.0847457050599538, -1.263235837359133, 1.3735688034372375, 9362.0, 30146.0, 35388.0, 9362.0, 8.152067184448242, 0.21948401629924774, -0.19672736525535583, 0.0858558863401413, -0.11553363502025604, -0.03616860881447792, 0.9918264746665955, -0.08103621006011963, -0.08439826965332031, 1.489013671875, 1.57177734375, 0.3512115478515625, 1.49853515625
17810, 2.281825542449951, -2.2477774620056152, 0.922542929649353, 0.12236779928207397, -0.12135737389326096, -7.21707820892334, 0.30862873792648315, -0.30589452385902405, -0.9231762290000916, -0.4366637170314789, -0.9704203605651855, 0.09912939369678497, -1.087088312251276, -1.2469657463735473, 1.3732528231977594, 9362.0, 30146.0, 35388.0, 9362.0, 8.152067184448242, 0.007032476365566254, 0.10349394381046295, -0.12226856499910355, -0.11265189945697784, -0.03581660985946655, 0.9919188618659973, -0.08103621006011963, -0.08439826965332031, 1.489013671875, 1.57177734375, 0.3512115478515625, 1.49853515625
17820, 2.2815182209014893, -2.24294114112854, 0.9242209196090698, 0.13180114328861237, -0.13070589303970337, -7.244809627532959, 0.3202565014362335, -0.3173360526561737, -0.9257304072380066, -0.43666914105415344, -0.9704332947731018, 0.09909650683403015, -1.0760906417875669, -1.2412972457769342, 1.3764885149942487, 9362.0, 30146.0, 35388.0, 9362.0, 8.152067184448242, -0.027222536504268646, -0.36323243379592896, 0.2658882141113281, -0.11225862056016922, -0.03957458585500717, 0.9894388914108276, -0.08103621006011963, -0.08439826965332031, 1.489013671875, 1.458251953125, 0.1184234619140625, 1.49853515625
17830, 2.282163381576538, -2.2415733337402344, 0.9255402088165283, 0.1350230574607849, -0.1338982880115509, -7.254072189331055, 0.3241274058818817, -0.3211437463760376, -0.9267904162406921, -0.43665188550949097, -0.9704110026359558, 0.09914865344762802, -1.0820559930412128, -1.244507649495688, 1.3787417352582572, 9362.0, 30146.0, 35388.0, 9362.0, 8.152067184448242, 0.01429627276957035, -0.0056859636679291725, -0.1031784787774086, -0.11767853796482086, -0.039121802896261215, 0.9915446639060974, -0.08103621006011963, -0.08439826965332031, 1.489013671875, 1.131591796875, 0.912628173828125, 1.49853515625
17840, 2.2818996906280518, -2.240628480911255, 0.9267809391021729, 0.1350230574607849, -0.1338982880115509, -7.254072189331055, 0.3241274058818817, -0.3211437463760376, -0.9267904162406921, -0.43664851784706116, -0.9706189036369324, 0.09894540160894394, -1.1429995024605453, -1.2187955669806172, 1.451464191451959, 9362.0, 30146.0, 35388.0, 9362.0, 8.152067184448242, -0.15898862481117249, -0.37884655594825745, 0.20582182705402374, -0.11767853796482086, -0.039121802896261215, 0.9915446639060974, -0.08103621006011963, -0.08439826965332031, 1.489013671875, 1.131591796875, 0.912628173828125, 1.49853515625
17850, 2.2825803756713867, -2.241215467453003, 0.9293321371078491, 0.1350230574607849, -0.1338982880115509, -7.254072189331055, 0.3241274058818817, -0.3211437463760376, -0.9267904162406921, -0.4366392195224762, -0.970622718334198, 0.0988016203045845, -1.1647832447602373, -1.1806827780214633, 1.3972933150984999, 9362.0, 30146.0, 35388.0, 9362.0, 8.152067184448242, 0.04957219213247299, 0.5645851492881775, 0.11251592636108398, -0.11383292078971863, -0.03586091101169586, 0.9928231239318848, -0.08103621006011963, -0.08439826965332031, 1.489013671875, 1.131591796875, 0.912628173828125, 1.49853515625
17880, 2.2842822074890137, -2.245734453201294, 0.931983232498169, 0.1350230574607849, -0.1338982880115509, -7.254072189331055, 0.3241274058818817, -0.3211437463760376, -0.9267904162406921, -0.4365885853767395, -0.9706161022186279, 0.098844513297081, -1.171131497671166, -1.1633521663083286, 1.4024654149241325, 9362.0, 30146.0, 35388.0, 9362.0, 8.152067184448242, -0.03291720896959305, 0.10340408235788345, 0.008766860701143742, -0.11383292078971863, -0.03586091101169586, 0.9928231239318848, -0.08103621006011963, -0.08439826965332031, 1.489013671875, 1.131591796875, 0.912628173828125, 1.49853515625
17890, 2.2852094173431396, -2.2458274364471436, 0.9309698939323425, 0.1350230574607849, -0.1338982880115509, -7.254072189331055, 0.3241274058818817, -0.3211437463760376, -0.9267904162406921, -0.43660449981689453, -0.9706313610076904, 0.09881378710269928, -1.166367259076149, -1.1698823574924688, 1.3921848118999227, 9362.0, 30146.0, 35388.0, 9362.0, 8.152067184448242, -0.0722963958978653, -0.023986589163541794, 0.07381408661603928, -0.11207988858222961, -0.03573717921972275, 0.9923120737075806, -0.08103621006011963, -0.08439826965332031, 1.489013671875, 1.131591796875, 0.912628173828125, 1.493408203125
17900, 2.2862918376922607, -2.248401641845703, 0.9332902431488037, 0.1586592048406601, -0.15731249749660492, -7.319179534912109, 0.35120320320129395, -0.3478430211544037, -0.9333530068397522, -0.4366077482700348, -0.9706206321716309, 0.09883737564086914, -1.1627858746216264, -1.1629762405925135, 1.4051620135014167, 9362.0, 30146.0, 35388.0, 9362.0, 8.152067184448242, -0.0332782007753849, -0.0009979226160794497, 0.004350440576672554, -0.11267533898353577, -0.03635891154408455, 0.9920336008071899, -0.04476728290319443, -0.01271820068359375, 1.494873046875, 1.131591796875, 0.912628173828125, 1.493408203125
17910, 2.2854788303375244, -2.2455434799194336, 0.9311059713363647, 0.1586592048406601, -0.15731249749660492, -7.319179534912109, 0.35120320320129395, -0.3478430211544037, -0.9333530068397522, -0.4366006851196289, -0.9706229567527771, 0.09883572161197662, -1.1692545532332432, -1.1640674254811643, 1.399607232724772, 9362.0, 30146.0, 35388.0, 9362.0, 8.152067184448242, -0.015780450776219368, -0.05308030545711517, -0.04262559115886688, -0.11461333185434341, -0.03564367815852165, 0.9910702705383301, -0.04476728290319443, -0.01271820068359375, 1.494873046875, 1.131591796875, 0.912628173828125, 1.500732421875
17920, 2.2857859134674072, -2.2457966804504395, 0.9314101338386536, 0.16576078534126282, -0.16434574127197266, -7.337864875793457, 0.3589545488357544, -0.35548120737075806, -0.9352059364318848, -0.4366626739501953, -0.9706321358680725, 0.09879792481660843, -1.1566318420424877, -1.1720520665625713, 1.3900568750074265, 9362.0, 30146.0, 35388.0, 9362.0, 8.152067184448242, 0.09099937975406647, 0.09581848978996277, 0.23436620831489563, -0.11599265038967133, -0.037193164229393005, 0.9931240081787109, -0.04476728290319443, -0.01271820068359375, 1.494873046875, 1.326416015625, 0.022705078125, 1.500732421875
17930, 2.285040855407715, -2.2463150024414062, 0.9324459433555603, 0.1693696826696396, -0.16791963577270508, -7.347221851348877, 0.36282628774642944, -0.3592987656593323, -0.936163067817688, -0.43665167689323425, -0.9706376194953918, 0.0987718403339386, -1.157960530547686, -1.1775845030520884, 1.3797632534146513, 9362.0, 30146.0, 35388.0, 9362.0, 8.152067184448242, -0.16040661931037903, -0.2334960699081421, 0.28479188680648804, -0.11578765511512756, -0.036439668387174606, 0.994019091129303, -0.04476728290319443, -0.01271820068359375, 1.494873046875, 1.4853515625, 0.1669921875, 1.494140625
17940, 2.284943103790283, -2.2460007667541504, 0.9334509372711182, 0.17301733791828156, -0.17153175175189972, -7.3565874099731445, 0.3667061924934387, -0.3631242513656616, -0.9369279742240906, -0.43670496344566345, -0.9706209301948547, 0.09880754351615906, -1.1378522907673552, -1.2263756517808986, 1.4259640380755525, 9362.0, 30146.0, 35388.0, 9362.0, 8.152067184448242, -0.07948716729879379, -0.09414531290531158, -0.025138234719634056, -0.11578765511512756, -0.036439668387174606, 0.994019091129303, -0.04476728290319443, -0.01271820068359375, 1.494873046875, 1.557861328125, 0.3195037841796875, 1.494140625
17950, 2.2852256298065186, -2.242595911026001, 0.9331002831459045, 0.17301733791828156, -0.17153175175189972, -7.3565874099731445, 0.3667061924934387, -0.3631242513656616, -0.9369279742240906, -0.4367242455482483, -0.9704490303993225, 0.09903687238693237, -1.064500938195978, -1.2459865596970587, 1.3626397234179137, 9362.0, 30146.0, 35388.0, 9362.0, 8.152067184448242, 0.018504662439227104, -0.07346216589212418, -0.10975749790668488, -0.11578765511512756, -0.036439668387174606, 0.994019091129303, -0.04476728290319443, -0.01271820068359375, 1.494873046875, 1.557861328125, 0.3195037841796875, 1.49853515625
17960, 2.286447048187256, -2.2433648109436035, 0.9331960082054138, 0.17301733791828156, -0.17153175175189972, -7.3565874099731445, 0.3667061924934387, -0.3631242513656616, -0.9369279742240906, -0.43664488196372986, -0.9703655242919922, 0.0989532321691513, -1.0122490903290795, -1.1513115241248784, 1.3368341474954575, 9362.0, 30146.0, 35388.0, 9362.0, 8.152067184448242, -0.01053728349506855, 0.24542324244976044, -0.057367753237485886, -0.11748401820659637, -0.035963024944067, 0.9901352524757385, -0.04476728290319443, -0.01271820068359375, 1.494873046875, 1.150634765625, 0.734954833984375, 1.49853515625
17970, 2.285989999771118, -2.246558904647827, 0.934961199760437, 0.17301733791828156, -0.17153175175189972, -7.3565874099731445, 0.3667061924934387, -0.3631242513656616, -0.9369279742240906, -0.4366331100463867, -0.9705861210823059, 0.09882140159606934, -1.0654142632568033, -1.145198753483811, 1.4296545531947331, 9362.0, 30146.0, 35388.0, 9362.0, 8.152067184448242, -0.03382314369082451, 0.09924245625734329, 0.22666658461093903, -0.11521868407726288, -0.03634766489267349, 0.9931067824363708, -0.04476728290319443, -0.01271820068359375, 1.494873046875, 1.078125, 1.5602264404296875, 1.49853515625
17990, 2.286497116088867, -2.2487268447875977, 0.9372698664665222, 0.17301733791828156, -0.17153175175189972, -7.3565874099731445, 0.3667061924934387, -0.3631242513656616, -0.9369279742240906, -0.4366014003753662, -0.9705836772918701, 0.09870754927396774, -1.0937822352967563, -1.0916742416441707, 1.3791781367358353, 9362.0, 30146.0, 35388.0, 9362.0, 8.152067184448242, -0.07417763769626617, 0.2355973720550537, 0.3537490963935852, -0.11442475765943527, -0.03647813946008682, 0.9917835593223572, -0.04476728290319443, -0.01271820068359375, 1.494873046875, 1.078125, 1.5602264404296875, 1.500732421875
