timeTick, roll, pitch, yaw, stateX, stateY, stateZ, stateVX, stateVY, stateVZ, otX0, otY0, otZ0, otRoll0, otPitch0, otYaw0, left wing, pitch motor, yaw motor, right wing, voltage, roll rate, pitch rate, yaw rate, A_x, A_y, A_z, current, i_raw, v_raw, airflow_voltage, airflow_speed, pot_Pitch
27011, 4.107025623321533, -3.6433990001678467, -32.11304473876953, 0, 0, 0, 0, 0, 0, -0.24093711376190186, -0.852066159248352, 0.09492014348506927, -0.44069682633922336, -0.2896804169099596, -4.798468874812847, 0, 0, 0, 0, 0, 0, 0, 0, 0, 0, 0, 0, 0, 0, 0, 0, 0
27021, 4.104905128479004, -3.649409055709839, -32.14793395996094, 0.00091454794164747, -0.005521976388990879, 73.62171173095703, 0.09224504232406616, -0.5569391846656799, 5.775753498077393, -0.24092912673950195, -0.852087676525116, 0.09488838911056519, -0.43468204188141285, -0.2801598681312214, -4.798171715875141, 9362.0, 30146.0, 35388.0, 9362.0, 0, 0.33031368255615234, -0.09848196804523468, 12.278470993041992, -0.10022013634443283, -0.03102201595902443, 1.0270447731018066, 0, 0, 0, 1.41650390625, 0.0577545166015625, 0
27031, 4.1065802574157715, -3.6415138244628906, -32.101070404052734, 0.0018448212649673223, -0.011138644069433212, 73.67947387695312, 0.09380413591861725, -0.5663952827453613, 5.777401924133301, -0.24094858765602112, -0.8520708084106445, 0.09491394460201263, -0.45023336068838576, -0.2848976039716433, -4.802048192796317, 9362.0, 30146.0, 35388.0, 9362.0, 0, -0.5215415358543396, 0.03998403996229172, -6.072708606719971, -0.10865212976932526, -0.007319456432014704, 1.0212327241897583, 0, 0, 0, 1.26416015625, 0.121337890625, 0
27041, 4.104426383972168, -3.6466946601867676, -32.150421142578125, 0.002790747908875346, -0.01685011386871338, 73.73725891113281, 0.09538885951042175, -0.5758970379829407, 5.779521942138672, -0.24094164371490479, -0.8520815968513489, 0.09487118571996689, -0.44595503933239206, -0.2868098705060902, -4.79293463347978, 9362.0, 30146.0, 35388.0, 9362.0, 0, 0.002865677000954747, 0.2341342270374298, 11.08956527709961, -0.09660749137401581, -0.026495618745684624, 1.0231208801269531, 0, 0, 0, 1.512451171875, 0.2209625244140625, 1.497802734375
27051, 4.105920314788818, -3.6425955295562744, -32.09877014160156, 0.0037524625658988953, -0.022656379267573357, 73.79505920410156, 0.09694621711969376, -0.5853571891784668, 5.781237602233887, -0.24094028770923615, -0.8520700931549072, 0.09489849954843521, -0.44724185903367086, -0.28864946922652734, -4.790898542720485, 9362.0, 30146.0, 35388.0, 9362.0, 0, -0.6088258028030396, -0.128347709774971, -7.42695951461792, -0.10779121518135071, -0.008332358673214912, 1.0215654373168945, 0, 0, 0, 1.49267578125, 0.1811065673828125, 1.497802734375
27061, 4.103305816650391, -3.6468276977539062, -32.15168380737305, 0.004729764070361853, -0.028557294979691505, 73.8528823852539, 0.09852255880832672, -0.594824492931366, 5.783026218414307, -0.24094228446483612, -0.8520835638046265, 0.09489116072654724, -0.44544073397422906, -0.28396873344962614, -4.793859576132921, 9362.0, 30146.0, 35388.0, 9362.0, 0, -0.2370067834854126, 0.45518338680267334, 7.738271236419678, -0.09080740809440613, -0.020548047497868538, 1.023626685142517, 0, 0, 0, 1.546875, 0.2949676513671875, 1.49560546875
27071, 4.106686115264893, -3.645430564880371, -32.10062789916992, 0.0057228244841098785, -0.03455280885100365, 73.91072082519531, 0.10008099675178528, -0.6042797565460205, 5.784688949584961, -0.24092061817646027, -0.8520849347114563, 0.09480712562799454, -0.44076906486285466, -0.3011846698831846, -4.785443698075907, 9362.0, 30146.0, 35388.0, 9362.0, 0, -0.1717764139175415, 0.0798058956861496, -7.763433933258057, -0.10626033693552017, -0.014326252043247223, 1.0218775272369385, 0, 0, 0, 1.54833984375, 0.298126220703125, 1.49560546875
27081, 4.104250907897949, -3.651120901107788, -32.1468620300293, 0.006731486413627863, -0.04064298793673515, 73.96857452392578, 0.10165964812040329, -0.6137545704841614, 5.786570072174072, -0.24095036089420319, -0.8521174788475037, 0.09485886991024017, -0.4548341378744396, -0.28844727859299724, -4.795161365463341, 9362.0, 30146.0, 35388.0, 9362.0, 0, -0.2553533911705017, -0.1411779224872589, 2.178093433380127, -0.08733969926834106, -0.019935311749577522, 1.0221028327941895, 0, 0, 0, 1.5498046875, 0.3014678955078125, 1.493408203125
27091, 4.108283519744873, -3.64693021774292, -32.09989547729492, 0.007755932863801718, -0.04682781547307968, 74.02645111083984, 0.10322228074073792, -0.6232122778892517, 5.7882208824157715, -0.2409435510635376, -0.8521144986152649, 0.09486221522092819, -0.4389575408852575, -0.2906694855604144, -4.800781796380024, 9362.0, 30146.0, 35388.0, 9362.0, 0, -0.23654885590076447, -0.3223886489868164, -8.519316673278809, -0.11297664046287537, -0.015727458521723747, 1.0220224857330322, 0, 0, 0, 1.2275390625, 0.24749755859375, 1.493408203125
27101, 4.104034900665283, -3.65002179145813, -32.14823532104492, 0.00879602786153555, -0.05310727655887604, 74.08434295654297, 0.10480420291423798, -0.6326788067817688, 5.789958477020264, -0.2409476786851883, -0.8521113395690918, 0.09485004842281342, -0.45331734963538595, -0.2958973833370351, -4.8001331215434115, 9362.0, 30146.0, 35388.0, 9362.0, 0, 0.1207910105586052, -0.34579482674598694, 0.24742072820663452, -0.092067189514637, -0.015481455251574516, 1.0206375122070312, 0, 0, 0, 1.2861328125, 0.0716094970703125, 1.49560546875
27111, 4.110292434692383, -3.647667407989502, -32.10482406616211, 0.009851920418441296, -0.05948134511709213, 74.14225006103516, 0.10636654496192932, -0.6421363949775696, 5.791568756103516, -0.24094770848751068, -0.8521060347557068, 0.09489476680755615, -0.4499723983348732, -0.2793896759010579, -4.803316049478026, 9362.0, 30146.0, 35388.0, 9362.0, 8.350414276123047, -0.6700520515441895, -0.39150577783584595, -6.16044282913208, -0.11545100063085556, -0.02361932583153248, 1.0240297317504883, -0.056461285799741745, -0.11127853393554688, 1.48681640625, 1.54541015625, 0.291656494140625, 1.49560546875
27121, 4.103853702545166, -3.651219606399536, -32.14076614379883, 0.010923443362116814, -0.06595000624656677, 74.2001724243164, 0.10794482380151749, -0.6515940427780151, 5.793224811553955, -0.24094487726688385, -0.8521208167076111, 0.09483463317155838, -0.4506416292742585, -0.2847915627231714, -4.794576362363706, 9362.0, 30146.0, 35388.0, 9362.0, 8.350414276123047, 0.8149794936180115, -0.33858180046081543, -3.7534339427948, -0.0879969596862793, -0.019943181425333023, 1.0228936672210693, -0.056461285799741745, -0.11127853393554688, 1.48681640625, 1.5966796875, 0.409210205078125, 1.49560546875
27131, 4.108988285064697, -3.6498570442199707, -32.114959716796875, 0.012010750360786915, -0.07251334190368652, 74.25811004638672, 0.10951078683137894, -0.6610739827156067, 5.795036315917969, -0.24094006419181824, -0.8521126508712769, 0.0948188304901123, -0.446602219666035, -0.2971024979279946, -4.800808291134903, 9362.0, 30146.0, 35388.0, 9362.0, 8.350414276123047, -0.4345400035381317, -0.612053394317627, -2.34364914894104, -0.10976171493530273, -0.027488714084029198, 1.0240367650985718, -0.056461285799741745, -0.11127853393554688, 1.48681640625, 1.53369140625, 0.265960693359375, 1.49560546875
27141, 4.103336811065674, -3.651242733001709, -32.14369201660156, 0.01311374083161354, -0.07917143404483795, 74.31607055664062, 0.1110912337899208, -0.6705434918403625, 5.7968058586120605, -0.24094441533088684, -0.8521079421043396, 0.09488266706466675, -0.45031607256780737, -0.28121769356783943, -4.798811501007824, 9362.0, 30146.0, 35388.0, 9362.0, 8.350414276123047, 1.0180717706680298, -0.16110268235206604, -3.520050287246704, -0.09880280494689941, -0.01853254996240139, 1.0238964557647705, -0.056461285799741745, -0.11127853393554688, 1.48681640625, 1.5234375, 0.2439727783203125, 1.494873046875
27151, 4.108311653137207, -3.648860216140747, -32.1236686706543, 0.014232531189918518, -0.08592429757118225, 74.3740463256836, 0.11266222596168518, -0.680030345916748, 5.798686981201172, -0.24095511436462402, -0.8521216511726379, 0.09484729170799255, -0.45742561995052683, -0.27624534170465154, -4.7935962695643966, 9362.0, 30146.0, 35388.0, 9362.0, 8.350414276123047, -0.29856377840042114, -0.20939169824123383, -0.43126264214515686, -0.11046188324689865, -0.038499865680933, 1.025987148284912, -0.056461285799741745, -0.11127853393554688, 1.48681640625, 1.43115234375, 0.0766143798828125, 1.494873046875
27161, 4.103829860687256, -3.651036500930786, -32.14175033569336, 0.015367044135928154, -0.0927719995379448, 74.43204498291016, 0.11424335837364197, -0.6895090937614441, 5.800559997558594, -0.24094630777835846, -0.85212242603302, 0.09483275562524796, -0.4476191750275405, -0.2861005949402795, -4.794188919356233, 9362.0, 30146.0, 35388.0, 9362.0, 8.350414276123047, 1.1639989614486694, 0.6514453887939453, -1.677855134010315, -0.10784990340471268, -0.024614905938506126, 1.0217927694320679, -0.056461285799741745, -0.11127853393554688, 1.48681640625, 1.458251953125, 0.1184234619140625, 1.49560546875
27171, 4.108194351196289, -3.655351400375366, -32.13369369506836, 0.016517356038093567, -0.09971459209918976, 74.49005889892578, 0.11581636220216751, -0.6990091800689697, 5.802601337432861, -0.24095022678375244, -0.8521194458007812, 0.09482796490192413, -0.44661325436466, -0.2864480204469828, -4.794868529810563, 9362.0, 30146.0, 35388.0, 9362.0, 8.350414276123047, -0.4321301579475403, -0.23407047986984253, 3.618109941482544, -0.11099614948034286, -0.037262603640556335, 1.0257302522659302, -0.056461285799741745, -0.11127853393554688, 1.48681640625, 1.08251953125, 1.497955322265625, 1.49560546875
27181, 4.1038126945495605, -3.65409517288208, -32.13267135620117, 0.017683392390608788, -0.10675199329853058, 74.548095703125, 0.11739224940538406, -0.7084705829620361, 5.804280757904053, -0.24090196192264557, -0.852127194404602, 0.09487859904766083, -0.4508279777997324, -0.321268539248166, -4.819701117908661, 9362.0, 30146.0, 35388.0, 9362.0, 8.350414276123047, 0.5665204524993896, 0.5231674909591675, 0.2259857952594757, -0.11172877252101898, -0.014546194113790989, 1.020939588546753, -0.056461285799741745, -0.11127853393554688, 1.48681640625, 1.619384765625, 0.4635009765625, 1.497802734375
27191, 4.106094837188721, -3.655834674835205, -32.14910125732422, 0.018865235149860382, -0.11388422548770905, 74.60614776611328, 0.11897644400596619, -0.7179761528968811, 5.806321144104004, -0.24091041088104248, -0.8521104454994202, 0.09484740346670151, -0.4503888160795524, -0.32298228320092903, -4.820531598496586, 9362.0, 30146.0, 35388.0, 9362.0, 8.350414276123047, 0.16788357496261597, -0.028663959354162216, 11.959114074707031, -0.10523760318756104, -0.03823177516460419, 1.0231081247329712, -0.056461285799741745, -0.11127853393554688, 1.48681640625, 1.2333984375, 0.2232666015625, 1.497802734375
27201, 4.10687255859375, -3.6522576808929443, -32.11155700683594, 0.02006290666759014, -0.12111132591962814, 74.66422271728516, 0.12055505812168121, -0.7274448275566101, 5.80804443359375, -0.2408008724451065, -0.8520824909210205, 0.09504883736371994, -0.49762591295458936, -0.3561472143110507, -4.795902382426812, 9362.0, 30146.0, 35388.0, 9362.0, 8.350414276123047, -0.6337679028511047, 0.501944363117218, -4.548714637756348, -0.11049224436283112, -0.011353332549333572, 1.0195887088775635, -0.056461285799741745, -0.11127853393554688, 1.48681640625, 1.5439453125, 0.2884979248046875, 1.494873046875
27211, 4.104545593261719, -3.6581077575683594, -32.153953552246094, 0.021276352927088737, -0.12843315303325653, 74.7223129272461, 0.12214052677154541, -0.7369188666343689, 5.80978536605835, -0.24079565703868866, -0.8520873188972473, 0.09502865374088287, -0.4954942253390831, -0.3682108908865587, -4.801989823473641, 9362.0, 30146.0, 35388.0, 9362.0, 8.350414276123047, 0.19428175687789917, 0.28774264454841614, 12.420783042907715, -0.10089386999607086, -0.030316684395074844, 1.027090311050415, -0.052377864718437195, -0.1650371551513672, 1.482421875, 1.582763671875, 0.3765869140625, 1.494873046875
27221, 4.106815814971924, -3.653491973876953, -32.10271453857422, 0.02250564657151699, -0.13584963977336884, 74.7804183959961, 0.1237114891409874, -0.7463811039924622, 5.811410427093506, -0.24088037014007568, -0.8521172404289246, 0.09489624947309494, -0.4647466813830805, -0.33279992780182965, -4.812549462015251, 9362.0, 30146.0, 35388.0, 9362.0, 8.350414276123047, -0.5492097735404968, 0.24154222011566162, -7.034763336181641, -0.11031237989664078, -0.00747773377224803, 1.0235240459442139, -0.052377864718437195, -0.1650371551513672, 1.482421875, 1.54541015625, 0.291656494140625, 1.499267578125
27231, 4.1057538986206055, -3.6589841842651367, -32.15242004394531, 0.023750707507133484, -0.14336100220680237, 74.83854675292969, 0.1253090649843216, -0.7558901309967041, 5.813522815704346, -0.24088336527347565, -0.8521243333816528, 0.09492284059524536, -0.46210396832604206, -0.32673275294362725, -4.821819062255347, 9362.0, 30146.0, 35388.0, 9362.0, 8.350414276123047, -0.05277026817202568, 0.17540282011032104, 10.970294952392578, -0.09885958582162857, -0.025870420038700104, 1.0261081457138062, -0.052377864718437195, -0.1650371551513672, 1.482421875, 1.616455078125, 0.456512451171875, 1.499267578125
27241, 4.10736608505249, -3.653339147567749, -32.10334396362305, 0.025011727586388588, -0.15096735954284668, 74.89669036865234, 0.12688709795475006, -0.7653830051422119, 5.81545877456665, -0.24079996347427368, -0.8520739078521729, 0.095001719892025, -0.499228123956012, -0.36102426765455675, -4.794305417447071, 9362.0, 30146.0, 35388.0, 9362.0, 8.350414276123047, -0.27258917689323425, -0.00712242117151618, -5.690316200256348, -0.11113256961107254, -0.007983064278960228, 1.0238157510757446, -0.052377864718437195, -0.1650371551513672, 1.482421875, 1.102294921875, 1.23858642578125, 1.491943359375
27251, 4.106152057647705, -3.6570518016815186, -32.14908981323242, 0.02628854662179947, -0.15866875648498535, 74.9548568725586, 0.1284846067428589, -0.7748938202857971, 5.817563056945801, -0.24087409675121307, -0.852112889289856, 0.09486901760101318, -0.4633554170382093, -0.33492213674435334, -4.816942363716328, 9362.0, 30146.0, 35388.0, 9362.0, 8.350414276123047, -0.5662360191345215, -0.27353498339653015, 7.452591419219971, -0.09029161185026169, -0.021351443603634834, 1.0222619771957397, -0.052377864718437195, -0.1650371551513672, 1.482421875, 1.033447265625, 2.2965850830078125, 1.491943359375
27261, 4.10719633102417, -3.6500465869903564, -32.09697341918945, 0.027581309899687767, -0.16646510362625122, 75.0130386352539, 0.13006088137626648, -0.7843784093856812, 5.819406032562256, -0.24088531732559204, -0.8521765470504761, 0.09488891810178757, -0.4809417364297395, -0.32954032840561354, -4.8301101743208035, 9362.0, 30146.0, 35388.0, 9362.0, 8.350414276123047, -0.48205381631851196, -0.2170725017786026, -9.202840805053711, -0.10943498462438583, -0.009417371824383736, 1.021314263343811, -0.052377864718437195, -0.1650371551513672, 1.482421875, 1.155029296875, 0.6974945068359375, 1.494873046875
27271, 4.1020660400390625, -3.6540212631225586, -32.14990234375, 0.028889823704957962, -0.17435626685619354, 75.07124328613281, 0.1316503882408142, -0.7938525080680847, 5.821138381958008, -0.2408798635005951, -0.8521755933761597, 0.09485874325037003, -0.48873893290796383, -0.33100753300476526, -4.830106390736915, 9362.0, 30146.0, 35388.0, 9362.0, 8.350414276123047, 0.043485891073942184, -0.16001534461975098, 4.927130222320557, -0.08451181650161743, -0.014763392508029938, 1.023539662361145, -0.052377864718437195, -0.1650371551513672, 1.482421875, 1.595947265625, 0.4075927734375, 1.494873046875
27281, 4.10841703414917, -3.6493446826934814, -32.0946044921875, 0.030214207246899605, -0.182342067360878, 75.12946319580078, 0.1332176923751831, -0.8033091425895691, 5.822723865509033, -0.24089092016220093, -0.8521777987480164, 0.09482866525650024, -0.49069723206451543, -0.33645624606035085, -4.8235479219652095, 9362.0, 30146.0, 35388.0, 9362.0, 8.350414276123047, -0.4221614599227905, -0.20491798222064972, -9.007229804992676, -0.10789480805397034, -0.022521156817674637, 1.0239009857177734, -0.052377864718437195, -0.1650371551513672, 1.482421875, 1.2216796875, 0.27325439453125, 1.49853515625
27291, 4.10242223739624, -3.654186964035034, -32.141395568847656, 0.03155430033802986, -0.19042257964611053, 75.18769836425781, 0.1348094642162323, -0.8127915859222412, 5.824636459350586, -0.24088838696479797, -0.8521742224693298, 0.09482276439666748, -0.49224013673187106, -0.3363840467178818, -4.831915633028875, 9362.0, 30146.0, 35388.0, 9362.0, 8.350414276123047, 0.38053789734840393, 0.12114192545413971, -1.65827214717865, -0.09072078764438629, -0.02072029560804367, 1.0215505361557007, -0.052377864718437195, -0.1650371551513672, 1.482421875, 1.172607421875, 0.5602874755859375, 1.49853515625
27301, 4.107405662536621, -3.6520862579345703, -32.104984283447266, 0.03291027992963791, -0.19859787821769714, 75.24595642089844, 0.13637924194335938, -0.8222681283950806, 5.826423645019531, -0.24089129269123077, -0.8521847128868103, 0.09483374655246735, -0.48467619276719204, -0.33380378530060284, -4.817953108299923, 9362.0, 30146.0, 35388.0, 9362.0, 8.350414276123047, -0.420829713344574, -0.5445383191108704, -5.7469892501831055, -0.11471731215715408, -0.02423829585313797, 1.0247882604599, -0.052377864718437195, -0.1650371551513672, 1.482421875, 1.305908203125, 0.0413360595703125, 1.5029296875
27311, 4.101437568664551, -3.651679277420044, -32.14150619506836, 0.034281980246305466, -0.20686790347099304, 75.30422973632812, 0.13796667754650116, -0.8317358493804932, 5.828170299530029, -0.2408568412065506, -0.8522098064422607, 0.09487037360668182, -0.45527656525158944, -0.35666928044292945, -4.83416468580148, 9362.0, 30146.0, 35388.0, 9362.0, 8.350414276123047, 0.9904295802116394, 0.16710613667964935, -2.457828998565674, -0.09401696920394897, -0.019683079794049263, 1.0242698192596436, -0.05888305976986885, -0.05751800537109375, 1.4912109375, 1.062744140625, 1.79193115234375, 1.5029296875
27321, 4.105550289154053, -3.6499969959259033, -32.11966323852539, 0.035669561475515366, -0.2152327001094818, 75.36251831054688, 0.1395433396100998, -0.8412261009216309, 5.830090045928955, -0.24085383117198944, -0.8522170186042786, 0.09489616751670837, -0.4629884826165946, -0.3565678040883995, -4.834388203599476, 9362.0, 30146.0, 35388.0, 9362.0, 8.350414276123047, -0.20426009595394135, -0.5444018244743347, 0.15027499198913574, -0.11447422951459885, -0.03541914001107216, 1.0245051383972168, -0.05888305976986885, -0.05751800537109375, 1.4912109375, 1.15869140625, 0.6672515869140625, 1.4970703125
27331, 4.101839065551758, -3.64992618560791, -32.13679885864258, 0.03707289695739746, -0.22369234263896942, 75.42082977294922, 0.14112748205661774, -0.8507018089294434, 5.8319573402404785, -0.2408391386270523, -0.8522174954414368, 0.09487403929233551, -0.45782384854360136, -0.3509291601174027, -4.828516037127711, 9362.0, 30146.0, 35388.0, 9362.0, 8.350414276123047, 0.774567723274231, 0.3605683743953705, -1.8068901300430298, -0.10289806872606277, -0.021069277077913284, 1.021499752998352, -0.05888305976986885, -0.05751800537109375, 1.4912109375, 1.172607421875, 0.5602874755859375, 1.4970703125
27341, 4.104886054992676, -3.6498382091522217, -32.135528564453125, 0.03849206492304802, -0.2322467714548111, 75.47915649414062, 0.14270316064357758, -0.8601845502853394, 5.8338494300842285, -0.24084751307964325, -0.8522167205810547, 0.09482324123382568, -0.46077274490871273, -0.3584129814734922, -4.830599166647069, 9362.0, 30146.0, 35388.0, 9362.0, 8.350414276123047, -0.07731673121452332, -0.15526868402957916, 4.709802627563477, -0.11094263195991516, -0.04005534574389458, 1.026753544807434, -0.05888305976986885, -0.05751800537109375, 1.4912109375, 1.582763671875, 0.3765869140625, 1.496337890625
27351, 4.102744102478027, -3.6494791507720947, -32.13056182861328, 0.03992697596549988, -0.24089591205120087, 75.53750610351562, 0.14427921175956726, -0.8696435689926147, 5.835546493530273, -0.24076910316944122, -0.8521871566772461, 0.0949196070432663, -0.5044165345331749, -0.38517014694059526, -4.816285098226491, 9362.0, 30146.0, 35388.0, 9362.0, 8.350414276123047, 0.6119478940963745, 0.2013816237449646, -1.2085198163986206, -0.11149518191814423, -0.018287044018507004, 1.0217382907867432, -0.05888305976986885, -0.05751800537109375, 1.4912109375, 1.612060546875, 0.4459686279296875, 1.496337890625
27361, 4.1040496826171875, -3.649869441986084, -32.1502799987793, 0.04137766361236572, -0.2496398538351059, 75.59587097167969, 0.14585943520069122, -0.8791440725326538, 5.837639331817627, -0.24084807932376862, -0.8522222638130188, 0.09480446577072144, -0.4660530302344487, -0.35146764887579707, -4.831577963371651, 9362.0, 30146.0, 35388.0, 9362.0, 8.350414276123047, 0.1957785189151764, -0.05126923695206642, 10.455503463745117, -0.10535581409931183, -0.03842411935329437, 1.0259356498718262, -0.05888305976986885, -0.05751800537109375, 1.4912109375, 1.133056640625, 0.8980560302734375, 1.494873046875
27371, 4.103321552276611, -3.6453630924224854, -32.12103271484375, 0.04284414276480675, -0.25847864151000977, 75.65425872802734, 0.14743280410766602, -0.8886116743087769, 5.839413642883301, -0.2407691776752472, -0.8522080183029175, 0.09491609781980515, -0.4928944181090064, -0.38304922628285, -4.8026014433798, 9362.0, 30146.0, 35388.0, 9362.0, 8.350414276123047, -0.31909120082855225, 0.4741567075252533, -4.7607245445251465, -0.1089768260717392, -0.01009139884263277, 1.0197534561157227, -0.05888305976986885, -0.05751800537109375, 1.4912109375, 1.4091796875, 0.04937744140625, 1.494873046875
27381, 4.10146951675415, -3.6498897075653076, -32.158084869384766, 0.04432635009288788, -0.2674121856689453, 75.71266174316406, 0.1490134447813034, -0.8980993032455444, 5.841385364532471, -0.24076375365257263, -0.8522186875343323, 0.09496935456991196, -0.49028520756461963, -0.38877383606734384, -4.804410339318744, 9362.0, 30146.0, 35388.0, 9362.0, 8.350414276123047, 0.36720749735832214, -0.2763412296772003, 11.078298568725586, -0.10230597853660583, -0.03444218263030052, 1.0243271589279175, -0.05888305976986885, -0.05751800537109375, 1.4912109375, 1.6083984375, 0.437225341796875, 1.49267578125
27391, 4.1026835441589355, -3.6430835723876953, -32.12504959106445, 0.0458243303000927, -0.27644044160842896, 75.77108001708984, 0.15057696402072906, -0.9075506925582886, 5.843019008636475, -0.24090084433555603, -0.8522579073905945, 0.09466724842786789, -0.4274467684863414, -0.3425261183639634, -4.790476464958661, 9362.0, 30146.0, 35388.0, 9362.0, 8.350414276123047, -0.11906974017620087, 0.18738199770450592, -2.3995108604431152, -0.10658520460128784, -0.010265588760375977, 1.018736481666565, -0.05888305976986885, -0.05751800537109375, 1.4912109375, 1.314697265625, 0.0319061279296875, 1.49267578125
27401, 4.1049652099609375, -3.647303342819214, -32.1512565612793, 0.04733797162771225, -0.28556329011917114, 75.82952117919922, 0.15215690433979034, -0.9170200228691101, 5.844838619232178, -0.240746408700943, -0.8521732687950134, 0.09485821425914764, -0.4697413832331851, -0.3706198829294465, -4.776135930734441, 9362.0, 30146.0, 35388.0, 9362.0, 8.350414276123047, -0.7875481843948364, 0.0774284303188324, 6.5637125968933105, -0.09246193617582321, -0.02712484449148178, 1.024049997329712, -0.05888305976986885, -0.05751800537109375, 1.4912109375, 1.260498046875, 0.1313934326171875, 1.4912109375
27411, 4.103551864624023, -3.641939163208008, -32.11261749267578, 0.0488673597574234, -0.2947806715965271, 75.88797760009766, 0.15371651947498322, -0.9264552593231201, 5.846334457397461, -0.2407495528459549, -0.8521652817726135, 0.09488766640424728, -0.4689050721248388, -0.375338215274013, -4.785269802595218, 9362.0, 30146.0, 35388.0, 9362.0, 8.350414276123047, -0.5946295857429504, 0.33158618211746216, -6.945539951324463, -0.11258495599031448, -0.013480410911142826, 1.0210130214691162, -0.06581170111894608, -0.14711761474609375, 1.48388671875, 1.59375, 0.4024658203125, 1.4912109375
27421, 4.099955081939697, -3.6491756439208984, -32.155426025390625, 0.050412368029356, -0.3040925860404968, 75.94644927978516, 0.15529197454452515, -0.9359292984008789, 5.848177433013916, -0.2407456338405609, -0.8521745800971985, 0.09487955272197723, -0.46315466326227644, -0.3689037400995687, -4.78887994028656, 9362.0, 30146.0, 35388.0, 9362.0, 8.350414276123047, 0.0724782645702362, -0.24217729270458221, 3.0575168132781982, -0.08967925608158112, -0.018194561824202538, 1.0241048336029053, -0.06581170111894608, -0.14711761474609375, 1.48388671875, 1.640625, 0.5154571533203125, 1.50146484375
27431, 4.106010913848877, -3.6444551944732666, -32.1053581237793, 0.051973115652799606, -0.3134991228580475, 76.00493621826172, 0.15685053169727325, -0.9453765153884888, 5.849798202514648, -0.24079550802707672, -0.8522924780845642, 0.0946776270866394, -0.5407583746847112, -0.3082446141870605, -4.684827696686778, 9362.0, 30146.0, 35388.0, 9362.0, 8.350414276123047, -0.8050787448883057, -0.042941898107528687, -8.920709609985352, -0.11182950437068939, -0.020221712067723274, 1.0217374563217163, -0.06581170111894608, -0.14711761474609375, 1.48388671875, 1.273681640625, 0.0975494384765625, 1.50146484375
27441, 4.098881244659424, -3.6497409343719482, -32.15998840332031, 0.05354950577020645, -0.3230002820491791, 76.06344604492188, 0.15843574702739716, -0.9548540711402893, 5.851737022399902, -0.24079616367816925, -0.8522796630859375, 0.0946994498372078, -0.545637352470195, -0.32294077898967544, -4.684754505769052, 9362.0, 30146.0, 35388.0, 9362.0, 8.350414276123047, 0.3936178982257843, -0.36562472581863403, 0.8219709396362305, -0.08894006907939911, -0.013587637804448605, 1.0202163457870483, -0.06581170111894608, -0.14711761474609375, 1.48388671875, 1.46484375, 0.1295928955078125, 1.500732421875
27451, 4.106139183044434, -3.6464829444885254, -32.11083221435547, 0.05514170229434967, -0.3325960636138916, 76.1219711303711, 0.15999466180801392, -0.9643058776855469, 5.853343963623047, -0.24080079793930054, -0.8522933125495911, 0.0946217030286789, -0.5402946048479768, -0.30977486747534044, -4.691872584337162, 9362.0, 30146.0, 35388.0, 9362.0, 8.350414276123047, -0.7068920731544495, -0.013248405419290066, -7.358567237854004, -0.10785459727048874, -0.01949079893529415, 1.025073766708374, -0.06581170111894608, -0.14711761474609375, 1.48388671875, 1.352783203125, 0.015350341796875, 1.500732421875
27461, 4.099292278289795, -3.6508891582489014, -32.15584182739258, 0.05674951523542404, -0.3422863483428955, 76.18051147460938, 0.16157560050487518, -0.9737520217895508, 5.854959487915039, -0.2408037632703781, -0.8522849678993225, 0.09464564174413681, -0.5420275062427864, -0.31671522555839715, -4.690804002280821, 9362.0, 30146.0, 35388.0, 9362.0, 8.350414276123047, 0.8470284938812256, -0.15228767693042755, -2.6952853202819824, -0.09184364229440689, -0.020342541858553886, 1.0244547128677368, -0.06581170111894608, -0.14711761474609375, 1.48388671875, 1.65087890625, 0.5408935546875, 1.493408203125
27471, 4.105090618133545, -3.6501293182373047, -32.12554168701172, 0.05837314575910568, -0.35207128524780273, 76.23906707763672, 0.16314291954040527, -0.9832354187965393, 5.856877326965332, -0.2408038228750229, -0.8522925972938538, 0.09461265057325363, -0.5517123698044305, -0.3278774617067768, -4.686937765127269, 9362.0, 30146.0, 35388.0, 9362.0, 8.350414276123047, -0.5477786064147949, -0.548495352268219, -3.261023759841919, -0.10793792456388474, -0.03394962474703789, 1.0226199626922607, -0.06581170111894608, -0.14711761474609375, 1.48388671875, 1.578369140625, 0.3665008544921875, 1.493408203125
27481, 4.099392414093018, -3.6502416133880615, -32.1535758972168, 0.06001247093081474, -0.3619510233402252, 76.29764556884766, 0.16472722589969635, -0.9927091002464294, 5.858762741088867, -0.2408076971769333, -0.8523123264312744, 0.09457539767026901, -0.5584570395253098, -0.32792791709894686, -4.683181277893961, 9362.0, 30146.0, 35388.0, 9362.0, 8.350414276123047, 1.1187978982925415, 0.5561950206756592, -1.4138821363449097, -0.1089000329375267, -0.023552080616354942, 1.0207462310791016, -0.06581170111894608, -0.14711761474609375, 1.48388671875, 1.60693359375, 0.4335479736328125, 1.497802734375
27491, 4.103084564208984, -3.652958631515503, -32.1485710144043, 0.06166762113571167, -0.3719254434108734, 76.35623931884766, 0.16629819571971893, -1.0021766424179077, 5.860495090484619, -0.24079716205596924, -0.8523579239845276, 0.09461329132318497, -0.5723218506540821, -0.3359484383522897, -4.708388651667996, 9362.0, 30146.0, 35388.0, 9362.0, 8.350414276123047, 0.030291832983493805, -0.268314927816391, 4.868810176849365, -0.10748054087162018, -0.03672413527965546, 1.0257930755615234, -0.06581170111894608, -0.14711761474609375, 1.48388671875, 1.1630859375, 0.6321258544921875, 1.497802734375
27501, 4.101151943206787, -3.6516809463500977, -32.145362854003906, 0.06333847343921661, -0.38199445605278015, 76.41485595703125, 0.16787342727184296, -1.0116238594055176, 5.862099647521973, -0.2408054769039154, -0.8523635268211365, 0.09457862377166748, -0.5746441858328487, -0.33220888744472177, -4.714064973305558, 9362.0, 30146.0, 35388.0, 9362.0, 8.350414276123047, 0.697827160358429, 0.6624451875686646, -2.3396568298339844, -0.1087193414568901, -0.012718015350401402, 1.021233081817627, -0.06581170111894608, -0.14711761474609375, 1.48388671875, 1.447265625, 0.1004791259765625, 1.49853515625
27511, 4.103482246398926, -3.652972459793091, -32.159908294677734, 0.06502512097358704, -0.392158180475235, 76.4734878540039, 0.1694565862417221, -1.0211193561553955, 5.864132881164551, -0.24078816175460815, -0.8523598909378052, 0.0946192592382431, -0.570862067393418, -0.3424972993248332, -4.693899571547535, 9362.0, 30146.0, 35388.0, 9362.0, 8.350414276123047, 0.19886958599090576, -0.6436366438865662, 8.266402244567871, -0.10710984468460083, -0.03921915218234062, 1.0256657600402832, -0.030991358682513237, 0.13064002990722656, 1.506591796875, 1.556396484375, 0.316192626953125, 1.49853515625
27521, 4.102726936340332, -3.647054433822632, -32.1417121887207, 0.06672757863998413, -0.4024166762828827, 76.53213500976562, 0.17103220522403717, -1.0305813550949097, 5.865848064422607, -0.24077297747135162, -0.8523703217506409, 0.09456554800271988, -0.5655651520090181, -0.34262346539111377, -4.7035542391720115, 9362.0, 30146.0, 35388.0, 9362.0, 8.350414276123047, 0.22625187039375305, 0.8541209697723389, -2.6230342388153076, -0.10975266993045807, -0.011591224931180477, 1.0206364393234253, -0.030991358682513237, 0.13064002990722656, 1.506591796875, 1.52490234375, 0.247039794921875, 1.493408203125
27531, 4.104030132293701, -3.6519346237182617, -32.168609619140625, 0.06844580173492432, -0.41276994347572327, 76.59080505371094, 0.1726146787405014, -1.0400725603103638, 5.867832183837891, -0.24077214300632477, -0.8523702621459961, 0.09454748034477234, -0.5747450206080603, -0.33457094236672447, -4.705016495369786, 9362.0, 30146.0, 35388.0, 9362.0, 8.350414276123047, 0.3460196852684021, 0.1443234384059906, 11.153785705566406, -0.10432334989309311, -0.0363648384809494, 1.023136019706726, -0.030991358682513237, 0.13064002990722656, 1.506591796875, 1.5439453125, 0.2884979248046875, 1.493408203125
27541, 4.104362487792969, -3.6483662128448486, -32.13465118408203, 0.07017979770898819, -0.4232179522514343, 76.64949035644531, 0.17417994141578674, -1.0495281219482422, 5.869497299194336, -0.24070008099079132, -0.8522540330886841, 0.09479609876871109, -0.48351500126088304, -0.40754802689383496, -4.802905489496697, 9362.0, 30146.0, 35388.0, 9362.0, 8.350414276123047, -0.1554107815027237, 0.8506774306297302, -3.5315799713134766, -0.1096441000699997, -0.009152603335678577, 1.0198241472244263, -0.030991358682513237, 0.13064002990722656, 1.506591796875, 1.1865234375, 0.4651947021484375, 1.49267578125
27561, 4.10516357421875, -3.6520540714263916, -32.132625579833984, 0.07017979770898819, -0.4232179522514343, 76.64949035644531, 0.17417994141578674, -1.0495281219482422, 5.869497299194336, -0.24074779450893402, -0.852233350276947, 0.09462584555149078, -0.5065301792260164, -0.37898283001351274, -4.800988889320263, 9362.0, 30146.0, 35388.0, 9362.0, 8.350414276123047, -0.3806060254573822, 0.6017412543296814, -2.740872859954834, -0.10963692516088486, -0.010788857005536556, 1.0218173265457153, -0.030991358682513237, 0.13064002990722656, 1.506591796875, 1.53662109375, 0.27239990234375, 1.49267578125
27571, 4.105551719665527, -3.6594324111938477, -32.160423278808594, 0.0754760354757309, -0.45512986183166504, 76.82565307617188, 0.1789117157459259, -1.0779515504837036, 5.8748931884765625, -0.24070733785629272, -0.8522468209266663, 0.09470358490943909, -0.4913182755773879, -0.3976041095440337, -4.802839900549174, 9362.0, 30146.0, 35388.0, 9362.0, 8.350414276123047, -0.6636853218078613, 0.21062813699245453, 6.3831329345703125, -0.09676418453454971, -0.02144784852862358, 1.0239503383636475, -0.030991358682513237, 0.13064002990722656, 1.506591796875, 1.349853515625, 0.015350341796875, 1.49267578125
27601, 4.109350204467773, -3.656414270401001, -32.110572814941406, 0.0754760354757309, -0.45512986183166504, 76.82565307617188, 0.1789117157459259, -1.0779515504837036, 5.8748931884765625, -0.24085336923599243, -0.8522540330886841, 0.09447851777076721, -0.46513340658824365, -0.35096287349367117, -4.81815974610943, 9362.0, 30146.0, 35388.0, 9362.0, 8.350414276123047, -0.8525269031524658, 0.1269453912973404, -9.319938659667969, -0.11097577959299088, -0.020128965377807617, 1.0229978561401367, -0.030991358682513237, 0.13064002990722656, 1.506591796875, 1.474365234375, 0.14654541015625, 1.5
27631, 4.102445602416992, -3.662360906600952, -32.154903411865234, 0.08649551868438721, -0.5215126276016235, 77.17845916748047, 0.18842314183712006, -1.134825348854065, 5.885549545288086, -0.2408931702375412, -0.8523703217506409, 0.09425653517246246, -0.5532419783920015, -0.29322773256222945, -4.718740364892379, 9362.0, 30146.0, 35388.0, 9362.0, 8.350414276123047, 0.6707054972648621, -0.2242247611284256, -3.4093892574310303, -0.10603927820920944, -0.02432546764612198, 1.0270166397094727, -0.046013396233320236, -0.08439826965332031, 1.489013671875, 1.389404296875, 0.03082275390625, 1.5
27661, 4.107112884521484, -3.6610307693481445, -32.13994216918945, 0.08649551868438721, -0.5215126276016235, 77.17845916748047, 0.18842314183712006, -1.134825348854065, 5.885549545288086, -0.2410137951374054, -0.8523886203765869, 0.0940391793847084, -0.5926927935724468, -0.22549138562786197, -4.675396923249512, 9362.0, 30146.0, 35388.0, 9362.0, 8.350414276123047, -0.3834121525287628, -0.5842873454093933, -1.1915369033813477, -0.10878994315862656, -0.03748634085059166, 1.0260368585586548, -0.046013396233320236, -0.08439826965332031, 1.489013671875, 1.266357421875, 0.1154937744140625, 1.497802734375
27691, 4.102546691894531, -3.657979726791382, -32.15590286254883, 0.08649551868438721, -0.5215126276016235, 77.17845916748047, 0.18842314183712006, -1.134825348854065, 5.885549545288086, -0.24088354408740997, -0.8522087931632996, 0.09431859850883484, -0.5141769028469981, -0.3249084094844932, -4.790514271809635, 9362.0, 30146.0, 35388.0, 9362.0, 8.350414276123047, 0.7594619393348694, 0.5941970944404602, -2.83048415184021, -0.1084667518734932, -0.021537233144044876, 1.0199559926986694, -0.046013396233320236, -0.08439826965332031, 1.489013671875, 1.22900390625, 0.2412872314453125, 1.497802734375
27721, 4.102946758270264, -3.66353178024292, -32.1744384765625, 0.10207861661911011, -0.615337073802948, 77.6499252319336, 0.20114098489284515, -1.2107411623001099, 5.900467872619629, -0.24085307121276855, -0.8522055745124817, 0.09437821060419083, -0.52671717909891, -0.32631321854259454, -4.778459250150507, 9362.0, 30146.0, 35388.0, 9362.0, 8.350414276123047, 0.19442544877529144, -0.06474930793046951, 9.894488334655762, -0.10002703219652176, -0.038798823952674866, 1.024422287940979, -0.055346425622701645, -0.03959846496582031, 1.49267578125, 1.16748046875, 0.598236083984375, 1.497802734375
27771, 4.106573104858398, -3.666163921356201, -32.1346549987793, 0.11443295329809189, -0.6896868944168091, 78.00425720214844, 0.21067184209823608, -1.2675915956497192, 5.9107561111450195, -0.2409272938966751, -0.8523138761520386, 0.09411555528640747, -0.6365812675991203, -0.24991024316398125, -4.661024582335592, 9362.0, 30146.0, 35388.0, 9362.0, 8.350414276123047, -0.40676504373550415, 0.5265011787414551, -8.06667423248291, -0.1109275296330452, -0.013791454024612904, 1.0187411308288574, -0.055346425622701645, -0.03959846496582031, 1.49267578125, 1.365966796875, 0.017791748046875, 1.497802734375
27791, 4.1087327003479, -3.6713781356811523, -32.13231658935547, 0.11443295329809189, -0.6896868944168091, 78.00425720214844, 0.21067184209823608, -1.2675915956497192, 5.9107561111450195, -0.24092216789722443, -0.8523244261741638, 0.09415152668952942, -0.6306318197918589, -0.2506569091250981, -4.661808046980832, 9362.0, 30146.0, 35388.0, 9362.0, 8.350414276123047, -0.6435926556587219, 0.305903822183609, -7.613389015197754, -0.11281915754079819, -0.021592004224658012, 1.022349238395691, -0.055346425622701645, -0.03959846496582031, 1.49267578125, 1.41650390625, 0.0577545166015625, 1.497802734375
27801, 4.102208614349365, -3.67903733253479, -32.17676544189453, 0.11443295329809189, -0.6896868944168091, 78.00425720214844, 0.21067184209823608, -1.2675915956497192, 5.9107561111450195, -0.24096977710723877, -0.852461576461792, 0.09393562376499176, -0.6188430581526448, -0.17539752255035523, -4.57062640510475, 9362.0, 30146.0, 35388.0, 9362.0, 8.350414276123047, 0.3078124523162842, -0.3522500991821289, -1.256490707397461, -0.09243864566087723, -0.016276054084300995, 1.0259358882904053, -0.055346425622701645, -0.03959846496582031, 1.49267578125, 1.124267578125, 0.9879302978515625, 1.497802734375
27851, 4.10287618637085, -3.683472156524658, -32.163612365722656, 0.12736152112483978, -0.7674499154090881, 78.35921478271484, 0.22030261158943176, -1.324570655822754, 5.921578407287598, -0.2409767359495163, -0.8524325489997864, 0.0938735231757164, -0.6271148492026857, -0.1547535239333797, -4.559450241391666, 9362.0, 30146.0, 35388.0, 9362.0, 8.350414276123047, -0.2575804889202118, -0.650002121925354, 2.9687423706054688, -0.11026226729154587, -0.03877268731594086, 1.0240460634231567, -0.04916980862617493, -0.05751800537109375, 1.4912109375, 1.3388671875, 0.017120361328125, 1.49853515625
27871, 4.101319313049316, -3.6821744441986084, -32.18474197387695, 0.13630342483520508, -0.8211923837661743, 78.59622192382812, 0.22678889334201813, -1.3625584840774536, 5.928656578063965, -0.24094726145267487, -0.8524075746536255, 0.09390364587306976, -0.6488744210517077, -0.16940873284448799, -4.570289063193368, 9362.0, 30146.0, 35388.0, 9362.0, 8.350414276123047, 0.3515792489051819, -0.02414480410516262, 10.638042449951172, -0.10997114330530167, -0.013234548270702362, 1.0209143161773682, -0.04916980862617493, -0.05751800537109375, 1.4912109375, 1.22021484375, 0.2799530029296875, 1.49853515625
27881, 4.101524353027344, -3.678025484085083, -32.15406036376953, 0.13630342483520508, -0.8211923837661743, 78.59622192382812, 0.22678889334201813, -1.3625584840774536, 5.928656578063965, -0.24097999930381775, -0.8524447083473206, 0.09386130422353745, -0.6319956526030227, -0.16278598020736013, -4.564373424781404, 9362.0, 30146.0, 35388.0, 9362.0, 8.350414276123047, -0.26571372151374817, 0.42356887459754944, -4.554439067840576, -0.11010617017745972, -0.010202445089817047, 1.0186430215835571, -0.04916980862617493, -0.05751800537109375, 1.4912109375, 1.51611328125, 0.2286224365234375, 1.496337890625
27921, 4.10139799118042, -3.675616502761841, -32.136871337890625, 0.14550431072711945, -0.8764538764953613, 78.83350372314453, 0.23326219618320465, -1.40053129196167, 5.935695171356201, -0.2409936785697937, -0.8524351716041565, 0.09383542835712433, -0.6342353355047532, -0.166019005483804, -4.5650815295048535, 9362.0, 30146.0, 35388.0, 9362.0, 8.350414276123047, -0.3646155297756195, 0.12046133726835251, -7.220447540283203, -0.09711618721485138, -0.025524118915200233, 1.0253469944000244, -0.04768204316496849, 0.06792068481445312, 1.50146484375, 1.12646484375, 0.9649200439453125, 1.496337890625
27931, 4.098537445068359, -3.6804771423339844, -32.180152893066406, 0.14550431072711945, -0.8764538764953613, 78.83350372314453, 0.23326219618320465, -1.40053129196167, 5.935695171356201, -0.24094590544700623, -0.8522927761077881, 0.09407225251197815, -0.6495201486130096, -0.24592725480317768, -4.665608140609514, 9362.0, 30146.0, 35388.0, 9362.0, 8.350414276123047, -0.1262233555316925, -0.4332621395587921, 1.8857322931289673, -0.08740350604057312, -0.02034861594438553, 1.0243241786956787, -0.04768204316496849, 0.06792068481445312, 1.50146484375, 1.08837890625, 1.4176025390625, 1.496337890625
27941, 4.10293436050415, -3.675875186920166, -32.13479995727539, 0.14550431072711945, -0.8764538764953613, 78.83350372314453, 0.23326219618320465, -1.40053129196167, 5.935695171356201, -0.24097150564193726, -0.8524431586265564, 0.09385261684656143, -0.6314395939132457, -0.15940796071865293, -4.566435026344404, 9362.0, 30146.0, 35388.0, 9362.0, 8.350414276123047, -0.3437948524951935, -0.030451662838459015, -7.686244010925293, -0.1112995445728302, -0.021001089364290237, 1.0235568284988403, -0.04768204316496849, 0.06792068481445312, 1.50146484375, 1.218017578125, 0.2902679443359375, 1.496337890625
28091, 4.10209846496582, -3.667053699493408, -32.1255989074707, 0.17974451184272766, -1.0818341970443726, 79.66629791259766, 0.2558594346046448, -1.5334789752960205, 5.961746692657471, -0.24078306555747986, -0.8522696495056152, 0.09428224712610245, -0.5705977662742452, -0.3286742076060136, -4.676076400364394, 9362.0, 30146.0, 35388.0, 9362.0, 8.350414276123047, -0.39128923416137695, -0.14668485522270203, -5.1298346519470215, -0.11315444111824036, -0.026106292381882668, 1.0253791809082031, -0.03367101028561592, -0.05751800537109375, 1.4912109375, 1.44873046875, 0.102813720703125, 1.496337890625
28101, 4.096996307373047, -3.671494483947754, -32.16303634643555, 0.17974451184272766, -1.0818341970443726, 79.66629791259766, 0.2558594346046448, -1.5334789752960205, 5.961746692657471, -0.2407664656639099, -0.8522600531578064, 0.09429371356964111, -0.5711163559177653, -0.3201326788459653, -4.680160242276016, 9362.0, 30146.0, 35388.0, 9362.0, 8.350414276123047, 0.945120632648468, 0.16636314988136292, -1.4751287698745728, -0.0992848128080368, -0.017621634528040886, 1.02229905128479, -0.03367101028561592, -0.05751800537109375, 1.4912109375, 1.114013671875, 1.10015869140625, 1.496337890625
28121, 4.096251010894775, -3.6668598651885986, -32.15362548828125, 0.17974451184272766, -1.0818341970443726, 79.66629791259766, 0.2558594346046448, -1.5334789752960205, 5.961746692657471, -0.24077695608139038, -0.8522717952728271, 0.09426634013652802, -0.577325135628579, -0.32293929497265594, -4.671225745632675, 9362.0, 30146.0, 35388.0, 9362.0, 8.350414276123047, 0.6585554480552673, 0.22835351526737213, 0.36780962347984314, -0.11304908990859985, -0.012095453217625618, 1.0227426290512085, -0.054621849209070206, -0.07543754577636719, 1.48974609375, 1.57177734375, 0.3512115478515625, 1.500732421875
28131, 4.098501682281494, -3.6684443950653076, -32.16205596923828, 0.20099659264087677, -1.2091604471206665, 80.14981842041016, 0.2688811123371124, -1.6103941202163696, 5.977444171905518, -0.24079808592796326, -0.8523876667022705, 0.09406931698322296, -0.5773247856198671, -0.23038873317790376, -4.564438658762667, 9362.0, 30146.0, 35388.0, 9362.0, 8.350414276123047, 0.10278858989477158, 0.18296046555042267, 11.11758041381836, -0.09974643588066101, -0.0330323651432991, 1.0268245935440063, -0.054621849209070206, -0.07543754577636719, 1.48974609375, 1.231201171875, 0.2321319580078125, 1.500732421875
28141, 4.09893798828125, -3.665067434310913, -32.12847900390625, 0.20099659264087677, -1.2091604471206665, 80.14981842041016, 0.2688811123371124, -1.6103941202163696, 5.977444171905518, -0.24077263474464417, -0.8522709608078003, 0.0942656546831131, -0.5698896406416507, -0.31619837227270864, -4.677969160527089, 9362.0, 30146.0, 35388.0, 9362.0, 8.350414276123047, -0.6719149947166443, 0.06435976922512054, -6.91177225112915, -0.10967954248189926, -0.010360530577600002, 1.0213314294815063, -0.054621849209070206, -0.07543754577636719, 1.48974609375, 1.33154296875, 0.0198516845703125, 1.500732421875
28151, 4.097530364990234, -3.671213150024414, -32.169620513916016, 0.2064063400030136, -1.2415581941604614, 80.2694091796875, 0.2720990777015686, -1.629381537437439, 5.981356143951416, -0.24077433347702026, -0.8522658944129944, 0.09426657110452652, -0.5806018724118572, -0.3098051834845137, -4.6713453511330085, 9362.0, 30146.0, 35388.0, 9362.0, 8.350414276123047, -0.117131806910038, -0.04055049270391464, 8.466726303100586, -0.08934691548347473, -0.02369251288473606, 1.0279133319854736, -0.054621849209070206, -0.07543754577636719, 1.48974609375, 1.283935546875, 0.075897216796875, 1.500732421875
28161, 4.101130962371826, -3.6649551391601562, -32.11836624145508, 0.2064063400030136, -1.2415581941604614, 80.2694091796875, 0.2720990777015686, -1.629381537437439, 5.981356143951416, -0.24081477522850037, -0.852383017539978, 0.09407725185155869, -0.5778473132603423, -0.2460439577497482, -4.569276973912065, 9362.0, 30146.0, 35388.0, 9362.0, 8.350414276123047, -0.4529586434364319, 0.17832791805267334, -7.308531284332275, -0.11066549271345139, -0.018068721517920494, 1.0219401121139526, -0.054621849209070206, -0.07543754577636719, 1.48974609375, 1.36083984375, 0.016387939453125, 1.500732421875
28171, 4.099205017089844, -3.6682255268096924, -32.16242218017578, 0.2118803709745407, -1.274335503578186, 80.38907623291016, 0.27531781792640686, -1.6483746767044067, 5.985289573669434, -0.24081318080425262, -0.8523943424224854, 0.09403376281261444, -0.5856306969989548, -0.23614988528609615, -4.570803774957256, 9362.0, 30146.0, 35388.0, 9362.0, 8.350414276123047, -0.4592817723751068, -0.40673938393592834, 1.7968049049377441, -0.08928132802248001, -0.021425709128379822, 1.0243700742721558, -0.054621849209070206, -0.07543754577636719, 1.48974609375, 1.4853515625, 0.1669921875, 1.500732421875
28181, 4.101421356201172, -3.6633987426757812, -32.1168098449707, 0.2118803709745407, -1.274335503578186, 80.38907623291016, 0.27531781792640686, -1.6483746767044067, 5.985289573669434, -0.24080342054367065, -0.8523817658424377, 0.09406770765781403, -0.5634968900586572, -0.24730624607451546, -4.5727561279510684, 9362.0, 30146.0, 35388.0, 9362.0, 8.350414276123047, -0.28772708773612976, 0.3331570625305176, -5.5137858390808105, -0.1095421090722084, -0.016320038586854935, 1.0248421430587769, -0.054621849209070206, -0.07543754577636719, 1.48974609375, 1.60693359375, 0.4335479736328125, 1.500732421875
28191, 4.09756326675415, -3.6702194213867188, -32.16014099121094, 0.21741871535778046, -1.3074926137924194, 80.50881958007812, 0.27852702140808105, -1.6673539876937866, 5.989048480987549, -0.24078907072544098, -0.8522785902023315, 0.09425142407417297, -0.5797764975347992, -0.32237185428184034, -4.674879138990698, 9362.0, 30146.0, 35388.0, 9362.0, 8.350414276123047, 0.25046029686927795, -0.006488130893558264, 0.5658189654350281, -0.09239992499351501, -0.02024746686220169, 1.0232998132705688, -0.054621849209070206, -0.07543754577636719, 1.48974609375, 1.326416015625, 0.022705078125, 1.500732421875
28201, 4.102412700653076, -3.667755126953125, -32.118492126464844, 0.21741871535778046, -1.3074926137924194, 80.50881958007812, 0.27852702140808105, -1.6673539876937866, 5.989048480987549, -0.24082212150096893, -0.8523903489112854, 0.09408042579889297, -0.5800987704146024, -0.24449262285159534, -4.573792180699224, 9362.0, 30146.0, 35388.0, 9362.0, 8.350414276123047, -0.56684410572052, -0.4613954424858093, -6.465902328491211, -0.10769985616207123, -0.021918127313256264, 1.0238947868347168, -0.054621849209070206, -0.07543754577636719, 1.48974609375, 1.12353515625, 0.9957122802734375, 1.500732421875
28221, 4.101075172424316, -3.6693592071533203, -32.13338088989258, 0.2230212539434433, -1.3410292863845825, 80.6286392211914, 0.28173694014549255, -1.6863240003585815, 5.9927263259887695, -0.2408139705657959, -0.8523917198181152, 0.09405743330717087, -0.5749271836341884, -0.2362625446552329, -4.574074916480038, 9362.0, 30146.0, 35388.0, 9362.0, 8.350414276123047, -0.7415248155593872, -0.38393864035606384, -4.648031234741211, -0.10795529931783676, -0.021611997857689857, 1.0259562730789185, -0.04167114570736885, -0.07543754577636719, 1.48974609375, 1.106689453125, 1.1853790283203125, 1.496337890625
28241, 4.09769344329834, -3.6720917224884033, -32.15129089355469, 0.2230212539434433, -1.3410292863845825, 80.6286392211914, 0.28173694014549255, -1.6863240003585815, 5.9927263259887695, -0.24081555008888245, -0.8523916006088257, 0.09406355768442154, -0.5692406067743783, -0.237567949623525, -4.578442810761719, 9362.0, 30146.0, 35388.0, 9362.0, 8.350414276123047, -0.1528344303369522, -0.4839716851711273, 2.5808870792388916, -0.10035325586795807, -0.02199903316795826, 1.0226702690124512, -0.04167114570736885, -0.07543754577636719, 1.48974609375, 1.18359375, 0.4842071533203125, 1.4970703125
28251, 4.094915390014648, -3.6713054180145264, -32.15936279296875, 0.2230212539434433, -1.3410292863845825, 80.6286392211914, 0.28173694014549255, -1.6863240003585815, 5.9927263259887695, -0.24081949889659882, -0.8523977994918823, 0.09403298795223236, -0.5824540485217836, -0.24610547231318947, -4.571799429925976, 9362.0, 30146.0, 35388.0, 9362.0, 8.350414276123047, 0.985822856426239, 0.7119330167770386, -3.1943562030792236, -0.10035325586795807, -0.02199903316795826, 1.0226702690124512, -0.04167114570736885, -0.07543754577636719, 1.48974609375, 1.06787109375, 1.7122650146484375, 1.4970703125
28261, 4.098386287689209, -3.6748387813568115, -32.164398193359375, 0.2230212539434433, -1.3410292863845825, 80.6286392211914, 0.28173694014549255, -1.6863240003585815, 5.9927263259887695, -0.24081502854824066, -0.8523827791213989, 0.09405511617660522, -0.5805765607300352, -0.2314660132302322, -4.566502944789057, 9362.0, 30146.0, 35388.0, 9362.0, 8.350414276123047, -0.09019008278846741, -0.342367023229599, 5.8977789878845215, -0.10035325586795807, -0.02199903316795826, 1.0226702690124512, -0.04167114570736885, -0.07543754577636719, 1.48974609375, 1.47802734375, 0.1532745361328125, 1.4970703125
28331, 4.099925518035889, -3.6805992126464844, -32.1467399597168, 0.2460746020078659, -1.4789694547653198, 81.10862731933594, 0.2946054935455322, -1.7621492147445679, 6.006715297698975, -0.2406872659921646, -0.8521770238876343, 0.09465759992599487, -0.4292234908154479, -0.45010922511241347, -4.751024751012536, 9362.0, 30146.0, 35388.0, 9362.0, 8.350414276123047, -0.5043674111366272, 0.38060081005096436, -6.258235931396484, -0.09501662850379944, -0.029235271736979485, 1.0271532535552979, -0.04167114570736885, -0.07543754577636719, 1.48974609375, 1.074462890625, 1.6134033203125, 1.4970703125
28351, 4.101131439208984, -3.683488368988037, -32.14180374145508, 0.2640421986579895, -1.586404800415039, 81.46932983398438, 0.30432066321372986, -1.8190608024597168, 6.01698637008667, -0.24072620272636414, -0.852337121963501, 0.09446266293525696, -0.4461453477856795, -0.4164414010013502, -4.645530930114916, 9362.0, 30146.0, 35388.0, 9362.0, 8.350414276123047, -0.4891490042209625, 0.320982962846756, -8.2118501663208, -0.09501662850379944, -0.029235271736979485, 1.0271532535552979, -0.04167114570736885, -0.07543754577636719, 1.48974609375, 1.259765625, 0.1334381103515625, 1.4970703125
28501, 4.101263999938965, -3.689483880996704, -32.12925338745117, 0.30824795365333557, -1.850380301475525, 82.31344604492188, 0.32723474502563477, -1.9520620107650757, 6.042104244232178, -0.24077825248241425, -0.8522757887840271, 0.09430995583534241, -0.5788981366589747, -0.34052969734133853, -4.681725124208554, 9362.0, 30146.0, 35388.0, 9362.0, 8.350414276123047, 0.13470745086669922, -0.4448368549346924, 3.119440793991089, -0.09096858650445938, -0.015557952225208282, 1.0241283178329468, -0.02775251306593418, 0.1933612823486328, 1.51171875, 1.031982421875, 2.324127197265625, 1.4970703125
28521, 4.097900390625, -3.6935436725616455, -32.16160202026367, 0.30824795365333557, -1.850380301475525, 82.31344604492188, 0.32723474502563477, -1.9520620107650757, 6.042104244232178, -0.24071265757083893, -0.8521614074707031, 0.09453088790178299, -0.48289905833554614, -0.40586398111085487, -4.784027188398292, 9362.0, 30146.0, 35388.0, 9362.0, 8.350414276123047, 0.28718677163124084, -0.3038111925125122, 5.635781288146973, -0.10362943261861801, -0.02351544238626957, 1.0240001678466797, -0.02775251306593418, 0.1933612823486328, 1.51171875, 1.43994140625, 0.089324951171875, 1.4970703125
28531, 4.0986456871032715, -3.6925158500671387, -32.15626525878906, 0.30824795365333557, -1.850380301475525, 82.31344604492188, 0.32723474502563477, -1.9520620107650757, 6.042104244232178, -0.2406998574733734, -0.8521572351455688, 0.09454528242349625, -0.49718259861657255, -0.399858006482134, -4.78550857359726, 9362.0, 30146.0, 35388.0, 9362.0, 8.350414276123047, 0.3844459354877472, 0.6274094581604004, -4.10945987701416, -0.1029064729809761, -0.016062501817941666, 1.0219610929489136, -0.02775251306593418, 0.1933612823486328, 1.51171875, 1.28173828125, 0.0802001953125, 1.4970703125
28541, 4.098596572875977, -3.6952295303344727, -32.16303634643555, 0.30824795365333557, -1.850380301475525, 82.31344604492188, 0.32723474502563477, -1.9520620107650757, 6.042104244232178, -0.24072812497615814, -0.8521497845649719, 0.0945596843957901, -0.4922538594755502, -0.4001246382699719, -4.775094566190988, 9362.0, 30146.0, 35388.0, 9362.0, 8.350414276123047, 0.5124745965003967, -0.7409926652908325, 4.700750350952148, -0.10266875475645065, -0.035923831164836884, 1.0295774936676025, -0.02775251306593418, 0.1933612823486328, 1.51171875, 1.47802734375, 0.1532745361328125, 1.4970703125
28551, 4.098074436187744, -3.6891748905181885, -32.15436553955078, 0.30824795365333557, -1.850380301475525, 82.31344604492188, 0.32723474502563477, -1.9520620107650757, 6.042104244232178, -0.24075375497341156, -0.8522728681564331, 0.09437517821788788, -0.5808348979476698, -0.3372971160113991, -4.687999974840192, 9362.0, 30146.0, 35388.0, 9362.0, 8.350414276123047, 1.021867036819458, 0.9452791810035706, -3.763432502746582, -0.10787206143140793, -0.019824247807264328, 1.0224450826644897, -0.02775251306593418, 0.1933612823486328, 1.51171875, 1.185791015625, 0.4698638916015625, 1.4970703125
28561, 4.102248191833496, -3.6930782794952393, -32.16130828857422, 0.30824795365333557, -1.850380301475525, 82.31344604492188, 0.32723474502563477, -1.9520620107650757, 6.042104244232178, -0.24076461791992188, -0.8522815108299255, 0.09434976428747177, -0.5706238131917971, -0.3452477614228542, -4.67966897595401, 9362.0, 30146.0, 35388.0, 9362.0, 8.350414276123047, -0.33363381028175354, -0.02514020726084709, 3.6353530883789062, -0.10442172735929489, -0.04049224779009819, 1.0242894887924194, -0.02775251306593418, 0.1933612823486328, 1.51171875, 1.119140625, 1.04302978515625, 1.4970703125
28571, 4.098537921905518, -3.6930992603302, -32.160743713378906, 0.30824795365333557, -1.850380301475525, 82.31344604492188, 0.32723474502563477, -1.9520620107650757, 6.042104244232178, -0.2407773733139038, -0.8522824048995972, 0.09434579312801361, -0.5814750216871235, -0.3401163983760114, -4.678051023852421, 9362.0, 30146.0, 35388.0, 9362.0, 8.350414276123047, 0.7867127656936646, 0.7166215777397156, 0.30791768431663513, -0.10442172735929489, -0.04049224779009819, 1.0242894887924194, -0.02775251306593418, 0.1933612823486328, 1.51171875, 1.54248046875, 0.28521728515625, 1.4970703125
28581, 4.10331392288208, -3.696790933609009, -32.1743278503418, 0.30824795365333557, -1.850380301475525, 82.31344604492188, 0.32723474502563477, -1.9520620107650757, 6.042104244232178, -0.24070954322814941, -0.8521616458892822, 0.09456754475831985, -0.4895375712268996, -0.399495598822341, -4.7800977699481555, 9362.0, 30146.0, 35388.0, 9362.0, 8.350414276123047, -0.04848243296146393, 0.28342244029045105, 8.856086730957031, -0.10281142592430115, -0.03609507530927658, 1.0272647142410278, -0.02775251306593418, 0.1933612823486328, 1.51171875, 1.399658203125, 0.0396575927734375, 1.5
28601, 4.101687431335449, -3.7003495693206787, -32.18318176269531, 0.34179210662841797, -2.050339698791504, 82.91857147216797, 0.3436456620693207, -2.047163248062134, 6.060713291168213, -0.24082298576831818, -0.852132260799408, 0.0943974107503891, -0.5215180523889684, -0.34495411150760447, -4.753667942121422, 9362.0, 30146.0, 35388.0, 9362.0, 8.350414276123047, 0.42988285422325134, 0.038644179701805115, 11.455833435058594, -0.10359726846218109, -0.03360116481781006, 1.0246970653533936, -0.02775251306593418, 0.1933612823486328, 1.51171875, 1.57763671875, 0.3647918701171875, 1.5
28631, 4.103928089141846, -3.692915678024292, -32.1429557800293, 0.35566940903663635, -2.132988452911377, 83.1611557006836, 0.3502143919467926, -2.0852577686309814, 6.068306922912598, -0.24089626967906952, -0.8522765636444092, 0.09419094026088715, -0.6231649348734711, -0.26800357415996245, -4.6423901418704405, 9362.0, 30146.0, 35388.0, 9362.0, 8.350414276123047, -0.5451345443725586, 0.11950574815273285, -5.905740261077881, -0.11167626082897186, -0.012988176196813583, 1.0204870700836182, -0.05429082736372948, 0.09480094909667969, 1.503662109375, 1.53076171875, 0.2596435546875, 1.494873046875
28641, 4.102041721343994, -3.696450710296631, -32.1854133605957, 0.35566940903663635, -2.132988452911377, 83.1611557006836, 0.3502143919467926, -2.0852577686309814, 6.068306922912598, -0.24082021415233612, -0.8521552681922913, 0.0944410115480423, -0.5160386663684737, -0.35468046561410915, -4.759361731816858, 9362.0, 30146.0, 35388.0, 9362.0, 8.350414276123047, -0.35602259635925293, -0.19148263335227966, 4.1311821937561035, -0.11167626082897186, -0.012988176196813583, 1.0204870700836182, -0.05429082736372948, 0.09480094909667969, 1.503662109375, 1.49853515625, 0.1927032470703125, 1.497802734375
28651, 4.106312274932861, -3.6904680728912354, -32.12901306152344, 0.35566940903663635, -2.132988452911377, 83.1611557006836, 0.3502143919467926, -2.0852577686309814, 6.068306922912598, -0.24081619083881378, -0.8521417379379272, 0.09446199983358383, -0.5162750779096758, -0.35713580856346994, -4.759107245089113, 9362.0, 30146.0, 35388.0, 9362.0, 8.350414276123047, -0.5470616817474365, 0.03879065811634064, -10.310369491577148, -0.11290384083986282, -0.019509634003043175, 1.0191386938095093, -0.05429082736372948, 0.09480094909667969, 1.503662109375, 1.572509765625, 0.3528594970703125, 1.497802734375
28661, 4.09885835647583, -3.694629669189453, -32.19156265258789, 0.35566940903663635, -2.132988452911377, 83.1611557006836, 0.3502143919467926, -2.0852577686309814, 6.068306922912598, -0.2408180981874466, -0.8521361351013184, 0.09446946531534195, -0.5150916148494271, -0.34732315302909456, -4.7645551110406, 9362.0, 30146.0, 35388.0, 9362.0, 8.350414276123047, 0.13449569046497345, -0.34757766127586365, 3.255772590637207, -0.09134447574615479, -0.01293155550956726, 1.0219526290893555, -0.05429082736372948, 0.09480094909667969, 1.503662109375, 1.57470703125, 0.3579864501953125, 1.497802734375
28671, 4.105175495147705, -3.68887996673584, -32.13277816772461, 0.3698093891143799, -2.2171599864959717, 83.40403747558594, 0.3567606508731842, -2.1232779026031494, 6.0750908851623535, -0.24081701040267944, -0.8521426916122437, 0.09447697550058365, -0.5162215595266073, -0.36203684921781587, -4.759482423624079, 9362.0, 30146.0, 35388.0, 9362.0, 8.350414276123047, -0.7368940114974976, -0.6547146439552307, -7.125306129455566, -0.11095593869686127, -0.022823411971330643, 1.0233298540115356, -0.05429082736372948, 0.09480094909667969, 1.503662109375, 1.1630859375, 0.6321258544921875, 1.497802734375
