timeTick, roll, pitch, yaw, stateX, stateY, stateZ, stateVX, stateVY, stateVZ, otX0, otY0, otZ0, otRoll0, otPitch0, otYaw0, left wing, pitch motor, yaw motor, right wing, voltage, roll rate, pitch rate, yaw rate, A_x, A_y, A_z, current, i_raw, v_raw, airflow_voltage, airflow_speed, pot_Pitch
22096, -2.475900650024414, -1.6281867027282715, -1.157753825187683, 0, 0, 0, 0, 0, 0, -0.6536888480186462, -0.9520183205604553, 0.1036515012383461, -1.1846228954539226, -0.6542769596681808, 1.8362265976531973, 0, 0, 0, 0, 0, 0, 0, 0, 0, 0, 0, 0, 0, 0, 0, 0, 0
22106, -2.474968433380127, -1.6270990371704102, -1.1561754941940308, 0.0030352354515343904, 0.004421787336468697, 52.13713836669922, 0.15470324456691742, 0.22537750005722046, 5.089239597320557, -0.6536433696746826, -0.9520144462585449, 0.10365792363882065, -1.1920971377996725, -0.6525715688228502, 1.8470847425317802, 9362.0, 30146.0, 35388.0, 9362.0, 0, 0.10749123990535736, 0.04624343290925026, -0.14980067312717438, -0.08160030096769333, -0.01049752440303564, 1.0270161628723145, 0, 0, 0, 0, 0, 0
22116, -2.473141670227051, -1.6290843486785889, -1.1559803485870361, 0.004597019404172897, 0.0066970521584153175, 52.188045501708984, 0.15765342116355896, 0.2296755462884903, 5.091857433319092, -0.653658926486969, -0.9520121216773987, 0.10366608947515488, -1.1927239911638015, -0.6581609869586487, 1.8332655069718584, 9362.0, 30146.0, 35388.0, 9362.0, 0, 0.027364587411284447, 0.010680850595235825, 0.00671806326135993, -0.08282900601625443, -0.010691765695810318, 1.0251232385635376, 0, 0, 0, 1.3916015625, 0.0325927734375, 0
22126, -2.4717671871185303, -1.6284127235412598, -1.155840516090393, 0.006188275292515755, 0.009015262126922607, 52.238975524902344, 0.16059787571430206, 0.23396633565425873, 5.094343185424805, -0.6537363529205322, -0.9520263671875, 0.10360462963581085, -1.1892716489034616, -0.677128474692978, 1.8234978869136553, 9362.0, 30146.0, 35388.0, 9362.0, 0, 0.24126575887203217, 0.24474167823791504, -0.0018444040324538946, -0.08254489302635193, -0.01166443433612585, 1.026239037513733, 0, 0, 0, 1.406982421875, 0.046966552734375, 1.4970703125
22136, -2.4705238342285156, -1.6315593719482422, -1.154557466506958, 0.007808971218764782, 0.011376331560313702, 52.28993225097656, 0.1635413020849228, 0.23824751377105713, 5.096680164337158, -0.6539205312728882, -0.9521469473838806, 0.1032244935631752, -1.246286915166431, -0.5860065505858643, 1.8292173910580982, 9362.0, 30146.0, 35388.0, 9362.0, 0, -0.012433348223567009, 0.11700931191444397, 0.1037089079618454, -0.08031845837831497, -0.010195324197411537, 1.0249981880187988, 0, 0, 0, 1.288330078125, 0.0676116943359375, 1.4970703125
22146, -2.4694156646728516, -1.6326100826263428, -1.153606653213501, 0.009459101594984531, 0.013780210167169571, 52.340911865234375, 0.1664847880601883, 0.24252821505069733, 5.09906005859375, -0.6538875102996826, -0.9520183801651001, 0.10338705033063889, -1.1880543295436674, -0.6079063517748864, 1.76679706867243, 9362.0, 30146.0, 35388.0, 9362.0, 0, 0.0043508983217179775, 0.21200686693191528, -0.06156640499830246, -0.0818188413977623, -0.009984571486711502, 1.0267274379730225, 0, 0, 0, 1.326416015625, 0.022705078125, 1.494140625
22156, -2.4696929454803467, -1.6336970329284668, -1.1539435386657715, 0.011138691566884518, 0.016226882115006447, 52.39191436767578, 0.16943316161632538, 0.2468060404062271, 5.101424694061279, -0.6537855267524719, -0.9520190358161926, 0.10354194045066833, -1.187278785597741, -0.6970228239794096, 1.805919724235658, 9362.0, 30146.0, 35388.0, 9362.0, 0, 0.31196773052215576, 0.4370535910129547, 0.03774401172995567, -0.08188255876302719, -0.01150992140173912, 1.0248172283172607, 0, 0, 0, 1.437744140625, 0.086029052734375, 1.494140625
22166, -2.4676544666290283, -1.6371678113937378, -1.1542844772338867, 0.012847782112658024, 0.01871633343398571, 52.44293975830078, 0.1723850518465042, 0.2510843575000763, 5.103847026824951, -0.6537772417068481, -0.9520372152328491, 0.10350405424833298, -1.1832019445453479, -0.6843224265550134, 1.8132831042586826, 9362.0, 30146.0, 35388.0, 9362.0, 0, 0.12234552949666977, 0.25400859117507935, 0.08242615312337875, -0.08108872175216675, -0.01014375127851963, 1.024272084236145, 0, 0, 0, 1.46044921875, 0.12200927734375, 1.493408203125
22176, -2.466615915298462, -1.6376570463180542, -1.1542390584945679, 0.014586390927433968, 0.021248554810881615, 52.49399185180664, 0.17533686757087708, 0.255359947681427, 5.106197357177734, -0.6538866758346558, -0.952002763748169, 0.10339826345443726, -1.184393298646981, -0.5986438467166124, 1.767524769811833, 9362.0, 30146.0, 35388.0, 9362.0, 0, 0.08787384629249573, -0.08274101465940475, 0.2794589698314667, -0.08129426836967468, -0.009378362447023392, 1.0242658853530884, 0, 0, 0, 1.200439453125, 0.3812713623046875, 1.493408203125
22186, -2.4669923782348633, -1.6360949277877808, -1.1533974409103394, 0.016354534775018692, 0.023823494091629982, 52.545066833496094, 0.17829184234142303, 0.25962790846824646, 5.10845422744751, -0.6538879871368408, -0.9520021677017212, 0.10342734307050705, -1.186890673960816, -0.6033508509616752, 1.7854760908228315, 9362.0, 30146.0, 35388.0, 9362.0, 0, 0.2839852571487427, 0.259296715259552, -0.013539658859372139, -0.08417878299951553, -0.00879642367362976, 1.0227553844451904, 0, 0, 0, 1.44873046875, 0.102813720703125, 1.493408203125
22196, -2.4648993015289307, -1.6381001472473145, -1.1511374711990356, 0.018152223899960518, 0.026441093534231186, 52.596160888671875, 0.18124604225158691, 0.2638920545578003, 5.110661506652832, -0.6538876891136169, -0.9520170092582703, 0.10341183841228485, -1.1976890370438713, -0.5850345508335977, 1.7933556521229008, 9362.0, 30146.0, 35388.0, 9362.0, 8.370248794555664, -0.08550480753183365, 0.24538607895374298, 0.14195942878723145, -0.08219505846500397, -0.010853026062250137, 1.0243698358535767, -0.06781590729951859, -0.13815879821777344, 1.484619140625, 1.4677734375, 0.1347198486328125, 1.493408203125
22206, -2.46354603767395, -1.6403768062591553, -1.1512173414230347, 0.019979432225227356, 0.02910132333636284, 52.64727783203125, 0.1841953694820404, 0.2681538760662079, 5.112797737121582, -0.6539030075073242, -0.9520019888877869, 0.10340853035449982, -1.1861308937162653, -0.596165989718628, 1.7798573537988447, 9362.0, 30146.0, 35388.0, 9362.0, 8.370248794555664, -0.024110039696097374, 0.04252081736922264, -0.02365163527429104, -0.0825987383723259, -0.010784038342535496, 1.0271245241165161, -0.06781590729951859, -0.13815879821777344, 1.484619140625, 1.318359375, 0.028656005859375, 1.494140625
22216, -2.465414047241211, -1.6415698528289795, -1.152578592300415, 0.021836185827851295, 0.03180420398712158, 52.69841766357422, 0.18715548515319824, 0.27242258191108704, 5.115182876586914, -0.6539085507392883, -0.9520014524459839, 0.10341612994670868, -1.1863125846999885, -0.590909651656375, 1.7883059319367245, 9362.0, 30146.0, 35388.0, 9362.0, 8.370248794555664, 0.08757303655147552, 0.21916599571704865, -0.14122997224330902, -0.08234623819589615, -0.009171503596007824, 1.0289183855056763, -0.06781590729951859, -0.13815879821777344, 1.484619140625, 1.50732421875, 0.2104644775390625, 1.494140625
22226, -2.4646193981170654, -1.6408288478851318, -1.1536548137664795, 0.023722587153315544, 0.03454979881644249, 52.74958419799805, 0.19012488424777985, 0.27669647336006165, 5.117745876312256, -0.6539013981819153, -0.9520058631896973, 0.10339710861444473, -1.1855579812738237, -0.5954443001133711, 1.784640262547394, 9362.0, 30146.0, 35388.0, 9362.0, 8.370248794555664, -0.01750718057155609, -0.13209640979766846, 0.1855495572090149, -0.08190000057220459, -0.012067274190485477, 1.0273160934448242, -0.06781590729951859, -0.13815879821777344, 1.484619140625, 1.486083984375, 0.16845703125, 1.487548828125
22236, -2.4631507396698, -1.638877272605896, -1.1551201343536377, 0.02563871443271637, 0.03733817860484123, 52.80077362060547, 0.19310060143470764, 0.2809793949127197, 5.120450496673584, -0.6538479328155518, -0.9519426822662354, 0.10342994332313538, -1.1693879327387011, -0.5817116713509165, 1.7916656176481913, 9362.0, 30146.0, 35388.0, 9362.0, 8.370248794555664, 0.037756647914648056, -0.19951926171779633, 0.5343985557556152, -0.08062203973531723, -0.009508012793958187, 1.020495891571045, -0.06781590729951859, -0.13815879821777344, 1.484619140625, 1.361572265625, 0.016571044921875, 1.487548828125
22246, -2.462754726409912, -1.6381187438964844, -1.1552517414093018, 0.027584537863731384, 0.04016930237412453, 52.85198974609375, 0.19606415927410126, 0.2852451205253601, 5.122785568237305, -0.6538915634155273, -0.9519960880279541, 0.10339462757110596, -1.1878901778727804, -0.5960849664668899, 1.7750220465336146, 9362.0, 30146.0, 35388.0, 9362.0, 8.370248794555664, 0.2570595145225525, 0.17171646654605865, -0.5532441735267639, -0.08192101866006851, -0.011186190880835056, 1.0214799642562866, -0.06781590729951859, -0.13815879821777344, 1.484619140625, 1.50439453125, 0.2044219970703125, 1.494873046875
22256, -2.462587594985962, -1.6397829055786133, -1.1494064331054688, 0.029559912160038948, 0.043042972683906555, 52.903228759765625, 0.19901052117347717, 0.2894885838031769, 5.1246538162231445, -0.6538980007171631, -0.9520137310028076, 0.10341007262468338, -1.1869836353506122, -0.5843781845587444, 1.7981896745295605, 9362.0, 30146.0, 35388.0, 9362.0, 8.370248794555664, 0.18114277720451355, 0.21055868268013, -2.1765170097351074, -0.08088734745979309, -0.013689332641661167, 1.0317885875701904, -0.06781590729951859, -0.13815879821777344, 1.484619140625, 1.2509765625, 0.1600799560546875, 1.494873046875
22266, -2.4624533653259277, -1.6417994499206543, -1.1531864404678345, 0.03156479448080063, 0.045959144830703735, 52.95448684692383, 0.20196521282196045, 0.29374608397483826, 5.126860618591309, -0.6539211869239807, -0.952000617980957, 0.10338703542947769, -1.1853582704160106, -0.5807961525057408, 1.781671897330872, 9362.0, 30146.0, 35388.0, 9362.0, 8.370248794555664, 0.039688240736722946, 0.006005547009408474, 0.40125221014022827, -0.08351549506187439, -0.010902395471930504, 1.0317096710205078, -0.06781590729951859, -0.13815879821777344, 1.484619140625, 1.169677734375, 0.5817718505859375, 1.49267578125
22276, -2.463581085205078, -1.6414164304733276, -1.155877709388733, 0.0335993655025959, 0.04891808331012726, 53.00577163696289, 0.20494967699050903, 0.2980412542819977, 5.129968166351318, -0.6539208292961121, -0.9520137310028076, 0.103378064930439, -1.1889144472759567, -0.5941774858912083, 1.7813625119176324, 9362.0, 30146.0, 35388.0, 9362.0, 8.370248794555664, -0.15885360538959503, -0.34431710839271545, 0.0647735670208931, -0.08205430954694748, -0.00818412471562624, 1.0207477807998657, -0.06781590729951859, -0.13815879821777344, 1.484619140625, 1.4560546875, 0.1147003173828125, 1.49267578125
22286, -2.4628183841705322, -1.6391000747680664, -1.1564148664474487, 0.03566374257206917, 0.051919884979724884, 53.05708312988281, 0.20792585611343384, 0.3023189306259155, 5.13267183303833, -0.6538375020027161, -0.9519447088241577, 0.10342128574848175, -1.1749786118484236, -0.5662203761568207, 1.8022373371564349, 9362.0, 30146.0, 35388.0, 9362.0, 8.370248794555664, -0.10350880771875381, 0.0008067396702244878, 0.3205752968788147, -0.08239544183015823, -0.009328003972768784, 1.0213264226913452, -0.06781590729951859, -0.13815879821777344, 1.484619140625, 1.286865234375, 0.070281982421875, 1.48828125
22296, -2.464209794998169, -1.6395585536956787, -1.1574926376342773, 0.0377577506005764, 0.05496428906917572, 53.10841751098633, 0.210876002907753, 0.30656197667121887, 5.134515762329102, -0.6537468433380127, -0.9519592523574829, 0.1035160943865776, -1.1741075134614458, -0.6624346866902329, 1.8325429080472102, 9362.0, 30146.0, 35388.0, 9362.0, 8.370248794555664, -0.1146177425980568, 0.023802822455763817, 0.17023193836212158, -0.07922249287366867, -0.010337147861719131, 1.0303051471710205, -0.07344444841146469, -0.10231781005859375, 1.487548828125, 1.50732421875, 0.2104644775390625, 1.48828125
22306, -2.46431040763855, -1.6391726732254028, -1.1551779508590698, 0.03988128527998924, 0.05805118381977081, 53.15977478027344, 0.21383124589920044, 0.3108167350292206, 5.136665344238281, -0.6538618803024292, -0.9519641399383545, 0.10339686274528503, -1.1772351512773531, -0.5948293487641081, 1.7966372015690641, 9362.0, 30146.0, 35388.0, 9362.0, 8.370248794555664, 0.04945366457104683, 0.010777028277516365, -0.2667122483253479, -0.08244428038597107, -0.012728113681077957, 1.0301624536514282, -0.07344444841146469, -0.10231781005859375, 1.487548828125, 1.493408203125, 0.1825714111328125, 1.490478515625
22316, -2.463700294494629, -1.6412866115570068, -1.1560306549072266, 0.04203448444604874, 0.06118078902363777, 53.21115493774414, 0.2168085128068924, 0.31510481238365173, 5.139538764953613, -0.6537628173828125, -0.9519957900047302, 0.10347767174243927, -1.1878602413194193, -0.6771560226100348, 1.8353434423919224, 9362.0, 30146.0, 35388.0, 9362.0, 8.370248794555664, 0.04146633669734001, -0.1399649679660797, 0.04187127575278282, -0.07830920815467834, -0.010805387049913406, 1.0258746147155762, -0.07344444841146469, -0.10231781005859375, 1.487548828125, 1.497802734375, 0.19122314453125, 1.490478515625
22326, -2.4629688262939453, -1.6394785642623901, -1.156270146369934, 0.04421743005514145, 0.06435324251651764, 53.26256561279297, 0.21978046000003815, 0.3193860650062561, 5.142250061035156, -0.6537590026855469, -0.9520049095153809, 0.10348885506391525, -1.1849987548564314, -0.6609285658519184, 1.789691398056575, 9362.0, 30146.0, 35388.0, 9362.0, 8.370248794555664, 0.2289658486843109, 0.19967958331108093, -0.6591683626174927, -0.08103837817907333, -0.010277168825268745, 1.022132158279419, -0.07344444841146469, -0.10231781005859375, 1.487548828125, 1.338134765625, 0.01727294921875, 1.4912109375
22336, -2.462491750717163, -1.6394027471542358, -1.1579440832138062, 0.04643005132675171, 0.06756841391324997, 53.31399917602539, 0.22274398803710938, 0.3236488699913025, 5.14455509185791, -0.6539318561553955, -0.9520222544670105, 0.10331893712282181, -1.1828939408358472, -0.5819723009033169, 1.7840321025349068, 9362.0, 30146.0, 35388.0, 9362.0, 8.370248794555664, 0.17139166593551636, -0.1337888091802597, -0.12476559728384018, -0.08001311123371124, -0.011481980793178082, 1.0264854431152344, -0.07344444841146469, -0.10231781005859375, 1.487548828125, 1.404052734375, 0.04400634765625, 1.4912109375
22346, -2.462614059448242, -1.6388124227523804, -1.1597591638565063, 0.048672258853912354, 0.07082616537809372, 53.365455627441406, 0.22569774091243744, 0.3279006779193878, 5.146629810333252, -0.6538935899734497, -0.9520055651664734, 0.10341639816761017, -1.2020817825894896, -0.623530509798826, 1.7919076735120751, 9362.0, 30146.0, 35388.0, 9362.0, 8.370248794555664, 0.017542222514748573, -0.01836506277322769, -0.08695702999830246, -0.07937486469745636, -0.011159637942910194, 1.0295037031173706, -0.07344444841146469, -0.10231781005859375, 1.487548828125, 1.247314453125, 0.172119140625, 1.491943359375
22356, -2.4627857208251953, -1.6402796506881714, -1.1606454849243164, 0.05094408243894577, 0.07412654161453247, 53.416934967041016, 0.22866740822792053, 0.33217453956604004, 5.149247646331787, -0.6538702249526978, -0.95200115442276, 0.1034863218665123, -1.2028077961312007, -0.6326791264550593, 1.7982936665559948, 9362.0, 30146.0, 35388.0, 9362.0, 8.370248794555664, -0.1737648993730545, 0.10206803679466248, 0.12973250448703766, -0.08068063110113144, -0.0097720418125391, 1.0288026332855225, -0.07344444841146469, -0.10231781005859375, 1.487548828125, 1.47802734375, 0.1532745361328125, 1.491943359375
22366, -2.464087963104248, -1.6403913497924805, -1.158165693283081, 0.05324561893939972, 0.07746968418359756, 53.468441009521484, 0.23163993656635284, 0.33645400404930115, 5.1519904136657715, -0.6538570523262024, -0.9519907832145691, 0.10347376763820648, -1.2049970091295559, -0.6311480523048658, 1.7871501909540026, 9362.0, 30146.0, 35388.0, 9362.0, 8.370248794555664, -0.027066506445407867, 0.006537745241075754, -0.24822035431861877, -0.08405156433582306, -0.010055414400994778, 1.0262528657913208, -0.07344444841146469, -0.10231781005859375, 1.487548828125, 1.47509765625, 0.147857666015625, 1.494873046875
22376, -2.4646213054656982, -1.6409910917282104, -1.158081293106079, 0.0555768758058548, 0.080855593085289, 53.51997375488281, 0.23461125791072845, 0.3407287001609802, 5.154613494873047, -0.6538580656051636, -0.9519957900047302, 0.10350960493087769, -1.205230792098629, -0.6409312825066138, 1.7902233294436471, 9362.0, 30146.0, 35388.0, 9362.0, 8.370248794555664, 0.20891986787319183, 0.006772184278815985, 0.2321149706840515, -0.0821680799126625, -0.011939323507249355, 1.0268468856811523, -0.07344444841146469, -0.10231781005859375, 1.487548828125, 1.388671875, 0.03033447265625, 1.494873046875
22386, -2.4636895656585693, -1.6412206888198853, -1.1569377183914185, 0.05793781951069832, 0.0842842236161232, 53.571533203125, 0.23757748305797577, 0.3449980616569519, 5.157055377960205, -0.6538614630699158, -0.9519944787025452, 0.1034827008843422, -1.203185666176912, -0.6366428195025833, 1.7973310403299319, 9362.0, 30146.0, 35388.0, 9362.0, 8.370248794555664, 0.04490223154425621, 0.28631913661956787, 0.3513523042201996, -0.07964184880256653, -0.010631011798977852, 1.0288171768188477, -0.07344444841146469, -0.10231781005859375, 1.487548828125, 1.16162109375, 0.643707275390625, 1.487548828125
22396, -2.4626855850219727, -1.6442480087280273, -1.1542809009552002, 0.060328446328639984, 0.08775557577610016, 53.62311553955078, 0.2405475527048111, 0.34927240014076233, 5.1595940589904785, -0.653876006603241, -0.9519445300102234, 0.10343379527330399, -1.2414229613799008, -0.6539991514386827, 1.77472620510326, 9362.0, 30146.0, 35388.0, 9362.0, 8.370248794555664, 0.15759555995464325, -0.05810686573386192, 0.03182601183652878, -0.08017120510339737, -0.010226566344499588, 1.027553677558899, -0.05475316196680069, 0.0052013397216796875, 1.496337890625, 1.365234375, 0.0175933837890625, 1.487548828125
22406, -2.4620449542999268, -1.6445221900939941, -1.1548675298690796, 0.06274879723787308, 0.09126970171928406, 53.67472457885742, 0.24352304637432098, 0.3535526394844055, 5.162308216094971, -0.6538397073745728, -0.9519433975219727, 0.10348845273256302, -1.240228960236404, -0.6523488508979369, 1.7738949698089714, 9362.0, 30146.0, 35388.0, 9362.0, 8.370248794555664, 0.011648735962808132, -0.09408330917358398, 0.0631934404373169, -0.08306992053985596, -0.011104998178780079, 1.0247193574905396, -0.05475316196680069, 0.0052013397216796875, 1.496337890625, 1.355712890625, 0.0155029296875, 1.491943359375
22416, -2.4615843296051025, -1.6447665691375732, -1.152993083000183, 0.06519889831542969, 0.0948265790939331, 53.72636032104492, 0.24649761617183685, 0.35782212018966675, 5.164812088012695, -0.6538265943527222, -0.9519139528274536, 0.10349229723215103, -1.2505874132675792, -0.6562329704223941, 1.7734084056603259, 9362.0, 30146.0, 35388.0, 9362.0, 8.370248794555664, 0.0656648725271225, -0.12915381789207458, 0.1614135205745697, -0.08179785311222076, -0.009298564866185188, 1.0259525775909424, -0.05475316196680069, 0.0052013397216796875, 1.496337890625, 1.3974609375, 0.03759765625, 1.491943359375
22426, -2.4598114490509033, -1.6434401273727417, -1.1535074710845947, 0.06767871975898743, 0.09842609614133835, 53.778018951416016, 0.2494664490222931, 0.36208194494247437, 5.167112350463867, -0.6538496017456055, -0.9519146084785461, 0.10345592349767685, -1.2586987391068427, -0.6439824715893394, 1.7824385972652783, 9362.0, 30146.0, 35388.0, 9362.0, 8.370248794555664, -0.1540983021259308, -0.1786816269159317, -0.18805263936519623, -0.0824163630604744, -0.010888882912695408, 1.0270813703536987, -0.05475316196680069, 0.0052013397216796875, 1.496337890625, 1.464111328125, 0.1283111572265625, 1.494140625
22436, -2.4592745304107666, -1.6444520950317383, -1.1542978286743164, 0.0701882466673851, 0.10206823796033859, 53.8297004699707, 0.2524395287036896, 0.3663463592529297, 5.16954231262207, -0.6538234353065491, -0.9519107937812805, 0.10343977808952332, -1.269306122440537, -0.642653324489828, 1.7890816793799682, 9362.0, 30146.0, 35388.0, 9362.0, 8.370248794555664, 0.08669069409370422, -0.20560956001281738, 0.0709834098815918, -0.08096113055944443, -0.011297370307147503, 1.0250121355056763, -0.05475316196680069, 0.0052013397216796875, 1.496337890625, 1.487548828125, 0.1712188720703125, 1.494140625
22446, -2.4590611457824707, -1.6463797092437744, -1.152942419052124, 0.0727275013923645, 0.10575301945209503, 53.88140869140625, 0.2554120421409607, 0.37061014771461487, 5.172030448913574, -0.6538344621658325, -0.9518964290618896, 0.10349147766828537, -1.2539088744589748, -0.6483121542629817, 1.7957203276127305, 9362.0, 30146.0, 35388.0, 9362.0, 8.370248794555664, 0.20320457220077515, 0.3069431185722351, 0.3027046322822571, -0.08214224874973297, -0.010443653911352158, 1.0227793455123901, -0.05475316196680069, 0.0052013397216796875, 1.496337890625, 1.34326171875, 0.01605224609375, 1.490478515625
22456, -2.457736015319824, -1.6504533290863037, -1.151584506034851, 0.07529646158218384, 0.10948038846254349, 53.93313980102539, 0.25837936997413635, 0.3748631775379181, 5.174285411834717, -0.6540048122406006, -0.9518849849700928, 0.10302664339542389, -1.3653001936887148, -0.7371793597449425, 1.8629709165008725, 9362.0, 30146.0, 35388.0, 9362.0, 8.370248794555664, 0.012283357791602612, 0.3683082163333893, 0.12079684436321259, -0.08079653233289719, -0.00797615572810173, 1.0234144926071167, -0.05475316196680069, 0.0052013397216796875, 1.496337890625, 1.50732421875, 0.2104644775390625, 1.490478515625
22466, -2.4568376541137695, -1.6514660120010376, -1.150544285774231, 0.07789508998394012, 0.1132502555847168, 53.984893798828125, 0.26134639978408813, 0.37911054491996765, 5.176416397094727, -0.6538407802581787, -0.9519237279891968, 0.10343070328235626, -1.2701444609529249, -0.6436815470423483, 1.7886498869257659, 9362.0, 30146.0, 35388.0, 9362.0, 8.370248794555664, 0.108986996114254, 0.07517822086811066, -0.5317261219024658, -0.0809556171298027, -0.012688285671174526, 1.028495192527771, -0.05475316196680069, 0.0052013397216796875, 1.496337890625, 1.368896484375, 0.01885986328125, 1.48974609375
22476, -2.455838680267334, -1.6524502038955688, -1.152633786201477, 0.08052344620227814, 0.11706261336803436, 54.03667068481445, 0.2643245756626129, 0.38336166739463806, 5.17869234085083, -0.6540287733078003, -0.9518795609474182, 0.10306431353092194, -1.3639318734497745, -0.7580747567105846, 1.8895181105240377, 9362.0, 30146.0, 35388.0, 9362.0, 8.370248794555664, 0.15826667845249176, 0.18404608964920044, 0.07378609478473663, -0.08183132112026215, -0.012774871662259102, 1.0297520160675049, -0.05475316196680069, 0.0052013397216796875, 1.496337890625, 1.435546875, 0.0829315185546875, 1.48974609375
22486, -2.4555041790008545, -1.6541649103164673, -1.1529842615127563, 0.08318165689706802, 0.12091756612062454, 54.088470458984375, 0.2673172056674957, 0.3876288831233978, 5.181389331817627, -0.6540288925170898, -0.951887845993042, 0.1029275506734848, -1.3824072513942538, -0.7351915428895097, 1.8613695632870286, 9362.0, 30146.0, 35388.0, 9362.0, 8.370248794555664, -0.11649609357118607, 0.373950719833374, -0.02680687978863716, -0.08261826634407043, -0.009617370553314686, 1.0252314805984497, -0.05475316196680069, 0.0052013397216796875, 1.496337890625, 1.4794921875, 0.155975341796875, 1.493408203125
22496, -2.4561927318573, -1.6552536487579346, -1.153684139251709, 0.08586979657411575, 0.12481518089771271, 54.140296936035156, 0.270311176776886, 0.39189374446868896, 5.184072494506836, -0.6538132429122925, -0.951704204082489, 0.10349761694669724, -1.2294170242501719, -0.6440124752449208, 1.6069705645745993, 9362.0, 30146.0, 35388.0, 9362.0, 8.390083312988281, -0.05032993480563164, -0.5351773500442505, -0.32346558570861816, -0.08140431344509125, -0.00737639470025897, 1.0226247310638428, -0.04532315582036972, -0.05751800537109375, 1.4912109375, 1.469970703125, 0.1386566162109375, 1.493408203125
22506, -2.4561517238616943, -1.6505080461502075, -1.1560962200164795, 0.08858783543109894, 0.1287553459405899, 54.1921501159668, 0.2732960283756256, 0.3961406946182251, 5.186347484588623, -0.6538512706756592, -0.9516808986663818, 0.10313215106725693, -1.3073071812114887, -0.8092832049772198, 1.7377054500092508, 9362.0, 30146.0, 35388.0, 9362.0, 8.390083312988281, -0.013654759153723717, -0.09713872522115707, 0.07103743404150009, -0.08169292658567429, -0.009456777013838291, 1.0249066352844238, -0.04532315582036972, -0.05751800537109375, 1.4912109375, 1.317626953125, 0.0291900634765625, 1.491943359375
22516, -2.456627368927002, -1.650054693222046, -1.1574010848999023, 0.09133569896221161, 0.13273794949054718, 54.244022369384766, 0.2762773036956787, 0.40038084983825684, 5.188438892364502, -0.6538397669792175, -0.9516948461532593, 0.10311125218868256, -1.3198321499309262, -0.8008425794328105, 1.7324342602463632, 9362.0, 30146.0, 35388.0, 9362.0, 8.390083312988281, -0.07097138464450836, -0.184672012925148, -0.21343103051185608, -0.08060990273952484, -0.010960820131003857, 1.0266326665878296, -0.04532315582036972, -0.05751800537109375, 1.4912109375, 1.5439453125, 0.2884979248046875, 1.491943359375
22526, -2.4572975635528564, -1.6490367650985718, -1.1582107543945312, 0.09411337971687317, 0.13676302134990692, 54.29591751098633, 0.27925893664360046, 0.4046330749988556, 5.1908135414123535, -0.6538550853729248, -0.951671302318573, 0.10311117768287659, -1.3157365595182589, -0.8049671594612278, 1.730791827345051, 9362.0, 30146.0, 35388.0, 9362.0, 8.390083312988281, -0.029445771127939224, -0.03191863372921944, -0.15506945550441742, -0.08179416507482529, -0.010151483118534088, 1.0239958763122559, -0.04532315582036972, -0.05751800537109375, 1.4912109375, 1.236328125, 0.211822509765625, 1.49267578125
22536, -2.4573862552642822, -1.6478370428085327, -1.1588507890701294, 0.09692087769508362, 0.1408306211233139, 54.34783935546875, 0.28224122524261475, 0.4088881015777588, 5.193235874176025, -0.6539968252182007, -0.9516618251800537, 0.10287968069314957, -1.345569881820518, -0.674147143243772, 1.664759280148453, 9362.0, 30146.0, 35388.0, 9362.0, 8.390083312988281, -0.013961373828351498, -0.07917290180921555, 0.1485101580619812, -0.08180020749568939, -0.01206384226679802, 1.0230621099472046, -0.04532315582036972, -0.05751800537109375, 1.4912109375, 1.481689453125, 0.1600799560546875, 1.49267578125
22546, -2.457489013671875, -1.6465580463409424, -1.158178448677063, 0.09975815564393997, 0.14494073390960693, 54.399784088134766, 0.2852143347263336, 0.4131336510181427, 5.195406436920166, -0.653892457485199, -0.95164954662323, 0.10298772156238556, -1.3652936283901185, -0.7023592096327604, 1.7294873589570505, 9362.0, 30146.0, 35388.0, 9362.0, 8.390083312988281, -0.16293570399284363, 0.23659648001194, 0.03997994214296341, -0.08010140061378479, -0.011757747270166874, 1.0250204801559448, -0.04532315582036972, -0.05751800537109375, 1.4912109375, 1.32275390625, 0.0251312255859375, 1.49267578125
22556, -2.457829236984253, -1.6470011472702026, -1.1596614122390747, 0.10262514650821686, 0.14909330010414124, 54.45174789428711, 0.28818443417549133, 0.41737818717956543, 5.197548866271973, -0.6539022922515869, -0.9516125321388245, 0.10300354659557343, -1.3259218873709369, -0.6342844515777415, 1.7061218461093706, 9362.0, 30146.0, 35388.0, 9362.0, 8.390083312988281, -0.4218698740005493, -0.5370804667472839, 0.05869945511221886, -0.08006828278303146, -0.011506432667374611, 1.027478814125061, -0.04532315582036972, -0.05751800537109375, 1.4912109375, 1.524169921875, 0.2455596923828125, 1.49267578125
22566, -2.4596238136291504, -1.6428372859954834, -1.1593855619430542, 0.10552186518907547, 0.1532883644104004, 54.50373458862305, 0.29115986824035645, 0.4216335117816925, 5.199940204620361, -0.6537613272666931, -0.9516341686248779, 0.10347648710012436, -1.2216144439533658, -0.5497017280086993, 1.614909704316526, 9362.0, 30146.0, 35388.0, 9362.0, 8.390083312988281, 0.1721464991569519, 0.12268110364675522, -0.09396567195653915, -0.08155519515275955, -0.01165749691426754, 1.0252598524093628, -0.04532315582036972, -0.05751800537109375, 1.4912109375, 1.5146484375, 0.225494384765625, 1.489013671875
22576, -2.457874059677124, -1.6418060064315796, -1.1612495183944702, 0.10844837129116058, 0.15752601623535156, 54.555747985839844, 0.2941405475139618, 0.4258960485458374, 5.202487945556641, -0.6537912487983704, -0.9516486525535583, 0.10344741493463516, -1.2138162360026836, -0.5503963787552664, 1.6181166865544123, 9362.0, 30146.0, 35388.0, 9362.0, 8.390083312988281, -0.006520848721265793, -0.18337036669254303, -0.046289969235658646, -0.08229421824216843, -0.009106636978685856, 1.022410273551941, -0.04532315582036972, -0.05751800537109375, 1.4912109375, 1.487548828125, 0.1712188720703125, 1.489013671875
22586, -2.4569742679595947, -1.6408755779266357, -1.1616119146347046, 0.11140460520982742, 0.16180624067783356, 54.607784271240234, 0.2971060574054718, 0.43014997243881226, 5.20475959777832, -0.6539022922515869, -0.9515904784202576, 0.10303808748722076, -1.3187920969055569, -0.6246972802400705, 1.7199808248593615, 9362.0, 30146.0, 35388.0, 9362.0, 8.390083312988281, 0.19332031905651093, 0.09324876219034195, 0.18572013080120087, -0.08147387206554413, -0.010471093468368053, 1.0229496955871582, -0.04532315582036972, -0.05751800537109375, 1.4912109375, 1.308837890625, 0.0379486083984375, 1.489013671875
22596, -2.455380916595459, -1.6420936584472656, -1.161313533782959, 0.11439045518636703, 0.1661289483308792, 54.65984344482422, 0.3000638782978058, 0.43439245223999023, 5.206832408905029, -0.6537870764732361, -0.9516492486000061, 0.10344360768795013, -1.2184235757928024, -0.5430607707667718, 1.6201592732093313, 9362.0, 30146.0, 35388.0, 9362.0, 8.370248794555664, 0.25487250089645386, -0.016464369371533394, -0.570146381855011, -0.07821687310934067, -0.011502964422106743, 1.0265980958938599, -0.04630263149738312, -0.06647872924804688, 1.490478515625, 1.386474609375, 0.028656005859375, 1.489013671875
22606, -2.452916145324707, -1.6408283710479736, -1.1630382537841797, 0.11740589886903763, 0.17049410939216614, 54.71192169189453, 0.30302438139915466, 0.4386395812034607, 5.209051609039307, -0.6537784934043884, -0.951669454574585, 0.10343426465988159, -1.2188834723375777, -0.5405172972427863, 1.6358341423089304, 9362.0, 30146.0, 35388.0, 9362.0, 8.370248794555664, 0.25786125659942627, -0.1940283626317978, 0.7494654655456543, -0.08346886932849884, -0.012087682262063026, 1.026318073272705, -0.04630263149738312, -0.06647872924804688, 1.490478515625, 1.484619140625, 0.1656646728515625, 1.48974609375
22616, -2.4517266750335693, -1.6400940418243408, -1.162532925605774, 0.12045099586248398, 0.1749017834663391, 54.76402282714844, 0.30599531531333923, 0.4428956210613251, 5.211551666259766, -0.6539021134376526, -0.9516212940216064, 0.1029779314994812, -1.3180327928917264, -0.6144113638198405, 1.7131707584469658, 9362.0, 30146.0, 35388.0, 9362.0, 8.370248794555664, 0.1213415265083313, -0.03617657721042633, -0.27774718403816223, -0.07879889756441116, -0.012158265337347984, 1.027519702911377, -0.04630263149738312, -0.06647872924804688, 1.490478515625, 1.3828125, 0.0261077880859375, 1.48974609375
22626, -2.4506149291992188, -1.6397721767425537, -1.1599476337432861, 0.12045099586248398, 0.1749017834663391, 54.76402282714844, 0.30599531531333923, 0.4428956210613251, 5.211551666259766, -0.653900682926178, -0.9517232179641724, 0.10295449197292328, -1.3352980071759262, -0.6160237704999645, 1.7772348797483268, 9362.0, 30146.0, 35388.0, 9362.0, 8.370248794555664, 0.3975067436695099, -0.21573688089847565, 0.7285900115966797, -0.07879889756441116, -0.012158265337347984, 1.027519702911377, -0.04630263149738312, -0.06647872924804688, 1.490478515625, 1.39306640625, 0.0337982177734375, 1.48974609375
22636, -2.4493775367736816, -1.637695550918579, -1.1593884229660034, 0.12045099586248398, 0.1749017834663391, 54.76402282714844, 0.30599531531333923, 0.4428956210613251, 5.211551666259766, -0.6537917852401733, -0.9517875909805298, 0.10338356345891953, -1.2450567788628626, -0.541036019737561, 1.7079745358633092, 9362.0, 30146.0, 35388.0, 9362.0, 8.370248794555664, 0.03298341482877731, -0.20698261260986328, -0.4014384150505066, -0.07716503739356995, -0.008762781508266926, 1.0241398811340332, -0.04630263149738312, -0.06647872924804688, 1.490478515625, 1.286865234375, 0.070281982421875, 1.48974609375
22646, -2.4492907524108887, -1.6341677904129028, -1.160194754600525, 0.12045099586248398, 0.1749017834663391, 54.76402282714844, 0.30599531531333923, 0.4428956210613251, 5.211551666259766, -0.6537673473358154, -0.9517770409584045, 0.10341690480709076, -1.2393001886181385, -0.5418375221152871, 1.7072486450757933, 9362.0, 30146.0, 35388.0, 9362.0, 8.370248794555664, 0.07814036309719086, -0.15870264172554016, -0.16644789278507233, -0.0849306583404541, -0.01041664183139801, 1.0236550569534302, -0.04630263149738312, -0.06647872924804688, 1.490478515625, 1.286865234375, 0.070281982421875, 1.48974609375
22656, -2.449010133743286, -1.6350312232971191, -1.1634960174560547, 0.13292807340621948, 0.19295743107795715, 54.97268295288086, 0.31784558296203613, 0.45987027883529663, 5.221059799194336, -0.6537590026855469, -0.9517875909805298, 0.10341835021972656, -1.2453217073327616, -0.5455979926468615, 1.705561058547663, 9362.0, 30146.0, 35388.0, 9362.0, 8.370248794555664, 0.25297850370407104, -0.19726160168647766, 0.08420374244451523, -0.08177094906568527, -0.010158220306038857, 1.0276228189468384, -0.04630263149738312, -0.06647872924804688, 1.490478515625, 1.286865234375, 0.070281982421875, 1.48974609375
22666, -2.4458189010620117, -1.6355072259902954, -1.163689374923706, 0.13292807340621948, 0.19295743107795715, 54.97268295288086, 0.31784558296203613, 0.45987027883529663, 5.221059799194336, -0.6537778377532959, -0.9517307877540588, 0.10341013967990875, -1.2037739003394343, -0.5459189075159827, 1.6340030723345043, 9362.0, 30146.0, 35388.0, 9362.0, 8.370248794555664, 0.12904688715934753, 0.41265833377838135, -0.4603344202041626, -0.0808713361620903, -0.009696763008832932, 1.0316905975341797, -0.04630263149738312, -0.06647872924804688, 1.490478515625, 1.4912109375, 0.178253173828125, 1.48974609375
22676, -2.446633815765381, -1.6371628046035767, -1.1663949489593506, 0.13292807340621948, 0.19295743107795715, 54.97268295288086, 0.31784558296203613, 0.45987027883529663, 5.221059799194336, -0.6537511348724365, -0.9518017172813416, 0.10338480025529861, -1.228644480188247, -0.5446314285965173, 1.6969346730548267, 9362.0, 30146.0, 35388.0, 9362.0, 8.370248794555664, 0.07715141028165817, 0.456328809261322, 0.47190845012664795, -0.0808713361620903, -0.009696763008832932, 1.0316905975341797, -0.04630263149738312, -0.06647872924804688, 1.490478515625, 1.2275390625, 0.24749755859375, 1.48974609375
22686, -2.4449965953826904, -1.641924262046814, -1.1640921831130981, 0.13292807340621948, 0.19295743107795715, 54.97268295288086, 0.31784558296203613, 0.45987027883529663, 5.221059799194336, -0.6537635922431946, -0.95180344581604, 0.103397436439991, -1.2169993658308305, -0.5456953309254402, 1.7010084662719347, 9362.0, 30146.0, 35388.0, 9362.0, 8.370248794555664, 0.011918740347027779, 0.10870099067687988, 0.23770524561405182, -0.08101280778646469, -0.010405868291854858, 1.0236698389053345, -0.04630263149738312, -0.06647872924804688, 1.490478515625, 1.46923828125, 0.137359619140625, 1.49267578125
22696, -2.4449994564056396, -1.644141435623169, -1.161607027053833, 0.13292807340621948, 0.19295743107795715, 54.97268295288086, 0.31784558296203613, 0.45987027883529663, 5.221059799194336, -0.6537665128707886, -0.951818585395813, 0.10339561104774475, -1.230740841831159, -0.5449175136367614, 1.6944124301738408, 9362.0, 30146.0, 35388.0, 9362.0, 8.370248794555664, -0.035282641649246216, -0.023347271606326103, 0.16271208226680756, -0.08327591419219971, -0.010670041665434837, 1.0247159004211426, -0.04630263149738312, -0.06647872924804688, 1.490478515625, 1.313232421875, 0.0333251953125, 1.49267578125
22706, -2.4452919960021973, -1.6434073448181152, -1.1608806848526, 0.13292807340621948, 0.19295743107795715, 54.97268295288086, 0.31784558296203613, 0.45987027883529663, 5.221059799194336, -0.6538923382759094, -0.9517471194267273, 0.1029629185795784, -1.3148504507583452, -0.6324035838892712, 1.7740831261804446, 9362.0, 30146.0, 35388.0, 9362.0, 8.370248794555664, 0.09199176728725433, 0.13671717047691345, -0.06147650629281998, -0.08423051983118057, -0.00906545389443636, 1.026659369468689, -0.04630263149738312, -0.06647872924804688, 1.490478515625, 1.313232421875, 0.0333251953125, 1.49267578125
22716, -2.4450130462646484, -1.6461844444274902, -1.1591031551361084, 0.15253175795078278, 0.22131356596946716, 55.28640365600586, 0.33562424778938293, 0.4853132963180542, 5.235972881317139, -0.6537719964981079, -0.9517127871513367, 0.10342653840780258, -1.2009012754704869, -0.5573715360724805, 1.6351701241127483, 9362.0, 30146.0, 35388.0, 9362.0, 8.370248794555664, -0.042212262749671936, -0.0073190475814044476, 0.15638653934001923, -0.08333054929971695, -0.00986695010215044, 1.0248185396194458, -0.04630263149738312, -0.06647872924804688, 1.490478515625, 1.313232421875, 0.0333251953125, 1.49267578125
22726, -2.444028615951538, -1.6448602676391602, -1.159721851348877, 0.15253175795078278, 0.22131356596946716, 55.28640365600586, 0.33562424778938293, 0.4853132963180542, 5.235972881317139, -0.6539206504821777, -0.9516361355781555, 0.10301203280687332, -1.3014038715741036, -0.629983680302729, 1.7258441150307482, 9362.0, 30146.0, 35388.0, 9362.0, 8.370248794555664, 0.16008402407169342, -0.06402355432510376, -0.10435714572668076, -0.08207172155380249, -0.010097570717334747, 1.0237171649932861, -0.04630263149738312, -0.06647872924804688, 1.490478515625, 1.47802734375, 0.1532745361328125, 1.49267578125
22736, -2.4436540603637695, -1.6456735134124756, -1.1583324670791626, 0.15253175795078278, 0.22131356596946716, 55.28640365600586, 0.33562424778938293, 0.4853132963180542, 5.235972881317139, -0.6539096832275391, -0.9516276717185974, 0.10298533737659454, -1.3076323727604737, -0.6289575558478475, 1.7083738299106974, 9362.0, 30146.0, 35388.0, 9362.0, 8.370248794555664, 0.09339491277933121, -0.2946178913116455, -0.0798075795173645, -0.08207172155380249, -0.010097570717334747, 1.0237171649932861, -0.04630263149738312, -0.06647872924804688, 1.490478515625, 1.405517578125, 0.0454254150390625, 1.49267578125
22746, -2.444187879562378, -1.644798755645752, -1.1576180458068848, 0.15253175795078278, 0.22131356596946716, 55.28640365600586, 0.33562424778938293, 0.4853132963180542, 5.235972881317139, -0.6539254188537598, -0.9516196846961975, 0.10300459712743759, -1.307885794660997, -0.6411857762957709, 1.730827202449081, 9362.0, 30146.0, 35388.0, 9362.0, 8.370248794555664, 0.1250428855419159, -0.002850653138011694, -0.10460197925567627, -0.08534103631973267, -0.011991046369075775, 1.0282577276229858, -0.04630263149738312, -0.06647872924804688, 1.490478515625, 1.39306640625, 0.0337982177734375, 1.49267578125
22756, -2.444014549255371, -1.644893765449524, -1.1584453582763672, 0.1661943644285202, 0.24106459319591522, 55.496028900146484, 0.34750425815582275, 0.5022307634353638, 5.245237827301025, -0.6539122462272644, -0.951624870300293, 0.10299979150295258, -1.3036660518380516, -0.6282316069790284, 1.7216475328452876, 9362.0, 30146.0, 35388.0, 9362.0, 8.370248794555664, -0.15943074226379395, -0.33050963282585144, -0.06551451981067657, -0.08395769447088242, -0.011270289309322834, 1.0264289379119873, -0.04630263149738312, -0.06647872924804688, 1.490478515625, 1.39306640625, 0.0337982177734375, 1.49267578125
22766, -2.4454245567321777, -1.645398497581482, -1.1570314168930054, 0.1661943644285202, 0.24106459319591522, 55.496028900146484, 0.34750425815582275, 0.5022307634353638, 5.245237827301025, -0.6539062857627869, -0.9517417550086975, 0.1029367595911026, -1.340154152968153, -0.6283136616486615, 1.799461311693185, 9362.0, 30146.0, 35388.0, 9362.0, 8.370248794555664, 0.018564864993095398, 0.1445552557706833, -0.03678607940673828, -0.08073695003986359, -0.010457925498485565, 1.0246171951293945, -0.04630263149738312, -0.06647872924804688, 1.490478515625, 1.439208984375, 0.0882415771484375, 1.49267578125
22776, -2.4459261894226074, -1.6460281610488892, -1.1572962999343872, 0.1661943644285202, 0.24106459319591522, 55.496028900146484, 0.34750425815582275, 0.5022307634353638, 5.245237827301025, -0.6539562344551086, -0.9517787098884583, 0.10294792056083679, -1.3171575136400333, -0.6104562901324755, 1.8173743019769764, 9362.0, 30146.0, 35388.0, 9362.0, 8.370248794555664, -0.08458450436592102, -0.1346314698457718, -0.03302766755223274, -0.08004693686962128, -0.009575150907039642, 1.02445387840271, -0.04630263149738312, -0.06647872924804688, 1.490478515625, 1.439208984375, 0.0882415771484375, 1.49267578125
22786, -2.4457015991210938, -1.644744634628296, -1.1573070287704468, 0.1661943644285202, 0.24106459319591522, 55.496028900146484, 0.34750425815582275, 0.5022307634353638, 5.245237827301025, -0.6539294719696045, -0.9516043663024902, 0.10302986204624176, -1.3146864370224982, -0.6369965834490756, 1.738003727080913, 9362.0, 30146.0, 35388.0, 9362.0, 8.370248794555664, 0.06391236931085587, -0.13312239944934845, 0.2827305197715759, -0.08343662321567535, -0.00922902300953865, 1.0280306339263916, -0.04630263149738312, -0.06647872924804688, 1.490478515625, 1.439208984375, 0.0882415771484375, 1.49560546875
22806, -2.445739269256592, -1.640679955482483, -1.1542924642562866, 0.1803325116634369, 0.2614927291870117, 55.70603561401367, 0.35939839482307434, 0.5191693902015686, 5.254932880401611, -0.6539230942726135, -0.9516775012016296, 0.10293657332658768, -1.295769700244564, -0.5940874222040691, 1.757570674108717, 9362.0, 30146.0, 35388.0, 9362.0, 8.370248794555664, -0.3747418224811554, -0.22072790563106537, 0.1363423466682434, -0.08217822760343552, -0.011496344581246376, 1.0230827331542969, -0.06420604884624481, -0.24567794799804688, 1.475830078125, 1.439208984375, 0.0882415771484375, 1.48974609375
22816, -2.446631908416748, -1.6376190185546875, -1.1546622514724731, 0.1875799298286438, 0.2719608545303345, 55.81118392944336, 0.3653373122215271, 0.5276336073875427, 5.259644508361816, -0.6539396047592163, -0.9517959356307983, 0.10291450470685959, -1.337577765302816, -0.5989173366871512, 1.806212790553002, 9362.0, 30146.0, 35388.0, 9362.0, 8.370248794555664, 0.21558570861816406, -0.15833353996276855, 0.2398713231086731, -0.08237843215465546, -0.010173608548939228, 1.0259162187576294, -0.06420604884624481, -0.24567794799804688, 1.475830078125, 1.439208984375, 0.0882415771484375, 1.48974609375
22826, -2.4453723430633545, -1.6380293369293213, -1.1520476341247559, 0.1875799298286438, 0.2719608545303345, 55.81118392944336, 0.3653373122215271, 0.5276336073875427, 5.259644508361816, -0.6539103984832764, -0.9517818689346313, 0.1029587909579277, -1.3386630752127175, -0.5866842880597289, 1.798753771658352, 9362.0, 30146.0, 35388.0, 9362.0, 8.370248794555664, -0.24151022732257843, -0.07349787652492523, 0.15285389125347137, -0.08280260860919952, -0.009186404757201672, 1.0285594463348389, -0.06420604884624481, -0.24567794799804688, 1.475830078125, 1.409912109375, 0.0501251220703125, 1.48974609375
22836, -2.4452333450317383, -1.6357070207595825, -1.1514294147491455, 0.19494587182998657, 0.2825981676578522, 55.91642379760742, 0.3712579309940338, 0.5361021757125854, 5.264347076416016, -0.6537771821022034, -0.9518396258354187, 0.10337280482053757, -1.2370787352613206, -0.5103933189881502, 1.7387543623564956, 9362.0, 30146.0, 35388.0, 9362.0, 8.370248794555664, -0.03818225860595703, -0.303845077753067, 0.2483455389738083, -0.08179603517055511, -0.011107906699180603, 1.027527928352356, -0.06420604884624481, -0.24567794799804688, 1.475830078125, 1.409912109375, 0.0501251220703125, 1.48974609375
22846, -2.4455478191375732, -1.634472131729126, -1.1486520767211914, 0.19494587182998657, 0.2825981676578522, 55.91642379760742, 0.3712579309940338, 0.5361021757125854, 5.264347076416016, -0.6537664532661438, -0.9518412351608276, 0.10337255150079727, -1.2341972863245134, -0.5036334706834111, 1.733804426620245, 9362.0, 30146.0, 35388.0, 9362.0, 8.370248794555664, 0.1089482232928276, 0.03013867326080799, -0.06861217319965363, -0.07956628501415253, -0.011272862553596497, 1.0241918563842773, -0.06420604884624481, -0.24567794799804688, 1.475830078125, 1.529296875, 0.2564849853515625, 1.48974609375
22856, -2.444608449935913, -1.633685827255249, -1.1477781534194946, 0.19494587182998657, 0.2825981676578522, 55.91642379760742, 0.3712579309940338, 0.5361021757125854, 5.264347076416016, -0.6537798047065735, -0.951841413974762, 0.10336344689130783, -1.2445192371422555, -0.4998403577251338, 1.7435870405941176, 9362.0, 30146.0, 35388.0, 9362.0, 8.370248794555664, -0.062340542674064636, 0.013863643631339073, -0.0018430864438414574, -0.07963366061449051, -0.010983393527567387, 1.0255281925201416, -0.06420604884624481, -0.24567794799804688, 1.475830078125, 1.525634765625, 0.248626708984375, 1.48974609375
22876, -2.4444808959960938, -1.6317493915557861, -1.1496762037277222, 0.21003293991088867, 0.3043813705444336, 56.127201080322266, 0.3830833435058594, 0.5530496835708618, 5.274134635925293, -0.6539050936698914, -0.9517277479171753, 0.10289643704891205, -1.3636349286164235, -0.6012926219464418, 1.7955258094051774, 9362.0, 30146.0, 35388.0, 9362.0, 8.370248794555664, -0.03390006721019745, 0.060849059373140335, -0.07859859615564346, -0.07858283817768097, -0.012551440857350826, 1.025114893913269, -0.06420604884624481, -0.24567794799804688, 1.475830078125, 1.51318359375, 0.2224273681640625, 1.493408203125
22886, -2.443589448928833, -1.63261079788208, -1.1498034000396729, 0.21003293991088867, 0.3043813705444336, 56.127201080322266, 0.3830833435058594, 0.5530496835708618, 5.274134635925293, -0.6539645791053772, -0.9516381621360779, 0.10288657248020172, -1.3364382454106067, -0.5994420022806537, 1.7410251622581483, 9362.0, 30146.0, 35388.0, 9362.0, 8.370248794555664, 0.1739930659532547, 0.27135106921195984, -0.10524141788482666, -0.07858283817768097, -0.012551440857350826, 1.025114893913269, -0.06420604884624481, -0.24567794799804688, 1.475830078125, 1.440673828125, 0.090423583984375, 1.493408203125
22896, -2.441852569580078, -1.6343997716903687, -1.1512876749038696, 0.2177535593509674, 0.31552696228027344, 56.232730865478516, 0.3889773190021515, 0.5615084767341614, 5.2787394523620605, -0.6538370847702026, -0.9516676068305969, 0.10347680747509003, -1.190381845555976, -0.5244084666089179, 1.6323327846931295, 9362.0, 30146.0, 35388.0, 9362.0, 8.370248794555664, 0.24160121381282806, 0.1255614459514618, -0.037748485803604126, -0.07893680036067963, -0.009432896040380001, 1.0242396593093872, -0.06420604884624481, -0.24567794799804688, 1.475830078125, 1.440673828125, 0.090423583984375, 1.493408203125
22906, -2.440748691558838, -1.636207103729248, -1.1511409282684326, 0.2177535593509674, 0.31552696228027344, 56.232730865478516, 0.3889773190021515, 0.5615084767341614, 5.2787394523620605, -0.6538301706314087, -0.951662003993988, 0.10347132384777069, -1.1959834822785997, -0.5255418862876695, 1.632889541390207, 9362.0, 30146.0, 35388.0, 9362.0, 8.370248794555664, 0.09658905118703842, 0.06739000976085663, 0.015572723932564259, -0.08035747706890106, -0.010281279683113098, 1.0253186225891113, -0.06420604884624481, -0.24567794799804688, 1.475830078125, 1.440673828125, 0.090423583984375, 1.493408203125
22916, -2.4393439292907715, -1.6359944343566895, -1.154428243637085, 0.2177535593509674, 0.31552696228027344, 56.232730865478516, 0.3889773190021515, 0.5615084767341614, 5.2787394523620605, -0.6538121700286865, -0.9516676068305969, 0.1034715324640274, -1.1825454852812298, -0.5307745071361865, 1.6300540026265047, 9362.0, 30146.0, 35388.0, 9362.0, 8.370248794555664, -0.07551004737615585, 0.2759689390659332, -0.4002811312675476, -0.08027689158916473, -0.010710128583014011, 1.027339220046997, -0.06420604884624481, -0.24567794799804688, 1.475830078125, 1.402587890625, 0.0425262451171875, 1.493408203125
22926, -2.439347743988037, -1.6383423805236816, -1.1566524505615234, 0.2177535593509674, 0.31552696228027344, 56.232730865478516, 0.3889773190021515, 0.5615084767341614, 5.2787394523620605, -0.6538243889808655, -0.9516621232032776, 0.10345016419887543, -1.189308570488281, -0.5432176104992266, 1.64898943331012, 9362.0, 30146.0, 35388.0, 9362.0, 8.370248794555664, -0.04364221543073654, 0.27194809913635254, -0.0940459668636322, -0.0799487754702568, -0.011471468955278397, 1.025745153427124, -0.06420604884624481, -0.24567794799804688, 1.475830078125, 1.402587890625, 0.0425262451171875, 1.4912109375
22936, -2.4389262199401855, -1.6412055492401123, -1.1599071025848389, 0.2177535593509674, 0.31552696228027344, 56.232730865478516, 0.3889773190021515, 0.5615084767341614, 5.2787394523620605, -0.6539592146873474, -0.9516324400901794, 0.10303144156932831, -1.3006374305523944, -0.6135629787524977, 1.7323777056024456, 9362.0, 30146.0, 35388.0, 9362.0, 8.370248794555664, -0.028884252533316612, 0.2961233854293823, -0.15531018376350403, -0.08140850812196732, -0.009652473032474518, 1.024938702583313, -0.06420604884624481, -0.24567794799804688, 1.475830078125, 1.3212890625, 0.026214599609375, 1.4912109375
22946, -2.438781499862671, -1.6465015411376953, -1.1621419191360474, 0.2177535593509674, 0.31552696228027344, 56.232730865478516, 0.3889773190021515, 0.5615084767341614, 5.2787394523620605, -0.6538349390029907, -0.9516762495040894, 0.10345317423343658, -1.1997938590080794, -0.5480631726088916, 1.6455511206495277, 9362.0, 30146.0, 35388.0, 9362.0, 8.370248794555664, -0.2407369464635849, 0.4374619424343109, -0.4077942371368408, -0.08107033371925354, -0.010110328905284405, 1.0259989500045776, -0.06420604884624481, -0.24567794799804688, 1.475830078125, 1.322021484375, 0.0257415771484375, 1.4912109375
22956, -2.441196918487549, -1.6485016345977783, -1.164110779762268, 0.24162361025810242, 0.3499780297279358, 56.54987716674805, 0.4067115783691406, 0.5868549346923828, 5.292840480804443, -0.6538263559341431, -0.9516820311546326, 0.10345762223005295, -1.200076790733328, -0.546986784777971, 1.6556282943059877, 9362.0, 30146.0, 35388.0, 9362.0, 8.370248794555664, 0.12316731363534927, 0.023848993703722954, -0.19805821776390076, -0.08466097712516785, -0.009415297769010067, 1.027794599533081, -0.06420604884624481, -0.24567794799804688, 1.475830078125, 1.322021484375, 0.0257415771484375, 1.4912109375
22966, -2.440743923187256, -1.6500885486602783, -1.1681129932403564, 0.24162361025810242, 0.3499780297279358, 56.54987716674805, 0.4067115783691406, 0.5868549346923828, 5.292840480804443, -0.6538203954696655, -0.9517886638641357, 0.10340940207242966, -1.2256223966666602, -0.5381654490724372, 1.719028379662292, 9362.0, 30146.0, 35388.0, 9362.0, 8.370248794555664, 0.14058513939380646, 0.1098131462931633, -0.20135749876499176, -0.08466097712516785, -0.009415297769010067, 1.027794599533081, -0.06420604884624481, -0.24567794799804688, 1.475830078125, 1.21728515625, 0.2937164306640625, 1.4912109375
22976, -2.440275192260742, -1.654304027557373, -1.1690951585769653, 0.24162361025810242, 0.3499780297279358, 56.54987716674805, 0.4067115783691406, 0.5868549346923828, 5.292840480804443, -0.6537978053092957, -0.9518070816993713, 0.1033661738038063, -1.230064006819615, -0.529880592177733, 1.7334841318580596, 9362.0, 30146.0, 35388.0, 9362.0, 8.370248794555664, -0.2865200936794281, 0.44214677810668945, -0.04228296875953674, -0.08307947218418121, -0.00863703340291977, 1.0258946418762207, -0.06420604884624481, -0.24567794799804688, 1.475830078125, 1.43994140625, 0.089324951171875, 1.4912109375
22986, -2.4403271675109863, -1.658491611480713, -1.171311378479004, 0.24162361025810242, 0.3499780297279358, 56.54987716674805, 0.4067115783691406, 0.5868549346923828, 5.292840480804443, -0.6537967920303345, -0.951799750328064, 0.10337768495082855, -1.2381783131221418, -0.5271269371338008, 1.7320817148334562, 9362.0, 30146.0, 35388.0, 9362.0, 8.370248794555664, 0.11120360344648361, 0.5534531474113464, -0.2771298587322235, -0.08077847212553024, -0.0099082225933671, 1.0266400575637817, -0.06420604884624481, -0.24567794799804688, 1.475830078125, 1.43994140625, 0.089324951171875, 1.4912109375
22996, -2.4400556087493896, -1.6600590944290161, -1.1743037700653076, 0.24162361025810242, 0.3499780297279358, 56.54987716674805, 0.4067115783691406, 0.5868549346923828, 5.292840480804443, -0.653797447681427, -0.9517959356307983, 0.10340121388435364, -1.2315598224998836, -0.5191058170944132, 1.7299949280990214, 9362.0, 30146.0, 35388.0, 9362.0, 8.390083312988281, 0.11120360344648361, 0.5534531474113464, -0.2771298587322235, -0.08217272907495499, -0.009806324727833271, 1.025742769241333, -0.057861678302288055, -0.01271820068359375, 1.494873046875, 1.43994140625, 0.089324951171875, 1.4912109375
23006, -2.4397530555725098, -1.6621087789535522, -1.1772708892822266, 0.24162361025810242, 0.3499780297279358, 56.54987716674805, 0.4067115783691406, 0.5868549346923828, 5.292840480804443, -0.6538117527961731, -0.9517906904220581, 0.10337059944868088, -1.233206724290813, -0.5166188740723214, 1.7205531356550998, 9362.0, 30146.0, 35388.0, 9362.0, 8.390083312988281, 0.02340514026582241, 0.12699110805988312, -0.25153231620788574, -0.08136668801307678, -0.009792088530957699, 1.026387095451355, -0.057861678302288055, -0.01271820068359375, 1.494873046875, 1.43994140625, 0.089324951171875, 1.4912109375
23016, -2.439077615737915, -1.6624754667282104, -1.1786006689071655, 0.24162361025810242, 0.3499780297279358, 56.54987716674805, 0.4067115783691406, 0.5868549346923828, 5.292840480804443, -0.6537928581237793, -0.9517937302589417, 0.1034061387181282, -1.2331773368669054, -0.5304246990030492, 1.7192215995161022, 9362.0, 30146.0, 35388.0, 9362.0, 8.390083312988281, -0.18778344988822937, -0.25975462794303894, -0.24495159089565277, -0.08136668801307678, -0.009792088530957699, 1.026387095451355, -0.057861678302288055, -0.01271820068359375, 1.494873046875, 1.43994140625, 0.089324951171875, 1.4912109375
23026, -2.4405906200408936, -1.662044882774353, -1.1776366233825684, 0.24162361025810242, 0.3499780297279358, 56.54987716674805, 0.4067115783691406, 0.5868549346923828, 5.292840480804443, -0.6537888646125793, -0.9517883062362671, 0.10340146720409393, -1.2391358227913023, -0.5204515356033141, 1.7149104578504988, 9362.0, 30146.0, 35388.0, 9362.0, 8.390083312988281, -0.040841471403837204, -0.125974640250206, -0.38158705830574036, -0.08191855996847153, -0.009434240870177746, 1.025985598564148, -0.057861678302288055, -0.01271820068359375, 1.494873046875, 1.43994140625, 0.089324951171875, 1.4970703125
23036, -2.4404687881469727, -1.6598812341690063, -1.1786326169967651, 0.24162361025810242, 0.3499780297279358, 56.54987716674805, 0.4067115783691406, 0.5868549346923828, 5.292840480804443, -0.6537993550300598, -0.9517878890037537, 0.10339844226837158, -1.2390316519671374, -0.5163857818430984, 1.729387417345808, 9362.0, 30146.0, 35388.0, 9362.0, 8.390083312988281, 0.15726201236248016, 0.14768190681934357, 0.09090941399335861, -0.08350702375173569, -0.011848165653645992, 1.026481032371521, -0.057861678302288055, -0.01271820068359375, 1.494873046875, 1.423828125, 0.066802978515625, 1.4970703125
23046, -2.4394140243530273, -1.6598879098892212, -1.1766613721847534, 0.24162361025810242, 0.3499780297279358, 56.54987716674805, 0.4067115783691406, 0.5868549346923828, 5.292840480804443, -0.6538036465644836, -0.9517971277236938, 0.10338467359542847, -1.2377162899166594, -0.5200573831895099, 1.7201057985769386, 9362.0, 30146.0, 35388.0, 9362.0, 8.390083312988281, -0.20112574100494385, -0.2384672611951828, 0.26600348949432373, -0.08350702375173569, -0.011848165653645992, 1.026481032371521, -0.057861678302288055, -0.01271820068359375, 1.494873046875, 1.423828125, 0.066802978515625, 1.491943359375
23056, -2.4404513835906982, -1.6598975658416748, -1.1725531816482544, 0.24162361025810242, 0.3499780297279358, 56.54987716674805, 0.4067115783691406, 0.5868549346923828, 5.292840480804443, -0.6538019180297852, -0.9518119096755981, 0.10336253046989441, -1.2388202228671892, -0.5252041922408068, 1.723923050492467, 9362.0, 30146.0, 35388.0, 9362.0, 8.390083312988281, -0.10177599638700485, 0.0038084578700363636, 0.18918375670909882, -0.08350702375173569, -0.011848165653645992, 1.026481032371521, -0.057861678302288055, -0.01271820068359375, 1.494873046875, 1.481689453125, 0.1600799560546875, 1.491943359375
23066, -2.441494941711426, -1.6603554487228394, -1.1696470975875854, 0.2881716191768646, 0.41708964109420776, 57.13358688354492, 0.43967247009277344, 0.6333557367324829, 5.320127010345459, -0.6537901759147644, -0.9518203139305115, 0.10339026153087616, -1.2476083476272406, -0.5170531013126549, 1.733313691179799, 9362.0, 30146.0, 35388.0, 9362.0, 8.390083312988281, 0.060522742569446564, 0.036272868514060974, 0.29431095719337463, -0.08199362456798553, -0.012643246911466122, 1.0239510536193848, -0.057861678302288055, -0.01271820068359375, 1.494873046875, 1.481689453125, 0.1600799560546875, 1.491943359375
23076, -2.4416887760162354, -1.6587508916854858, -1.1665840148925781, 0.29258331656455994, 0.4234442710876465, 57.186798095703125, 0.44266486167907715, 0.6375706791877747, 5.322296142578125, -0.6537970304489136, -0.9518265128135681, 0.10338383167982101, -1.2468764424429077, -0.5136419630030389, 1.73341340364038, 9362.0, 30146.0, 35388.0, 9362.0, 8.390083312988281, -0.02012617327272892, -0.2990579903125763, 0.11196217685937881, -0.08463527262210846, -0.011662929318845272, 1.0268268585205078, -0.057861678302288055, -0.01271820068359375, 1.494873046875, 1.481689453125, 0.1600799560546875, 1.491943359375
23086, -2.441787004470825, -1.6569122076034546, -1.1645694971084595, 0.29258331656455994, 0.4234442710876465, 57.186798095703125, 0.44266486167907715, 0.6375706791877747, 5.322296142578125, -0.6537954211235046, -0.9518329501152039, 0.10341274738311768, -1.245528206709195, -0.5106743700981156, 1.7315118580428648, 9362.0, 30146.0, 35388.0, 9362.0, 8.390083312988281, -0.2946126461029053, -0.0960436537861824, 0.6163988709449768, -0.08530253916978836, -0.010200129821896553, 1.0246925354003906, -0.057861678302288055, -0.01271820068359375, 1.494873046875, 1.341064453125, 0.01654052734375, 1.491943359375
23106, -2.4426658153533936, -1.6529273986816406, -1.1568599939346313, 0.3014965355396271, 0.43628016114234924, 57.29328918457031, 0.44866061210632324, 0.6460235118865967, 5.32706880569458, -0.6539212465286255, -0.9517985582351685, 0.10292594879865646, -1.353888234797128, -0.5941000321610375, 1.805113245811775, 9362.0, 30146.0, 35388.0, 9362.0, 8.390083312988281, -0.17088598012924194, -0.05132411792874336, 0.14945082366466522, -0.08299882709980011, -0.009941818192601204, 1.026999592781067, -0.051122378557920456, 0.014162063598632812, 1.4970703125, 1.341064453125, 0.01654052734375, 1.49560546875
23116, -2.444246292114258, -1.6514474153518677, -1.1551237106323242, 0.3014965355396271, 0.43628016114234924, 57.29328918457031, 0.44866061210632324, 0.6460235118865967, 5.32706880569458, -0.653800904750824, -0.9518272876739502, 0.10337256640195847, -1.242737668226844, -0.5073672725916936, 1.7267643350727622, 9362.0, 30146.0, 35388.0, 9362.0, 8.390083312988281, 0.11061796545982361, -0.05347049981355667, 0.5408807992935181, -0.08146343380212784, -0.010454242117702961, 1.0265904664993286, -0.051122378557920456, 0.014162063598632812, 1.4970703125, 1.517578125, 0.231689453125, 1.49560546875
