timeTick, roll, pitch, yaw, stateX, stateY, stateZ, stateVX, stateVY, stateVZ, otX0, otY0, otZ0, otRoll0, otPitch0, otYaw0, left wing, pitch motor, yaw motor, right wing, voltage, roll rate, pitch rate, yaw rate, A_x, A_y, A_z, current, i_raw, v_raw, airflow_voltage, airflow_speed, pot_Pitch
32427, 0.005529268179088831, -0.0005494442884810269, -0.007754545658826828, 0, 0, 0, 0, 0, 0, -0.8475467562675476, -1.046800971031189, 0.10643745213747025, -0.07799657924108122, -1.1340256488477962, 2.8248650498460455, 0, 0, 0, 0, 0, 0, 0, 0, 0, 0, 0, 0, 0, 0, 0, 0, 0
32437, 0.00803240854293108, 0.0002772884618025273, -0.015112482942640781, 0.0, 0.0, 1.1460273526608944e-05, 2.1949947637267542e-08, -2.211944831742585e-07, 0.002292046556249261, -0.8475660085678101, -1.046812653541565, 0.10636364668607712, -0.08470934418486126, -1.1306631804528422, 2.8082167379804353, 9362.0, 30146.0, 35388.0, 9362.0, 0, 0.18740186095237732, -0.5241518020629883, -0.8110780715942383, -0.09442286938428879, 0.011311636306345463, 1.0243003368377686, 0, 0, 0, 0, 0, 0
32447, 0.00961809977889061, 0.005133423954248428, -0.021801261231303215, 5.030889038692976e-09, -5.0697384068598694e-08, 4.6293309424072504e-05, 9.485787586527294e-07, -1.0022501555795316e-05, 0.004674956202507019, -0.8475481271743774, -1.0468019247055054, 0.10641773790121078, -0.08562901208877176, -1.130067894042071, 2.8190818649353373, 9362.0, 30146.0, 35388.0, 9362.0, 0, -0.13276614248752594, -0.39189743995666504, -0.6230731010437012, -0.09475566446781158, 0.010834368877112865, 1.0227535963058472, 0, 0, 0, 1.37255859375, 0.02044677734375, 0
32457, 0.008574976585805416, 0.009223573841154575, -0.02816482074558735, 1.2066458054960094e-08, -2.213606080658792e-07, 0.00010498851770535111, 2.543572179547482e-07, -2.4176160877686925e-05, 0.007064473815262318, -0.8475771546363831, -1.046804428100586, 0.10639043152332306, -0.08375298742925529, -1.12543855929448, 2.808731425487786, 9362.0, 30146.0, 35388.0, 9362.0, 0, 0.0015312334289774299, -0.04679379239678383, -0.4047624170780182, -0.09470216929912567, 0.012293247506022453, 1.023677110671997, 0, 0, 0, 1.190185546875, 0.441986083984375, 1.496337890625
32467, 0.008447425439953804, 0.011245865374803543, -0.033187031745910645, -3.037497009472645e-08, -5.473298188007902e-07, 0.00018686649855226278, -8.904896276362706e-06, -4.0975726733449847e-05, 0.009311506524682045, -0.8475801348686218, -1.0467917919158936, 0.10638642311096191, -0.09611649944821592, -1.1249920181730602, 2.8025375856498935, 9362.0, 30146.0, 35388.0, 9362.0, 0, -0.09769681096076965, -0.10804995149374008, -0.43083444237709045, -0.0970032587647438, 0.010891684330999851, 1.0209670066833496, 0, 0, 0, 1.493408203125, 0.1825714111328125, 1.496337890625
32477, 0.006419548764824867, 0.013544459827244282, -0.036615513265132904, -2.0022235958094825e-07, -1.0321296031179372e-06, 0.00029116199584677815, -2.51448273047572e-05, -5.5977820011321455e-05, 0.011547969654202461, -0.8475998044013977, -1.0467453002929688, 0.10636742413043976, -0.1122585604988751, -1.124166868441506, 2.807358439031707, 9362.0, 30146.0, 35388.0, 9362.0, 0, -0.44327470660209656, -0.30538830161094666, -0.0832395926117897, -0.09485724568367004, 0.009908449836075306, 1.0210827589035034, 0, 0, 0, 1.579833984375, 0.369873046875, 1.4912109375
32487, 0.0032165003940463066, 0.01501349825412035, -0.03744859620928764, -5.500444899553258e-07, -1.6657128298902535e-06, 0.00041712087113410234, -4.490452556638047e-05, -7.066342368489131e-05, 0.013644185848534107, -0.8476098775863647, -1.0467545986175537, 0.10640707612037659, -0.12214791824749367, -1.1131578945430363, 2.8349556270243315, 9362.0, 30146.0, 35388.0, 9362.0, 0, -0.49678534269332886, -0.4002054035663605, -0.1283978670835495, -0.09253699332475662, 0.010246281512081623, 1.0224560499191284, 0, 0, 0, 1.42236328125, 0.0649566650390625, 1.4912109375
32497, -0.0022990305442363024, 0.01901567168533802, -0.03944476321339607, -1.1175632153026527e-06, -2.428406105536851e-06, 0.0005640768795274198, -6.865324394311756e-05, -8.175730908988044e-05, 0.01574740931391716, -0.847588300704956, -1.0467420816421509, 0.10641445219516754, -0.1267910742038972, -1.1229565073745675, 2.8468795407044163, 9362.0, 30146.0, 35388.0, 9362.0, 0, -0.39514416456222534, 0.05421016737818718, 0.27667713165283203, -0.09414208680391312, 0.00964693445712328, 1.023261308670044, 0, 0, 0, 1.5234375, 0.2439727783203125, 1.491943359375
32507, -0.007176144514232874, 0.020172717049717903, -0.037266429513692856, -1.935559566845768e-06, -3.2740542792453198e-06, 0.0007326834602281451, -9.510163363302127e-05, -8.71569718583487e-05, 0.017974285408854485, -0.8475996255874634, -1.0467321872711182, 0.10638340562582016, -0.1284926692048054, -1.1239592653014085, 2.816987117486503, 9362.0, 30146.0, 35388.0, 9362.0, 0, -0.7723776698112488, -0.19799546897411346, -0.10732250660657883, -0.09214256703853607, 0.010302743874490261, 1.0231263637542725, 0, 0, 0, 1.49267578125, 0.1811065673828125, 1.491943359375
32517, -0.014182484708726406, 0.02338205650448799, -0.03638345003128052, -3.0531061838701135e-06, -4.125373834540369e-06, 0.0009237368358299136, -0.00012845337914768606, -8.291563426610082e-05, 0.02023676037788391, -0.8473634123802185, -1.046549916267395, 0.10670048743486404, -0.0778576573838353, -1.0514585934502065, 2.938956394353115, 9362.0, 30146.0, 35388.0, 9362.0, 0, -0.7342418432235718, -0.34587791562080383, 0.6178967952728271, -0.09250444918870926, 0.009269420057535172, 1.0237139463424683, 0, 0, 0, 1.458251953125, 0.1184234619140625, 1.49267578125
32527, -0.020185556262731552, 0.025151966139674187, -0.03026540018618107, -4.514351076068124e-06, -4.891538537776796e-06, 0.0011376251932233572, -0.00016392464749515057, -7.003598875598982e-05, 0.022541310638189316, -0.8473629355430603, -1.0465610027313232, 0.10670612752437592, -0.07835873239399638, -1.0614892359715213, 2.951145288991759, 9362.0, 30146.0, 35388.0, 9362.0, 8.191736221313477, -0.7100989818572998, -0.3025718629360199, 0.512380063533783, -0.09421410411596298, 0.00913457851856947, 1.0225697755813599, -0.0873432382941246, -0.05751800537109375, 1.4912109375, 1.48828125, 0.172576904296875, 1.49267578125
32537, -0.025044070556759834, 0.027240565046668053, -0.026099124923348427, -6.358347491186578e-06, -5.467528808367206e-06, 0.0013744531897827983, -0.0002049475588137284, -4.492718289839104e-05, 0.024824686348438263, -0.8473813533782959, -1.0465989112854004, 0.10666336864233017, -0.07511635235431859, -1.0737165777602513, 2.960041402781777, 9362.0, 30146.0, 35388.0, 9362.0, 8.191736221313477, -0.5450322031974792, -0.1172478199005127, 0.5047917366027832, -0.0929066464304924, 0.009692197665572166, 1.022507905960083, -0.0873432382941246, -0.05751800537109375, 1.4912109375, 1.16748046875, 0.598236083984375, 1.491943359375
32547, -0.029754456132650375, 0.02948101982474327, -0.020222937688231468, -8.62789420352783e-06, -5.739992957387585e-06, 0.0016337297856807709, -0.00024904459132812917, -9.381767085869797e-06, 0.0270310640335083, -0.8474606871604919, -1.0466878414154053, 0.1065603718161583, -0.10640120412199103, -1.0989920156542894, 2.9298890104057818, 9362.0, 30146.0, 35388.0, 9362.0, 8.191736221313477, -0.6126481890678406, -0.42191147804260254, 0.60225510597229, -0.09340934455394745, 0.00946948304772377, 1.0238573551177979, -0.0873432382941246, -0.05751800537109375, 1.4912109375, 1.55859375, 0.3211212158203125, 1.491943359375
32557, -0.03417215868830681, 0.03216203302145004, -0.014001681469380856, -1.1356879440427292e-05, -5.6143048823287245e-06, 0.0019154762849211693, -0.00029684629407711327, 3.4702574339462444e-05, 0.02931862883269787, -0.847608745098114, -1.0468218326568604, 0.10633324086666107, -0.11693311170549546, -1.1533977228651793, 2.861910830301278, 9362.0, 30146.0, 35388.0, 9362.0, 8.191736221313477, -0.34371787309646606, 0.012431728653609753, 0.5312588810920715, -0.09172382950782776, 0.0077773150987923145, 1.02469801902771, -0.0873432382941246, -0.05751800537109375, 1.4912109375, 1.06201171875, 1.8035430908203125, 1.491943359375
32567, -0.03695370629429817, 0.03026060201227665, -0.007601015269756317, -1.4583601114281919e-05, -5.006440915167332e-06, 0.0022202623076736927, -0.00034861217136494815, 8.704356150701642e-05, 0.03163892403244972, -0.8475996851921082, -1.0468169450759888, 0.10635054111480713, -0.11388730329294772, -1.1409683608065677, 2.865639615120139, 9362.0, 30146.0, 35388.0, 9362.0, 8.191736221313477, -0.32848837971687317, 0.4295346736907959, 0.8012483716011047, -0.09015006572008133, 0.006515036802738905, 1.0256996154785156, -0.0873432382941246, -0.05751800537109375, 1.4912109375, 0.954345703125, 4.13690185546875, 1.491943359375
32577, -0.0407998226583004, 0.027239175513386726, -0.0007066171965561807, -1.835186776588671e-05, -3.8360794860636815e-06, 0.0025489151012152433, -0.00040496644214726985, 0.00014714138524141163, 0.034092023968696594, -0.8476100564002991, -1.0468748807907104, 0.1063602864742279, -0.12199385803273341, -1.1598666629027434, 2.886566634780721, 9362.0, 30146.0, 35388.0, 9362.0, 8.191736221313477, -0.23463453352451324, 0.2314845323562622, 0.49649348855018616, -0.09433121234178543, 0.005754338577389717, 1.024631381034851, -0.0873432382941246, -0.05751800537109375, 1.4912109375, 1.51025390625, 0.2164154052734375, 1.493408203125
32587, -0.04352819547057152, 0.02544902078807354, 0.0054881032556295395, -2.266722913191188e-05, -2.040113486145856e-06, 0.002902490086853504, -0.00045798008795827627, 0.00021221516362857074, 0.03662337362766266, -0.8475910425186157, -1.046799898147583, 0.10633592307567596, -0.10890726346576517, -1.1317671296077663, 2.8286635402702824, 9362.0, 30146.0, 35388.0, 9362.0, 8.191736221313477, -0.007138420362025499, -0.052921973168849945, 0.7048853635787964, -0.09267762303352356, 0.005705575924366713, 1.0227023363113403, -0.0873432382941246, -0.05751800537109375, 1.4912109375, 1.450927734375, 0.1063690185546875, 1.493408203125
32597, -0.04306764155626297, 0.025135314092040062, 0.010627154260873795, -2.748572478594724e-05, 4.3957265916105825e-07, 0.0032803104259073734, -0.0005056543159298599, 0.0002838271902874112, 0.03894106298685074, -0.8475913405418396, -1.0467642545700073, 0.10635042190551758, -0.09524640294455394, -1.1364975865238591, 2.812792106313618, 9362.0, 30146.0, 35388.0, 9362.0, 8.191736221313477, -0.346012681722641, 0.42617690563201904, 0.3252134919166565, -0.0922534391283989, 0.00545503431931138, 1.022364854812622, -0.0873432382941246, -0.05751800537109375, 1.4912109375, 1.44873046875, 0.102813720703125, 1.491943359375
32607, -0.04362861439585686, 0.023401182144880295, 0.014559182338416576, -3.2764990464784205e-05, 3.6587052818504162e-06, 0.003680572845041752, -0.0005501936539076269, 0.0003599779447540641, 0.0411117859184742, -0.8475886583328247, -1.0467302799224854, 0.106380395591259, -0.08541642562706785, -1.1134698619447931, 2.786057278624292, 9362.0, 30146.0, 35388.0, 9362.0, 8.191736221313477, 0.11475016921758652, 0.4533097743988037, 0.5668491125106812, -0.09494756907224655, 0.006656752433627844, 1.0239933729171753, -0.0873432382941246, -0.05751800537109375, 1.4912109375, 1.4033203125, 0.043182373046875, 1.491943359375
32617, -0.04194938391447067, 0.01841861568391323, 0.01810789853334427, -3.848710548481904e-05, 7.635582733200863e-06, 0.004102923441678286, -0.0005941663985140622, 0.00043541641207411885, 0.043358687311410904, -0.8475984930992126, -1.0467133522033691, 0.10638351738452911, -0.08606483246108368, -1.1106260072345435, 2.781980611374992, 9362.0, 30146.0, 35388.0, 9362.0, 8.191736221313477, 0.32246342301368713, 0.21565569937229156, 0.0510176345705986, -0.09505529701709747, 0.005868123844265938, 1.02479088306427, -0.0873432382941246, -0.05751800537109375, 1.4912109375, 1.579833984375, 0.369873046875, 1.493408203125
32627, -0.03947167098522186, 0.014261464588344097, 0.019670147448778152, -4.46341946371831e-05, 1.2372500350465998e-05, 0.0045487345196306705, -0.0006350434268824756, 0.0005118929548189044, 0.04580390825867653, -0.8475884199142456, -1.0466763973236084, 0.10638847202062607, -0.07784456612128297, -1.1082555297775514, 2.773502486131979, 9362.0, 30146.0, 35388.0, 9362.0, 8.191736221313477, 0.6357460618019104, 0.4117056727409363, 0.03326563909649849, -0.09175082296133041, 0.005859472788870335, 1.0236444473266602, -0.20565630495548248, -0.20087814331054688, 1.4794921875, 1.56591796875, 0.337738037109375, 1.493408203125
32637, -0.03497035428881645, 0.010139760561287403, 0.01974116824567318, -5.114628220326267e-05, 1.785928543540649e-05, 0.0050187730230391026, -0.0006672019953839481, 0.0005853596958331764, 0.0482042133808136, -0.847589910030365, -1.0466417074203491, 0.1064109057188034, -0.08098619113582924, -1.1045472937193495, 2.753748945894554, 9362.0, 30146.0, 35388.0, 9362.0, 8.191736221313477, 0.31574928760528564, 0.5156664848327637, 0.05495843663811684, -0.09429243206977844, 0.008049670606851578, 1.0237873792648315, -0.20565630495548248, -0.20087814331054688, 1.4794921875, 1.379150390625, 0.0238189697265625, 1.493408203125
32647, -0.030887076631188393, 0.007366619538515806, 0.019156968221068382, -5.794333264930174e-05, 2.4058561393758282e-05, 0.0055121565237641335, -0.0006920452578924596, 0.0006543176714330912, 0.05047283321619034, -0.8475980162620544, -1.0466479063034058, 0.10640250146389008, -0.08603813338657147, -1.108420212919384, 2.76023800673809, 9362.0, 30146.0, 35388.0, 9362.0, 8.191736221313477, 0.6700440049171448, 0.3729356825351715, -0.41669583320617676, -0.09480814635753632, 0.009440221823751926, 1.023244857788086, -0.20565630495548248, -0.20087814331054688, 1.4794921875, 1.3681640625, 0.0185394287109375, 1.493408203125
32657, -0.025966286659240723, 0.003306117607280612, 0.01556087564677, -6.495280103990808e-05, 3.090834434260614e-05, 0.00602878350764513, -0.0007097327616065741, 0.0007154699414968491, 0.05285300314426422, -0.847546398639679, -1.0466259717941284, 0.10645989328622818, -0.10664447776223798, -1.1617754677595258, 2.76352355040324, 9362.0, 30146.0, 35388.0, 9362.0, 8.191736221313477, 0.12099336832761765, 0.15048639476299286, -0.4637887179851532, -0.09377552568912506, 0.0076998500153422356, 1.0229721069335938, -0.20565630495548248, -0.20087814331054688, 1.4794921875, 1.505859375, 0.2073974609375, 1.49560546875
32667, -0.021087894216179848, 0.0018577860901132226, 0.010384589433670044, -7.211470801848918e-05, 3.833340451819822e-05, 0.006568375509232283, -0.000722487922757864, 0.0007693531806580722, 0.055065806955099106, -0.8475591540336609, -1.0465805530548096, 0.10641530156135559, -0.13322141008971616, -1.1526057448321296, 2.7636972631337073, 9362.0, 30146.0, 35388.0, 9362.0, 8.191736221313477, 0.5482785701751709, 0.5144762396812439, -0.3817942440509796, -0.09736047685146332, 0.009357215836644173, 1.024100422859192, -0.20565630495548248, -0.20087814331054688, 1.4794921875, 1.518310546875, 0.2331390380859375, 1.49560546875
32677, -0.0168325025588274, -0.001128320931456983, 0.005634975619614124, -7.936861220514402e-05, 4.6254415792645887e-05, 0.007130497135221958, -0.0007282309234142303, 0.0008146547479555011, 0.05735884606838226, -0.8475738167762756, -1.046593427658081, 0.10639102011919022, -0.13767922581472725, -1.1673420052945005, 2.7597457185145764, 9362.0, 30146.0, 35388.0, 9362.0, 8.191736221313477, 0.46945491433143616, 0.06650624424219131, -0.3956628441810608, -0.09755566716194153, 0.011047272942960262, 1.0224095582962036, -0.20565630495548248, -0.20087814331054688, 1.4794921875, 1.547607421875, 0.296478271484375, 1.4912109375
32687, -0.012064386159181595, -0.0009010578505694866, 0.0007231725030578673, -8.666723442729563e-05, 5.458577652461827e-05, 0.007715726736932993, -0.0007313693640753627, 0.0008514446672052145, 0.05968746542930603, -0.8475548624992371, -1.0465818643569946, 0.10637898743152618, -0.13160339738216184, -1.1708405665499981, 2.763171121424553, 9362.0, 30146.0, 35388.0, 9362.0, 8.191736221313477, 0.5962433815002441, -0.4455925524234772, -0.9732105135917664, -0.09640563279390335, 0.009399637579917908, 1.0225480794906616, -0.20565630495548248, -0.20087814331054688, 1.4794921875, 1.642822265625, 0.5209503173828125, 1.4912109375
32697, -0.006024095229804516, 0.0001374121493427083, -0.007470420561730862, -9.39710735110566e-05, 6.324748392216861e-05, 0.00832336489111185, -0.0007294038077816367, 0.000880718172993511, 0.061840616166591644, -0.8475567102432251, -1.046531081199646, 0.10636109113693237, -0.1582866754079955, -1.1978699879958015, 2.7839508150498173, 9362.0, 30146.0, 35388.0, 9362.0, 8.191736221313477, 0.48998311161994934, 0.05116376280784607, -0.5785936117172241, -0.0956186056137085, 0.0085067730396986, 1.0246238708496094, -0.20565630495548248, -0.20087814331054688, 1.4794921875, 1.54833984375, 0.298126220703125, 1.494140625
32707, -0.0019689020700752735, 0.00056277378462255, -0.014960606582462788, -0.00010125721746589988, 7.216036465251818e-05, 0.00895325094461441, -0.0007278633420355618, 0.0009016156545840204, 0.0641370490193367, -0.8474668264389038, -1.0465657711029053, 0.10649387538433075, -0.16027572083277794, -1.2399518058089427, 2.7986892880596295, 9362.0, 30146.0, 35388.0, 9362.0, 8.191736221313477, 0.5706406235694885, -0.34629151225090027, -0.6827657222747803, -0.09680775552988052, 0.00837321113795042, 1.0232723951339722, -0.20565630495548248, -0.20087814331054688, 1.4794921875, 1.546875, 0.2949676513671875, 1.494140625
32717, -0.00044859267654828727, 0.0029303841292858124, -0.021292833611369133, -0.00010853704588953406, 8.122935105348006e-05, 0.009606614708900452, -0.0007281191647052765, 0.0009120124741457403, 0.0665360689163208, -0.847467303276062, -1.0465929508209229, 0.1065695509314537, -0.1434111061634034, -1.233685615765296, 2.8190054569324836, 9362.0, 30146.0, 35388.0, 9362.0, 8.191736221313477, -0.09834413975477219, -0.27450624108314514, -0.7548893690109253, -0.09624624997377396, 0.009832203388214111, 1.0199434757232666, -0.20565630495548248, -0.20087814331054688, 1.4794921875, 1.553466796875, 0.309661865234375, 1.49267578125
32727, 0.0006645686225965619, 0.005376380868256092, -0.02751901000738144, -0.00011582316074054688, 9.036670962814242e-05, 0.010282941162586212, -0.0007291935035027564, 0.0009154009749181569, 0.06872954964637756, -0.8475742936134338, -1.0465785264968872, 0.10638266801834106, -0.14057559099513947, -1.165095963687378, 2.7795916669285217, 9362.0, 30146.0, 35388.0, 9362.0, 8.191736221313477, 0.11431091278791428, -0.30383291840553284, -0.17321814596652985, -0.09429475665092468, 0.011714986525475979, 1.0228989124298096, -0.08765777200460434, 0.03208160400390625, 1.49853515625, 1.43701171875, 0.085052490234375, 1.49267578125
32737, 0.0017489718738943338, 0.009204602800309658, -0.03093811683356762, -0.00012314069317653775, 9.95246518868953e-05, 0.010980241931974888, -0.000734398141503334, 0.000916148244868964, 0.0707310140132904, -0.8475606441497803, -1.0465608835220337, 0.10639266669750214, -0.12721121643438463, -1.1583343641510453, 2.782139287201721, 9362.0, 30146.0, 35388.0, 9362.0, 8.191736221313477, 0.039040978997945786, -0.2929282486438751, -0.6596137285232544, -0.09465134143829346, 0.010798624716699123, 1.0220836400985718, -0.08765777200460434, 0.03208160400390625, 1.49853515625, 1.259033203125, 0.135589599609375, 1.48974609375
32747, 0.002387004205957055, 0.011858438141644001, -0.035510413348674774, -0.00013053175644017756, 0.00010868033859878778, 0.011698838323354721, -0.0007439666078425944, 0.0009149465477094054, 0.07298868894577026, -0.8475222587585449, -1.0465121269226074, 0.10641481727361679, -0.16783930758920634, -1.1957894627229848, 2.7340680351339186, 9362.0, 30146.0, 35388.0, 9362.0, 8.191736221313477, -0.14823144674301147, -0.3912315368652344, -0.2105621099472046, -0.09673258662223816, 0.010827864520251751, 1.0245025157928467, -0.08765777200460434, 0.03208160400390625, 1.49853515625, 1.316162109375, 0.030517578125, 1.48974609375
32757, 0.0014693079283460975, 0.015782590955495834, -0.03810199350118637, -0.00013805198250338435, 0.00011781453940784559, 0.012439663521945477, -0.0007601809920743108, 0.0009118706220760942, 0.07517677545547485, -0.8475586771965027, -1.0465199947357178, 0.10641025751829147, -0.16147114543246407, -1.1766748665633031, 2.7552435517788814, 9362.0, 30146.0, 35388.0, 9362.0, 8.191736221313477, -0.2249596267938614, -0.45126450061798096, -0.2619618773460388, -0.09600508958101273, 0.012741398066282272, 1.0241711139678955, -0.08765777200460434, 0.03208160400390625, 1.49853515625, 1.593017578125, 0.400604248046875, 1.494873046875
32767, 0.0011358222691342235, 0.0208320040255785, -0.03941235691308975, -0.00014575786190107465, 0.00012691236042883247, 0.013203667476773262, -0.0007811614777892828, 0.0009077348513528705, 0.07762445509433746, -0.8475158214569092, -1.0464953184127808, 0.10640725493431091, -0.19980568193473572, -1.1878739364278488, 2.740998940778747, 9362.0, 30146.0, 35388.0, 9362.0, 8.191736221313477, -0.29517680406570435, -0.35501164197921753, -0.18582892417907715, -0.09510797262191772, 0.01152287982404232, 1.0238919258117676, -0.08765777200460434, 0.03208160400390625, 1.49853515625, 1.24072265625, 0.1952667236328125, 1.494873046875
32777, -0.002329875947907567, 0.024885402992367744, -0.039442505687475204, -0.00015370779146905988, 0.00013597692304756492, 0.01399150863289833, -0.0008090289193205535, 0.0009051923407241702, 0.07994411885738373, -0.847378671169281, -1.046473503112793, 0.1065710112452507, -0.20699439516102372, -1.1819740058183754, 2.7935530571112017, 9362.0, 30146.0, 35388.0, 9362.0, 8.191736221313477, -0.3216961920261383, -0.22818925976753235, 0.16479530930519104, -0.09302482008934021, 0.010377459228038788, 1.024951457977295, -0.08765777200460434, 0.03208160400390625, 1.49853515625, 1.0341796875, 2.28289794921875, 1.486083984375
32787, -0.005290048196911812, 0.025324657559394836, -0.037166185677051544, -0.00016198083176277578, 0.00014501900295726955, 0.014803054742515087, -0.000845749513246119, 0.0009033711976371706, 0.0823654904961586, -0.8473967909812927, -1.046452283859253, 0.10656924545764923, -0.20795697397476048, -1.1728860186130419, 2.8117737119800275, 9362.0, 30146.0, 35388.0, 9362.0, 8.191736221313477, -0.1570262461900711, -0.2056746780872345, 0.05416877195239067, -0.09367836266756058, 0.010390988551080227, 1.0255765914916992, -0.08765777200460434, 0.03208160400390625, 1.49853515625, 1.56591796875, 0.337738037109375, 1.486083984375
32797, -0.008921857923269272, 0.026484321802854538, -0.03474367782473564, -0.00017065671272575855, 0.000154073306475766, 0.015639061108231544, -0.0008894465863704681, 0.0009076166315935552, 0.08483617007732391, -0.8475915789604187, -1.0464749336242676, 0.10634030401706696, -0.18777430446603496, -1.1462394382470507, 2.7481414688835226, 9362.0, 30146.0, 35388.0, 9362.0, 8.191736221313477, -0.45944860577583313, 0.14626194536685944, 0.12086599320173264, -0.09240956604480743, 0.01161326002329588, 1.0241525173187256, -0.08765777200460434, 0.03208160400390625, 1.49853515625, 1.54833984375, 0.298126220703125, 1.494140625
32807, -0.012780886143445969, 0.02672962099313736, -0.03166818246245384, -0.00017977342940866947, 0.00016319604765158147, 0.016499808058142662, -0.0009339459356851876, 0.0009170867851935327, 0.08731375634670258, -0.8475689888000488, -1.0465292930603027, 0.10633812844753265, -0.18176994069282895, -1.163190627943095, 2.748392148339878, 9362.0, 30146.0, 35388.0, 9362.0, 8.191736221313477, -0.34526699781417847, -0.22977103292942047, 0.2894439101219177, -0.0894770473241806, 0.009984518401324749, 1.0252794027328491, -0.08765777200460434, 0.03208160400390625, 1.49853515625, 1.483154296875, 0.162841796875, 1.494140625
32817, -0.01611705683171749, 0.028954099863767624, -0.028178520500659943, -0.00018934511172119528, 0.00017244530317839235, 0.017384923994541168, -0.0009804003639146686, 0.0009329224121756852, 0.08970966190099716, -0.8475697040557861, -1.0465242862701416, 0.10638771951198578, -0.17988804692483576, -1.1616483551334795, 2.744973293888357, 9362.0, 30146.0, 35388.0, 9362.0, 8.191736221313477, -0.1759910136461258, -0.20117072761058807, 0.4846711754798889, -0.09085974842309952, 0.008743871003389359, 1.0246870517730713, -0.08765777200460434, 0.03208160400390625, 1.49853515625, 1.27734375, 0.0894012451171875, 1.497802734375
32827, -0.01918087527155876, 0.02751978486776352, -0.022708972916007042, -0.00019938364857807755, 0.00018188683316111565, 0.018294386565685272, -0.0010274045635014772, 0.0009555243304930627, 0.0921834334731102, -0.8475678563117981, -1.0465232133865356, 0.10637736320495605, -0.17502380266813458, -1.1617181253811282, 2.751808244452129, 9362.0, 30146.0, 35388.0, 9362.0, 8.191736221313477, -0.4076572060585022, 0.3183618485927582, 0.6181989312171936, -0.09126237034797668, 0.007683077827095985, 1.0231709480285645, -0.07797379791736603, -0.1739978790283203, 1.481689453125, 1.528564453125, 0.2548828125, 1.497802734375
32847, -0.025506140664219856, 0.023387661203742027, -0.012225117534399033, -0.000220933259697631, 0.0002015907666645944, 0.02018442563712597, -0.0011261653853580356, 0.0010176482610404491, 0.09679701924324036, -0.8475740551948547, -1.0465184450149536, 0.10636872053146362, -0.17558181183656177, -1.1738700924406942, 2.7386935708916385, 9362.0, 30146.0, 35388.0, 9362.0, 8.191736221313477, -0.2680736482143402, 0.13947564363479614, 0.714146614074707, -0.09126237034797668, 0.007683077827095985, 1.0231709480285645, -0.07797379791736603, -0.1739978790283203, 1.481689453125, 1.469970703125, 0.1386566162109375, 1.493408203125
32867, -0.028866516426205635, 0.01779845543205738, -0.0038597057573497295, -0.000220933259697631, 0.0002015907666645944, 0.02018442563712597, -0.0011261653853580356, 0.0010176482610404491, 0.09679701924324036, -0.8475548028945923, -1.0465303659439087, 0.10636727511882782, -0.162888711886567, -1.1813523894802813, 2.7681682246092243, 9362.0, 30146.0, 35388.0, 9362.0, 8.191736221313477, -0.04501418024301529, 0.16826868057250977, 0.4710107743740082, -0.09290172904729843, 0.0065798284485936165, 1.0205154418945312, -0.07797379791736603, -0.1739978790283203, 1.481689453125, 1.469970703125, 0.1386566162109375, 1.489013671875
32887, -0.0314876064658165, 0.014442616142332554, -0.0012638100888580084, -0.0002692083071451634, 0.0002457549562677741, 0.024227699264883995, -0.0012779957614839077, 0.0012008488411083817, 0.10529535263776779, -0.8475370407104492, -1.0465270280838013, 0.10638143122196198, -0.1694932613029035, -1.1810833765566713, 2.7642414083268125, 9362.0, 30146.0, 35388.0, 9362.0, 8.191736221313477, -0.01590452902019024, -0.07788734883069992, 0.151279017329216, -0.09461673349142075, 0.006458005867898464, 1.0218260288238525, -0.07797379791736603, -0.1739978790283203, 1.481689453125, 1.1953125, 0.4109344482421875, 1.4912109375
32897, -0.03114943951368332, 0.013189367018640041, -0.0003126010997220874, -0.0002692083071451634, 0.0002457549562677741, 0.024227699264883995, -0.0012779957614839077, 0.0012008488411083817, 0.10529535263776779, -0.8475499153137207, -1.0465327501296997, 0.10636383295059204, -0.16292546412854472, -1.1838095172045655, 2.748785740696221, 9362.0, 30146.0, 35388.0, 9362.0, 8.191736221313477, 0.1536012887954712, 0.29195043444633484, 0.09464520215988159, -0.09600740671157837, 0.006325836759060621, 1.0250557661056519, -0.07797379791736603, -0.1739978790283203, 1.481689453125, 1.2099609375, 0.329986572265625, 1.4912109375
32907, -0.030578985810279846, 0.010814805515110493, 0.0004788221849594265, -0.0002692083071451634, 0.0002457549562677741, 0.024227699264883995, -0.0012779957614839077, 0.0012008488411083817, 0.10529535263776779, -0.847531795501709, -1.046540379524231, 0.10638001561164856, -0.16625215552801284, -1.1748869554662917, 2.754198415364106, 9362.0, 30146.0, 35388.0, 9362.0, 8.191736221313477, -0.17474962770938873, -0.0063767931424081326, -0.2155834585428238, -0.09821198135614395, 0.006991670932620764, 1.0226140022277832, -0.07797379791736603, -0.1739978790283203, 1.481689453125, 1.450927734375, 0.1063690185546875, 1.4912109375
32917, -0.031108584254980087, 0.008698376826941967, 5.476805381476879e-05, -0.00030876975506544113, 0.0002842084795702249, 0.027483606711030006, -0.0013553410535678267, 0.0013637208612635732, 0.1120041087269783, -0.8475417494773865, -1.046538233757019, 0.10637807101011276, -0.16298839286281885, -1.1879741277897438, 2.7641939670470435, 9362.0, 30146.0, 35388.0, 9362.0, 8.191736221313477, 0.02461901307106018, 0.561104416847229, -0.07478907704353333, -0.0929579958319664, 0.008353672921657562, 1.0226231813430786, -0.07797379791736603, -0.1739978790283203, 1.481689453125, 1.450927734375, 0.1063690185546875, 1.4912109375
32947, -0.027964144945144653, 0.007065548561513424, -0.00593778770416975, -0.0003501712344586849, 0.00032754382118582726, 0.03094380348920822, -0.0013977601192891598, 0.0015252938028424978, 0.1187182143330574, -0.8475248217582703, -1.0465551614761353, 0.10635659098625183, -0.16722110614173707, -1.1990328979273954, 2.7351907162004885, 9362.0, 30146.0, 35388.0, 9362.0, 8.191736221313477, 0.08676930516958237, -0.3112509846687317, -0.6182864904403687, -0.09456817060709, 0.009552680887281895, 1.0246200561523438, -0.07281599938869476, 0.0052013397216796875, 1.496337890625, 1.450927734375, 0.1063690185546875, 1.497802734375
32957, -0.024360189214348793, 0.00834447517991066, -0.010064946487545967, -0.00036418501986190677, 0.000343055697157979, 0.03214244171977043, -0.001405111514031887, 0.0015770203899592161, 0.12100965529680252, -0.8475384712219238, -1.0465354919433594, 0.10636898875236511, -0.16687017185292033, -1.1933444322526157, 2.7600640374561487, 9362.0, 30146.0, 35388.0, 9362.0, 8.191736221313477, 0.42462894320487976, -0.061389949172735214, -0.6047473549842834, -0.09617966413497925, 0.010770871303975582, 1.0242958068847656, -0.07281599938869476, 0.0052013397216796875, 1.496337890625, 1.15869140625, 0.6672515869140625, 1.497802734375
32967, -0.021240437403321266, 0.010277443565428257, -0.016698766499757767, -0.00036418501986190677, 0.000343055697157979, 0.03214244171977043, -0.001405111514031887, 0.0015770203899592161, 0.12100965529680252, -0.8475449681282043, -1.0465388298034668, 0.1063641905784607, -0.16375241157151124, -1.1873550326783402, 2.7350597335085665, 9362.0, 30146.0, 35388.0, 9362.0, 8.191736221313477, 0.4857173562049866, -0.5839030146598816, -0.926365315914154, -0.09324199706315994, 0.010095171630382538, 1.0228854417800903, -0.07281599938869476, 0.0052013397216796875, 1.496337890625, 1.28466796875, 0.07440185546875, 1.497802734375
32977, -0.0177697092294693, 0.01644219271838665, -0.019749820232391357, -0.00036418501986190677, 0.000343055697157979, 0.03214244171977043, -0.001405111514031887, 0.0015770203899592161, 0.12100965529680252, -0.8475024700164795, -1.046496033668518, 0.10636775195598602, -0.19719555714101034, -1.20726698232599, 2.733090779742549, 9362.0, 30146.0, 35388.0, 9362.0, 8.191736221313477, 0.01922418735921383, -0.41443881392478943, -0.34101593494415283, -0.10042732954025269, 0.00526047358289361, 1.0263135433197021, -0.07281599938869476, 0.0052013397216796875, 1.496337890625, 1.209228515625, 0.3337554931640625, 1.497802734375
32987, -0.01763099990785122, 0.013573242351412773, -0.02683946304023266, -0.00036418501986190677, 0.000343055697157979, 0.03214244171977043, -0.001405111514031887, 0.0015770203899592161, 0.12100965529680252, -0.847541332244873, -1.0465481281280518, 0.10638247430324554, -0.17158450834063557, -1.185726990179063, 2.7402434800742705, 9362.0, 30146.0, 35388.0, 9362.0, 8.191736221313477, 0.06258677691221237, 0.20827534794807434, -0.9062599539756775, -0.09371203184127808, 0.00903457123786211, 1.0273576974868774, -0.07281599938869476, 0.0052013397216796875, 1.496337890625, 1.209228515625, 0.3337554931640625, 1.497802734375
32997, -0.01783939078450203, 0.015371686778962612, -0.028205690905451775, -0.00042160862358286977, 0.00040962742059491575, 0.037173666059970856, -0.001479270402342081, 0.0017368675908073783, 0.13077887892723083, -0.8475407361984253, -1.0465466976165771, 0.10637582838535309, -0.1753382449866717, -1.1877458472643525, 2.7451002383300986, 9362.0, 30146.0, 35388.0, 9362.0, 8.191736221313477, -0.029224000871181488, -0.2066190391778946, -0.300345778465271, -0.09675515443086624, 0.013206934556365013, 1.0198118686676025, -0.07281599938869476, 0.0052013397216796875, 1.496337890625, 1.209228515625, 0.3337554931640625, 1.497802734375
33007, -0.019254807382822037, 0.01641191728413105, -0.035235922783613205, -0.00042160862358286977, 0.00040962742059491575, 0.037173666059970856, -0.001479270402342081, 0.0017368675908073783, 0.13077887892723083, -0.8475526571273804, -1.0465465784072876, 0.1063355877995491, -0.15898371071427742, -1.1845012591794273, 2.7435080073596594, 9362.0, 30146.0, 35388.0, 9362.0, 8.191736221313477, -0.2698095440864563, -0.36845657229423523, -0.39663758873939514, -0.09152181446552277, 0.009679848328232765, 1.0204664468765259, -0.07281599938869476, 0.0052013397216796875, 1.496337890625, 1.209228515625, 0.3337554931640625, 1.497802734375
33017, -0.020470604300498962, 0.020621107891201973, -0.03785524144768715, -0.000451685773441568, 0.00044498470379039645, 0.039834845811128616, -0.0015299940714612603, 0.0017990258056670427, 0.135118767619133, -0.8475624322891235, -1.046553134918213, 0.10635437071323395, -0.16720395350664038, -1.1732264459494672, 2.747941972780523, 9362.0, 30146.0, 35388.0, 9362.0, 8.191736221313477, -0.14863672852516174, -0.36932891607284546, -0.29241451621055603, -0.09439148008823395, 0.006615281570702791, 1.0229105949401855, -0.07281599938869476, 0.0052013397216796875, 1.496337890625, 1.210693359375, 0.326202392578125, 1.497802734375
33047, -0.025793088600039482, 0.03207096457481384, -0.04501592367887497, -0.0004990442539565265, 0.0005005309358239174, 0.043987758457660675, -0.001634487067349255, 0.0019074371084570885, 0.1419333815574646, -0.8475540280342102, -1.0465365648269653, 0.10636231303215027, -0.1601052641058703, -1.1799777159551468, 2.7374565916482045, 9362.0, 30146.0, 35388.0, 9362.0, 8.191736221313477, -0.243083655834198, -0.3912433981895447, 0.45523470640182495, -0.09248773753643036, 0.009262928739190102, 1.0242173671722412, -0.07281599938869476, 0.0052013397216796875, 1.496337890625, 1.11328125, 1.1085052490234375, 1.497802734375
33067, -0.030176034197211266, 0.039579201489686966, -0.04119788482785225, -0.0005327648250386119, 0.0005395411280915141, 0.04687415435910225, -0.001740971114486456, 0.0019951886497437954, 0.1467454582452774, -0.8475560545921326, -1.0465354919433594, 0.10637462139129639, -0.16815318952850097, -1.1848549686535534, 2.7359511881983876, 9362.0, 30146.0, 35388.0, 9362.0, 8.191736221313477, -0.11539249867200851, -0.07452970743179321, 0.38266050815582275, -0.09014058113098145, 0.00820212159305811, 1.0256255865097046, -0.07281599938869476, 0.0052013397216796875, 1.496337890625, 1.125, 0.980224609375, 1.497802734375
33077, -0.03270788490772247, 0.04068842902779579, -0.0394505076110363, -0.0005327648250386119, 0.0005395411280915141, 0.04687415435910225, -0.001740971114486456, 0.0019951886497437954, 0.1467454582452774, -0.8475623726844788, -1.0465315580368042, 0.10635402798652649, -0.1682297283130168, -1.184559189559053, 2.7524314080726535, 9362.0, 30146.0, 35388.0, 9362.0, 8.191736221313477, -0.2176230549812317, -0.237513929605484, 0.3415600657463074, -0.09261085838079453, 0.00940693449229002, 1.0245156288146973, -0.07281599938869476, 0.0052013397216796875, 1.496337890625, 1.125, 0.980224609375, 1.497802734375
33087, -0.03443599119782448, 0.03894847631454468, -0.03262892737984657, -0.0005689123645424843, 0.0005804484244436026, 0.049860723316669464, -0.0018759827362373471, 0.0020976532250642776, 0.1519719660282135, -0.8475683331489563, -1.0465327501296997, 0.10639394819736481, -0.1693797073905023, -1.176011733118088, 2.7615742675581494, 9362.0, 30146.0, 35388.0, 9362.0, 8.191736221313477, 0.013494125567376614, -0.07170896977186203, 0.3325852155685425, -0.09358999878168106, 0.009781948290765285, 1.0210967063903809, -0.07281599938869476, 0.0052013397216796875, 1.496337890625, 1.1748046875, 0.5444488525390625, 1.497802734375
33097, -0.0357801653444767, 0.042180005460977554, -0.027814431115984917, -0.0005880281678400934, 0.0006017115083523095, 0.051391515880823135, -0.0019471209961920977, 0.002155025489628315, 0.15418685972690582, -0.8475465178489685, -1.0465271472930908, 0.10638318955898285, -0.17293730710645097, -1.1810465909419747, 2.733913376089669, 9362.0, 30146.0, 35388.0, 9362.0, 8.191736221313477, -0.16854213178157806, -0.2539742887020111, 0.642166018486023, -0.09349015355110168, 0.009080419316887856, 1.022786259651184, -0.07281599938869476, 0.0052013397216796875, 1.496337890625, 1.1748046875, 0.5444488525390625, 1.49560546875
33117, -0.03838479518890381, 0.04392993450164795, -0.01583055406808853, -0.0006283620605245233, 0.0006460297154262662, 0.05451777204871178, -0.0020892468746751547, 0.0022781153675168753, 0.15855424106121063, -0.84754478931427, -1.0465233325958252, 0.10638531297445297, -0.17964291737488755, -1.1819206095935044, 2.749450363202211, 9362.0, 30146.0, 35388.0, 9362.0, 8.191736221313477, -0.10981304943561554, 0.2876163125038147, 0.763190746307373, -0.09290343523025513, 0.009408335201442242, 1.0227758884429932, -0.07281599938869476, 0.0052013397216796875, 1.496337890625, 1.007080078125, 2.8278045654296875, 1.49560546875
33137, -0.0398564487695694, 0.039009612053632736, -0.00524319801479578, -0.0006283620605245233, 0.0006460297154262662, 0.05451777204871178, -0.0020892468746751547, 0.0022781153675168753, 0.15855424106121063, -0.8475350737571716, -1.0465247631072998, 0.10636551678180695, -0.1718669772842787, -1.187320120668204, 2.7460945884293597, 9362.0, 30146.0, 35388.0, 9362.0, 8.191736221313477, 0.05009536072611809, 0.3191662132740021, 0.6582909226417542, -0.09575531631708145, 0.00870424509048462, 1.0225180387496948, -0.07281599938869476, 0.0052013397216796875, 1.496337890625, 1.007080078125, 2.8278045654296875, 1.496337890625
33147, -0.03985089436173439, 0.034432221204042435, 0.0005893368506804109, -0.0006283620605245233, 0.0006460297154262662, 0.05451777204871178, -0.0020892468746751547, 0.0022781153675168753, 0.15855424106121063, -0.8475431203842163, -1.046536922454834, 0.1063830703496933, -0.167193974955323, -1.1943727414600573, 2.7514611880868913, 9362.0, 30146.0, 35388.0, 9362.0, 8.191736221313477, -0.14816740155220032, 0.2211569845676422, 0.49278879165649414, -0.09575531631708145, 0.00870424509048462, 1.0225180387496948, -0.07281599938869476, 0.0052013397216796875, 1.496337890625, 1.119873046875, 1.0350341796875, 1.496337890625
33177, -0.036462102085351944, 0.03039165958762169, 0.010933649726212025, -0.0007667382014915347, 0.0007949334685690701, 0.06443960964679718, -0.0024984923657029867, 0.002690431894734502, 0.17205014824867249, -0.847545862197876, -1.0465224981307983, 0.10636918991804123, -0.17199957737567778, -1.1899531804438936, 2.754157996474427, 9362.0, 30146.0, 35388.0, 9362.0, 8.191736221313477, 0.05031418427824974, -0.22740577161312103, 0.07135994732379913, -0.0952807292342186, 0.008539300411939621, 1.0218983888626099, -0.07281599938869476, 0.0052013397216796875, 1.496337890625, 1.295654296875, 0.05548095703125, 1.496337890625
33187, -0.03604865446686745, 0.03125621750950813, 0.01049512904137373, -0.0007667382014915347, 0.0007949334685690701, 0.06443960964679718, -0.0024984923657029867, 0.002690431894734502, 0.17205014824867249, -0.8475337028503418, -1.0465292930603027, 0.10637754946947098, -0.1734654891453279, -1.176104348858047, 2.745247618524181, 9362.0, 30146.0, 35388.0, 9362.0, 8.191736221313477, 0.29265451431274414, 0.30272093415260315, 0.13882941007614136, -0.09608200937509537, 0.00969934556633234, 1.0211734771728516, -0.07281599938869476, 0.0052013397216796875, 1.496337890625, 0.99609375, 3.0723114013671875, 1.496337890625
33197, -0.0344349667429924, 0.029356198385357857, 0.009365847334265709, -0.0007667382014915347, 0.0007949334685690701, 0.06443960964679718, -0.0024984923657029867, 0.002690431894734502, 0.17205014824867249, -0.8475450277328491, -1.0465314388275146, 0.10634683072566986, -0.1755361452576251, -1.1950801041276975, 2.74189848027393, 9362.0, 30146.0, 35388.0, 9362.0, 8.191736221313477, 0.1461135596036911, -0.08278761804103851, -0.30554038286209106, -0.09502951055765152, 0.008078685030341148, 1.0243632793426514, -0.07281599938869476, 0.0052013397216796875, 1.496337890625, 0.99609375, 3.0723114013671875, 1.493408203125
33207, -0.033479951322078705, 0.029516294598579407, 0.004573233425617218, -0.0007667382014915347, 0.0007949334685690701, 0.06443960964679718, -0.0024984923657029867, 0.002690431894734502, 0.17205014824867249, -0.847527265548706, -1.0465247631072998, 0.10636457055807114, -0.17217237437866906, -1.1865399531164087, 2.7491167721008676, 9362.0, 30146.0, 35388.0, 9362.0, 8.191736221313477, -0.014278887771070004, -0.21006660163402557, -0.738001823425293, -0.09496022760868073, 0.008574710227549076, 1.0251888036727905, -0.07281599938869476, 0.0052013397216796875, 1.496337890625, 0.99609375, 3.0723114013671875, 1.493408203125
33217, -0.03299328312277794, 0.02715967781841755, 0.00022546271793544292, -0.000870907271746546, 0.0009077373542822897, 0.07149609178304672, -0.0027099018916487694, 0.0029445579275488853, 0.1809442639350891, -0.8475444912910461, -1.046534776687622, 0.10634876787662506, -0.17490763620427724, -1.1921210524121761, 2.738767319508051, 9362.0, 30146.0, 35388.0, 9362.0, 8.191736221313477, 0.14769567549228668, 0.5837564468383789, -0.4750083088874817, -0.09581488370895386, 0.010372629389166832, 1.0234073400497437, -0.07281599938869476, 0.0052013397216796875, 1.496337890625, 1.08837890625, 1.4176025390625, 1.493408203125
33257, -0.026772014796733856, 0.028949491679668427, -0.016919899731874466, -0.0009832062060013413, 0.0010300616268068552, 0.07892072200775146, -0.0028996767941862345, 0.003163752844557166, 0.19020842015743256, -0.8475171327590942, -1.046494483947754, 0.10636403411626816, -0.19610129573865273, -1.2099795438266199, 2.7154403433155694, 9362.0, 30146.0, 35388.0, 9362.0, 8.191736221313477, -0.11660336703062057, -0.2901662290096283, -0.5182955861091614, -0.09571082144975662, 0.009391017258167267, 1.0203355550765991, -0.0723036676645279, 0.09480094909667969, 1.503662109375, 1.2685546875, 0.1099395751953125, 1.493408203125
33267, -0.02608390711247921, 0.03175709769129753, -0.021327679976820946, -0.0009832062060013413, 0.0010300616268068552, 0.07892072200775146, -0.0028996767941862345, 0.003163752844557166, 0.19020842015743256, -0.8475473523139954, -1.0465518236160278, 0.10635216534137726, -0.17806983770967816, -1.1865204494014847, 2.7382043790979322, 9362.0, 30146.0, 35388.0, 9362.0, 8.191736221313477, -0.027497373521327972, -0.05235792323946953, -0.33722880482673645, -0.0950094535946846, 0.009015967138111591, 1.02336585521698, -0.0723036676645279, 0.09480094909667969, 1.503662109375, 1.2685546875, 0.1099395751953125, 1.493408203125
33307, -0.02958713471889496, 0.04318186268210411, -0.03682054579257965, -0.0011348130647093058, 0.0011941593838855624, 0.08870001137256622, -0.003182190004736185, 0.0034010198432952166, 0.2013581544160843, -0.8475350737571716, -1.0465303659439087, 0.10635808855295181, -0.15964811702566825, -1.1726785784619267, 2.7409464460929684, 9362.0, 30146.0, 35388.0, 9362.0, 8.191736221313477, -0.1279309093952179, -0.07562617212533951, -0.3216676712036133, -0.08934878557920456, 0.010590791702270508, 1.0239293575286865, -0.0723036676645279, 0.09480094909667969, 1.503662109375, 1.114013671875, 1.10015869140625, 1.4970703125
33337, -0.030862707644701004, 0.04729561507701874, -0.039472054690122604, -0.0011999718844890594, 0.0012632126454263926, 0.09277520328760147, -0.0033337243366986513, 0.003504496533423662, 0.2061137557029724, -0.8475650548934937, -1.0465340614318848, 0.10635365545749664, -0.1643171879204788, -1.1677321805526901, 2.7362983714306255, 9362.0, 30146.0, 35388.0, 9362.0, 8.191736221313477, -0.14676590263843536, -0.09296638518571854, 0.13225659728050232, -0.09634657949209213, 0.007594007533043623, 1.0223594903945923, -0.07432615011930466, -0.07543754577636719, 1.48974609375, 1.371826171875, 0.02008056640625, 1.493408203125
33347, -0.03280331939458847, 0.04807952418923378, -0.037356186658144, -0.001268251915462315, 0.0013343477621674538, 0.09694620966911316, -0.003494630567729473, 0.0036094614770263433, 0.21092793345451355, -0.8475594520568848, -1.046554446220398, 0.1063433364033699, -0.16383901528618017, -1.170278591147678, 2.73712838312298, 9362.0, 30146.0, 35388.0, 9362.0, 8.191736221313477, -0.12052444368600845, -0.4877258539199829, -0.31419214606285095, -0.09454598277807236, 0.010880795307457447, 1.0253329277038574, -0.07432615011930466, -0.07543754577636719, 1.48974609375, 1.371826171875, 0.02008056640625, 1.493408203125
33357, -0.03219609335064888, 0.04705200344324112, -0.03553285077214241, -0.0013036124873906374, 0.0013707131147384644, 0.09906700253486633, -0.003577505936846137, 0.0036636763252317905, 0.21323123574256897, -0.8475710153579712, -1.0465542078018188, 0.10635993629693985, -0.15904991102078994, -1.172859829712337, 2.7418738098284985, 9362.0, 30146.0, 35388.0, 9362.0, 8.191736221313477, -0.022691283375024796, 0.39053061604499817, 0.39189669489860535, -0.09447367489337921, 0.00734492065384984, 1.0225266218185425, -0.07432615011930466, -0.07543754577636719, 1.48974609375, 1.1455078125, 0.7802734375, 1.493408203125
33367, -0.033328041434288025, 0.04519141465425491, -0.0335802286863327, -0.0013036124873906374, 0.0013707131147384644, 0.09906700253486633, -0.003577505936846137, 0.0036636763252317905, 0.21323123574256897, -0.8475621342658997, -1.0465419292449951, 0.10635806620121002, -0.16342583801916852, -1.1738205743812102, 2.7393367116311556, 9362.0, 30146.0, 35388.0, 9362.0, 8.191736221313477, -0.18738912045955658, -0.1616242229938507, 0.26304271817207336, -0.09031010419130325, 0.005514489486813545, 1.0215506553649902, -0.07432615011930466, -0.07543754577636719, 1.48974609375, 1.1455078125, 0.7802734375, 1.493408203125
33377, -0.03512676805257797, 0.04527505114674568, -0.0275346040725708, -0.0013036124873906374, 0.0013707131147384644, 0.09906700253486633, -0.003577505936846137, 0.0036636763252317905, 0.21323123574256897, -0.8475732803344727, -1.0465443134307861, 0.10632933676242828, -0.16362613052805025, -1.173210802814026, 2.7455457471124363, 9362.0, 30146.0, 35388.0, 9362.0, 8.191736221313477, -0.18738912045955658, -0.1616242229938507, 0.26304271817207336, -0.09031010419130325, 0.005514489486813545, 1.0215506553649902, -0.07432615011930466, -0.07543754577636719, 1.48974609375, 1.197509765625, 0.3980255126953125, 1.493408203125
33387, -0.03477917239069939, 0.043518535792827606, -0.022951964288949966, -0.0013036124873906374, 0.0013707131147384644, 0.09906700253486633, -0.003577505936846137, 0.0036636763252317905, 0.21323123574256897, -0.8475792407989502, -1.0465353727340698, 0.10632544010877609, -0.17042594785355278, -1.1820204088276682, 2.733441553289716, 9362.0, 30146.0, 35388.0, 9362.0, 8.191736221313477, 0.10797294229269028, -0.055050697177648544, 0.525696873664856, -0.09277240186929703, 0.0074451398104429245, 1.021527647972107, -0.07432615011930466, -0.07543754577636719, 1.48974609375, 1.47802734375, 0.1532745361328125, 1.493408203125
33407, -0.0350361131131649, 0.03981238976120949, -0.018949924036860466, -0.0014926992589607835, 0.0015611472772434354, 0.11000563204288483, -0.003978210501372814, 0.003958411980420351, 0.22419112920761108, -0.8475529551506042, -1.0465408563613892, 0.1063934862613678, -0.17660891963091485, -1.1631505215723905, 2.755260179738764, 9362.0, 30146.0, 35388.0, 9362.0, 8.191736221313477, -0.04505889490246773, 0.45005330443382263, 0.4514809548854828, -0.09187215566635132, 0.006604488473385572, 1.0260748863220215, -0.07432615011930466, -0.07543754577636719, 1.48974609375, 1.215087890625, 0.3043060302734375, 1.4912109375
33417, -0.03557714819908142, 0.03649277240037918, -0.01627737283706665, -0.0014926992589607835, 0.0015611472772434354, 0.11000563204288483, -0.003978210501372814, 0.003958411980420351, 0.22419112920761108, -0.8475639820098877, -1.046531081199646, 0.10636736452579498, -0.17542241095380995, -1.1910242679415717, 2.750350798024016, 9362.0, 30146.0, 35388.0, 9362.0, 8.191736221313477, -0.14316332340240479, 0.28409722447395325, 0.1677149385213852, -0.09263312816619873, 0.007884311489760876, 1.0232101678848267, -0.07432615011930466, -0.07543754577636719, 1.48974609375, 1.215087890625, 0.3043060302734375, 1.4912109375
33437, -0.03612341359257698, 0.03198504447937012, -0.013748361729085445, -0.0016152813332155347, 0.0016826540231704712, 0.1168443039059639, -0.004186561796814203, 0.004143075086176395, 0.23151418566703796, -0.8475692272186279, -1.0465409755706787, 0.106348916888237, -0.17232801032498565, -1.1743224088627926, 2.7519741264010875, 9362.0, 30146.0, 35388.0, 9362.0, 8.191736221313477, 0.03661242872476578, 0.18465402722358704, 0.2693198025226593, -0.09390571713447571, 0.00916526559740305, 1.0256171226501465, -0.07432615011930466, -0.07543754577636719, 1.48974609375, 1.04296875, 2.123138427734375, 1.4912109375
33447, -0.03661283105611801, 0.029543722048401833, -0.013489319011569023, -0.0016152813332155347, 0.0016826540231704712, 0.1168443039059639, -0.004186561796814203, 0.004143075086176395, 0.23151418566703796, -0.8475642800331116, -1.046539545059204, 0.10638201981782913, -0.17043524203119087, -1.16648474775306, 2.7542558107263035, 9362.0, 30146.0, 35388.0, 9362.0, 8.191736221313477, -0.27689045667648315, 0.1841508150100708, -0.3770362436771393, -0.09350848942995071, 0.010365578345954418, 1.024125099182129, -0.07432615011930466, -0.07543754577636719, 1.48974609375, 1.04296875, 2.123138427734375, 1.4912109375
33467, -0.038499314337968826, 0.027258440852165222, -0.020726263523101807, -0.0017435216577723622, 0.001809774781577289, 0.12390115112066269, -0.004355995915830135, 0.004332978278398514, 0.23877175152301788, -0.8475587368011475, -1.0465248823165894, 0.1063956767320633, -0.17141954706253765, -1.1662156815906997, 2.7549538999177012, 9362.0, 30146.0, 35388.0, 9362.0, 8.191736221313477, -0.01926695555448532, 0.16386498510837555, -0.2948198914527893, -0.09507784992456436, 0.00832754373550415, 1.0230193138122559, -0.07432615011930466, -0.07543754577636719, 1.48974609375, 1.04296875, 2.123138427734375, 1.493408203125
33477, -0.03776082396507263, 0.024829084053635597, -0.023809557780623436, -0.0017873290926218033, 0.0018534369301050901, 0.12629956007003784, -0.004405448213219643, 0.00439946074038744, 0.2409108579158783, -0.8475468158721924, -1.046520709991455, 0.1063622385263443, -0.18021790236431803, -1.172199152724403, 2.7472138404705992, 9362.0, 30146.0, 35388.0, 9362.0, 8.191736221313477, 0.05874234065413475, 0.4067809283733368, -0.11722686141729355, -0.09507784992456436, 0.00832754373550415, 1.0230193138122559, -0.07432615011930466, -0.07543754577636719, 1.48974609375, 1.11767578125, 1.0591888427734375, 1.493408203125
33487, -0.03843633458018303, 0.02393229864537716, -0.027411870658397675, -0.0017873290926218033, 0.0018534369301050901, 0.12629956007003784, -0.004405448213219643, 0.00439946074038744, 0.2409108579158783, -0.8475404381752014, -1.0465238094329834, 0.10636462271213531, -0.1763427674199782, -1.173565107454209, 2.747006816788127, 9362.0, 30146.0, 35388.0, 9362.0, 8.191736221313477, -0.03195229545235634, -0.14928710460662842, -0.3486347794532776, -0.0963088795542717, 0.008403051644563675, 1.023557186126709, -0.07432615011930466, -0.07543754577636719, 1.48974609375, 1.364501953125, 0.0173492431640625, 1.493408203125
33497, -0.03953097388148308, 0.023825012147426605, -0.03166323900222778, -0.0017873290926218033, 0.0018534369301050901, 0.12629956007003784, -0.004405448213219643, 0.00439946074038744, 0.2409108579158783, -0.8475745320320129, -1.0465370416641235, 0.10634663701057434, -0.1732372128219795, -1.1733541543396484, 2.741105165661554, 9362.0, 30146.0, 35388.0, 9362.0, 8.191736221313477, -0.1696162223815918, 0.012574348598718643, -0.5056319236755371, -0.09604752063751221, 0.006663596723228693, 1.0233120918273926, -0.07432615011930466, -0.07543754577636719, 1.48974609375, 1.364501953125, 0.0173492431640625, 1.493408203125
33507, -0.04082038626074791, 0.02483285218477249, -0.03657222539186478, -0.0017873290926218033, 0.0018534369301050901, 0.12629956007003784, -0.004405448213219643, 0.00439946074038744, 0.2409108579158783, -0.847568690776825, -1.0465258359909058, 0.10635068267583847, -0.1775330745906911, -1.1735913037281875, 2.751775484900098, 9362.0, 30146.0, 35388.0, 9362.0, 8.191736221313477, 0.018988927826285362, -0.07492592185735703, -0.1921456754207611, -0.09475017338991165, 0.007123294752091169, 1.0255180597305298, -0.07432615011930466, -0.07543754577636719, 1.48974609375, 1.364501953125, 0.0173492431640625, 1.493408203125
33517, -0.04080864042043686, 0.025193825364112854, -0.039303556084632874, -0.0019671390764415264, 0.0020347905810922384, 0.13612227141857147, -0.004580236971378326, 0.004670007154345512, 0.2502685487270355, -0.84755939245224, -1.0465346574783325, 0.10633381456136703, -0.17041272325467233, -1.1692430779225162, 2.745130234515256, 9362.0, 30146.0, 35388.0, 9362.0, 8.191736221313477, 0.058112889528274536, -0.2652343511581421, -0.29027098417282104, -0.0954042449593544, 0.007444983348250389, 1.023435115814209, -0.07432615011930466, -0.07543754577636719, 1.48974609375, 1.0576171875, 1.874114990234375, 1.493408203125
33537, -0.04112045094370842, 0.028271526098251343, -0.04715896397829056, -0.002059617079794407, 0.002129622967913747, 0.14117535948753357, -0.004667876288294792, 0.004813167732208967, 0.2549668848514557, -0.847545862197876, -1.0465357303619385, 0.10638028383255005, -0.16914608210694793, -1.1678210469318344, 2.7405403105380106, 9362.0, 30146.0, 35388.0, 9362.0, 8.191736221313477, -0.026612330228090286, 0.09616798907518387, -0.6894135475158691, -0.09588085114955902, 0.00787033885717392, 1.0238032341003418, -0.07432615011930466, -0.07543754577636719, 1.48974609375, 1.0576171875, 1.874114990234375, 1.4970703125
33547, -0.04064588248729706, 0.029127804562449455, -0.04928593710064888, -0.002106521977111697, 0.002178109949454665, 0.1437368243932724, -0.004713202826678753, 0.004884249996393919, 0.25732576847076416, -0.8475735187530518, -1.0465483665466309, 0.10634344071149826, -0.1612535335612426, -1.171382445098402, 2.74604782079008, 9362.0, 30146.0, 35388.0, 9362.0, 8.191736221313477, 0.14905352890491486, -0.20081834495067596, -0.09597688168287277, -0.09506401419639587, 0.008022736757993698, 1.0215128660202026, -0.07432615011930466, -0.07543754577636719, 1.48974609375, 0.906005859375, 5.66668701171875, 1.4970703125
33557, -0.039328765124082565, 0.03289508819580078, -0.050854090601205826, -0.002106521977111697, 0.002178109949454665, 0.1437368243932724, -0.004713202826678753, 0.004884249996393919, 0.25732576847076416, -0.8475822806358337, -1.0465463399887085, 0.10631757229566574, -0.1529705067341857, -1.1675575121655868, 2.738255966505814, 9362.0, 30146.0, 35388.0, 9362.0, 8.191736221313477, 0.08006441593170166, -0.04067401587963104, 0.11001075059175491, -0.09382493048906326, 0.008090146817266941, 1.0216026306152344, -0.07432615011930466, -0.07543754577636719, 1.48974609375, 0.9140625, 5.38775634765625, 1.4970703125
33567, -0.03818437457084656, 0.033936407417058945, -0.05253182351589203, -0.002106521977111697, 0.002178109949454665, 0.1437368243932724, -0.004713202826678753, 0.004884249996393919, 0.25732576847076416, -0.8475827574729919, -1.0465444326400757, 0.10635855793952942, -0.164589581676877, -1.173633133405957, 2.748060633660797, 9362.0, 30146.0, 35388.0, 9362.0, 8.191736221313477, 0.18263529241085052, -0.4981721341609955, -0.23564840853214264, -0.09360310435295105, 0.009153563529253006, 1.022653579711914, -0.07432615011930466, -0.07543754577636719, 1.48974609375, 0.9140625, 5.38775634765625, 1.4970703125
33577, -0.03508257493376732, 0.036603204905986786, -0.05294468626379967, -0.002250207820907235, 0.0023278500884771347, 0.15155655145645142, -0.004871262237429619, 0.005096233915537596, 0.2638794183731079, -0.8475876450538635, -1.0465610027313232, 0.10632511973381042, -0.17308226371586796, -1.1803675724847835, 2.7474749106501775, 9362.0, 30146.0, 35388.0, 9362.0, 8.191736221313477, -0.05777403339743614, -0.35319384932518005, 0.06963051110506058, -0.09403292834758759, 0.008961191400885582, 1.0222249031066895, -0.07432615011930466, -0.07543754577636719, 1.48974609375, 0.9140625, 5.38775634765625, 1.4970703125
33587, -0.034509189426898956, 0.03819151595234871, -0.05166367068886757, -0.002250207820907235, 0.0023278500884771347, 0.15155655145645142, -0.004871262237429619, 0.005096233915537596, 0.2638794183731079, -0.8475695252418518, -1.0465294122695923, 0.10634110122919083, -0.15649795570969086, -1.1694664498993177, 2.755001253721172, 9362.0, 30146.0, 35388.0, 9362.0, 8.191736221313477, 0.33125653862953186, 0.49293971061706543, 0.1421096920967102, -0.09212766587734222, 0.00872060190886259, 1.0238450765609741, -0.07432615011930466, -0.07543754577636719, 1.48974609375, 0.9140625, 5.38775634765625, 1.4970703125
33597, -0.032701581716537476, 0.03810042515397072, -0.050764039158821106, -0.002250207820907235, 0.0023278500884771347, 0.15155655145645142, -0.004871262237429619, 0.005096233915537596, 0.2638794183731079, -0.8475813865661621, -1.0465534925460815, 0.10634437203407288, -0.1683573774408329, -1.1700489578437612, 2.7472307025917693, 9362.0, 30146.0, 35388.0, 9362.0, 8.191736221313477, 0.055617015808820724, -0.13468702137470245, 0.23645932972431183, -0.09485634416341782, 0.008343496359884739, 1.0241109132766724, -0.07432615011930466, -0.07543754577636719, 1.48974609375, 0.9140625, 5.38775634765625, 1.4970703125
33607, -0.032457385212183, 0.03936639055609703, -0.0496569387614727, -0.00239912630058825, 0.002483631484210491, 0.15957173705101013, -0.0050616939552128315, 0.005284949671477079, 0.27063170075416565, -0.8475733399391174, -1.0465315580368042, 0.10632430762052536, -0.16370624336432496, -1.156293528389, 2.745702680021886, 9362.0, 30146.0, 35388.0, 9362.0, 8.191736221313477, -0.02847970649600029, -0.11347870528697968, 0.03292718529701233, -0.09567752480506897, 0.0088056530803442, 1.0241531133651733, -0.07432615011930466, -0.07543754577636719, 1.48974609375, 0.9140625, 5.38775634765625, 1.4970703125
33617, -0.032150015234947205, 0.04366692155599594, -0.05046304315328598, -0.0024500770960003138, 0.0025367680937051773, 0.16228991746902466, -0.0051285093650221825, 0.005342343356460333, 0.2730054259300232, -0.8475625514984131, -1.0465437173843384, 0.10635533183813095, -0.16404703708611007, -1.156204805877934, 2.7428542755170557, 9362.0, 30146.0, 35388.0, 9362.0, 8.191736221313477, 0.20928530395030975, -0.1423204392194748, -0.013253124430775642, -0.09666070342063904, 0.00897540245205164, 1.022875428199768, -0.07432615011930466, -0.07543754577636719, 1.48974609375, 1.257568359375, 0.1398162841796875, 1.4970703125
33637, -0.031591519713401794, 0.04474242031574249, -0.04508927837014198, -0.0025540648493915796, 0.0026447505224496126, 0.16779547929763794, -0.0052739898674190044, 0.005455625709146261, 0.27752190828323364, -0.8475806713104248, -1.046543002128601, 0.10636033117771149, -0.16126966162493314, -1.160917253008364, 2.742317388779507, 9362.0, 30146.0, 35388.0, 9362.0, 8.191736221313477, -0.021133294329047203, -0.17066092789173126, 0.39087429642677307, -0.0927211195230484, 0.00941477157175541, 1.0235223770141602, -0.07507932931184769, 0.10376167297363281, 1.50439453125, 1.163818359375, 0.6264495849609375, 1.493408203125
