timeTick, roll, pitch, yaw, stateX, stateY, stateZ, stateVX, stateVY, stateVZ, otX0, otY0, otZ0, otRoll0, otPitch0, otYaw0, left wing, pitch motor, yaw motor, right wing, voltage, roll rate, pitch rate, yaw rate, A_x, A_y, A_z, current, i_raw, v_raw, airflow_voltage, airflow_speed, pot_Pitch
26646, 3.9940600395202637, 0.29054340720176697, 3.9476869106292725, 0, 0, 0, 0, 0, 0, -0.7903092503547668, -1.0800557136535645, 0.07535368204116821, -0.5672509530247403, -1.068754337966908, 5.9005310088281275, 0, 0, 0, 0, 0, 0, 0, 0, 0, 0, 0, 0, 0, 0, 0, 0, 0
26656, 3.9944584369659424, 0.2885701060295105, 3.9448280334472656, -5.7700235629454255e-05, -0.012690780684351921, 73.9676284790039, -0.001961051719263196, -0.43355417251586914, 5.8983988761901855, -0.7902967929840088, -1.0800968408584595, 0.07539615035057068, -0.5523888029276857, -1.08297619828042, 5.913738559318614, 9362.0, 30146.0, 35388.0, 9362.0, 0, 0.18166089057922363, -0.22325308620929718, -8.232231140136719, -0.09893567860126495, -0.009913637302815914, 1.0239251852035522, 0, 0, 0, 1.4091796875, 0.04937744140625, 0
26666, 3.9947690963745117, 0.2872622609138489, 3.9252116680145264, -5.7700235629454255e-05, -0.012690780684351921, 73.9676284790039, -0.001961051719263196, -0.43355417251586914, 5.8983988761901855, -0.7902920246124268, -1.080086588859558, 0.07537882030010223, -0.5472985841927759, -1.0730978690647532, 5.913789912296316, 9362.0, 30146.0, 35388.0, 9362.0, 0, 0.15721967816352844, -0.24163474142551422, -3.7180073261260986, -0.1094510555267334, -0.010846583172678947, 1.0251675844192505, 0, 0, 0, 1.399658203125, 0.0396575927734375, 0
26676, 3.9945783615112305, 0.2869208753108978, 3.922388792037964, -7.742130401311442e-05, -0.01706141233444214, 74.02662658691406, -0.001985508482903242, -0.44057226181030273, 5.900540351867676, -0.790303647518158, -1.0800877809524536, 0.07539445161819458, -0.5517207391574486, -1.0713911108888396, 5.91133502826291, 9362.0, 30146.0, 35388.0, 9362.0, 0, 0.21729503571987152, 0.3256549835205078, 5.633857727050781, -0.11620663851499557, -0.004326137248426676, 1.0232313871383667, 0, 0, 0, 1.40185546875, 0.0417938232421875, 1.493408203125
26686, 3.994980812072754, 0.28626367449760437, 3.9376931190490723, -9.738742664922029e-05, -0.02150224894285202, 74.08563995361328, -0.0020080532412976027, -0.44759535789489746, 5.9027485847473145, -0.7903138399124146, -1.080081582069397, 0.07541392743587494, -0.5485913237266968, -1.0764798463649754, 5.92112027365966, 9362.0, 30146.0, 35388.0, 9362.0, 0, -0.418567419052124, -0.0349808968603611, 7.190546035766602, -0.1041628047823906, -0.004604554269462824, 1.0234835147857666, 0, 0, 0, 1.423095703125, 0.06591796875, 1.493408203125
26696, 3.9942824840545654, 0.28831785917282104, 3.949862003326416, -0.00011757774336729199, -0.02601328119635582, 74.1446762084961, -0.002028122078627348, -0.4546108841896057, 5.904854774475098, -0.7902938723564148, -1.0800962448120117, 0.07541412115097046, -0.548224992816285, -1.0753408731450236, 5.916430751800708, 9362.0, 30146.0, 35388.0, 9362.0, 0, -0.2070043683052063, -0.411293625831604, 1.2338833808898926, -0.0980585590004921, -0.008615179918706417, 1.0211066007614136, 0, 0, 0, 1.423095703125, 0.06591796875, 1.491943359375
26706, 3.994643211364746, 0.29005151987075806, 3.9506571292877197, -0.00013795332051813602, -0.030594438314437866, 74.2037353515625, -0.0020455680787563324, -0.4616208076477051, 5.9068708419799805, -0.7902905941009521, -1.0800923109054565, 0.07537873834371567, -0.5523306564386081, -1.0777434917683308, 5.915420271084005, 9362.0, 30146.0, 35388.0, 9362.0, 0, 0.09962809085845947, -0.420601487159729, -8.305291175842285, -0.09522368758916855, -0.009937367402017117, 1.0218344926834106, 0, 0, 0, 1.453125, 0.1099090576171875, 1.491943359375
26716, 3.993980646133423, 0.29000648856163025, 3.92746901512146, -0.00015851408534217626, -0.035245638340711594, 74.26280975341797, -0.0020665412303060293, -0.4686192572116852, 5.908737659454346, -0.7902946472167969, -1.0800849199295044, 0.07538110762834549, -0.5513953679415037, -1.0782769290988483, 5.915094432388632, 9362.0, 30146.0, 35388.0, 9362.0, 0, 0.33369138836860657, -0.203215092420578, -6.694097518920898, -0.10921723395586014, -0.0073249973356723785, 1.0249598026275635, 0, 0, 0, 1.41650390625, 0.0577545166015625, 1.50146484375
26726, 3.994371175765991, 0.2899320721626282, 3.9150946140289307, -0.0001792989787645638, -0.03996683284640312, 74.32190704345703, -0.002093280665576458, -0.4756198227405548, 5.910622596740723, -0.7902865409851074, -1.0800871849060059, 0.07540040463209152, -0.5524262736663125, -1.0728703234355805, 5.909357346761449, 9362.0, 30146.0, 35388.0, 9362.0, 0, -0.045506104826927185, -0.10587601363658905, 5.818786144256592, -0.11231338977813721, -0.00678049772977829, 1.0241897106170654, 0, 0, 0, 1.459716796875, 0.120849609375, 1.50146484375
26736, 3.993837594985962, 0.2938325107097626, 3.936326503753662, -0.00020036587375216186, -0.044758141040802, 74.38102722167969, -0.0021216075401753187, -0.4826418459415436, 5.912829875946045, -0.7902935147285461, -1.0800889730453491, 0.07538916170597076, -0.551432583087279, -1.0803926791041647, 5.92295019230802, 9362.0, 30146.0, 35388.0, 9362.0, 0, -0.4113504886627197, 0.41833266615867615, 7.720592021942139, -0.10751347243785858, -0.006920266896486282, 1.0231761932373047, 0, 0, 0, 1.37548828125, 0.021820068359375, 1.49853515625
26746, 3.9925739765167236, 0.2942277193069458, 3.9479384422302246, -0.000221722642891109, -0.0496196486055851, 74.4401626586914, -0.0021472859662026167, -0.4896595776081085, 5.914969444274902, -0.7902898192405701, -1.080094337463379, 0.07540258020162582, -0.5550143044739253, -1.0743673272848753, 5.914686284483469, 9362.0, 30146.0, 35388.0, 9362.0, 8.33057975769043, -0.47767603397369385, -0.11440686136484146, 2.386746644973755, -0.09942631423473358, -0.00993330031633377, 1.0252028703689575, -0.05288119614124298, 0.1396007537841797, 1.50732421875, 1.431884765625, 0.07769775390625, 1.49853515625
26756, 3.990067481994629, 0.2941450774669647, 3.9485223293304443, -0.00024335741181857884, -0.054551299661397934, 74.49932098388672, -0.0021782529074698687, -0.49667081236839294, 5.917020797729492, -0.7903439402580261, -1.0800986289978027, 0.07531877607107162, -0.5397312566782131, -1.108139783839448, 5.8962370163354425, 9362.0, 30146.0, 35388.0, 9362.0, 8.33057975769043, 0.209043487906456, 0.28562337160110474, -4.449601650238037, -0.09664817899465561, -0.0075510647147893906, 1.026018738746643, -0.05288119614124298, 0.1396007537841797, 1.50732421875, 1.439208984375, 0.0882415771484375, 1.493408203125
26766, 3.989284038543701, 0.29169994592666626, 3.938955307006836, -0.00026529913884587586, -0.05955309420824051, 74.55850219726562, -0.002210024744272232, -0.5036880970001221, 5.919189453125, -0.7902843356132507, -1.0800892114639282, 0.07541196048259735, -0.5528885570360708, -1.0765931563400954, 5.908636446699029, 9362.0, 30146.0, 35388.0, 9362.0, 8.33057975769043, 0.2939699590206146, -0.16925419867038727, -7.49609375, -0.10449846088886261, -0.008409293368458748, 1.0220489501953125, -0.05288119614124298, 0.1396007537841797, 1.50732421875, 1.440673828125, 0.090423583984375, 1.493408203125
26776, 3.989748001098633, 0.2921079993247986, 3.919907569885254, -0.0002875591744668782, -0.0646250769495964, 74.61770629882812, -0.0022430713288486004, -0.5107080340385437, 5.921459197998047, -0.7902989387512207, -1.0800961256027222, 0.07539156079292297, -0.5601728874689126, -1.0777676207345053, 5.917098922765869, 9362.0, 30146.0, 35388.0, 9362.0, 8.33057975769043, 0.14198419451713562, 0.036939118057489395, 2.115304470062256, -0.11439762264490128, -0.011269054375588894, 1.0220129489898682, -0.05288119614124298, 0.1396007537841797, 1.50732421875, 1.440673828125, 0.090423583984375, 1.493408203125
26786, 3.990299701690674, 0.2923935651779175, 3.9309918880462646, -0.00031013431726023555, -0.06976716965436935, 74.67693328857422, -0.0022742825094610453, -0.5177098512649536, 5.923491954803467, -0.7902988791465759, -1.0800909996032715, 0.07539698481559753, -0.5536335136092144, -1.0771147398326377, 5.9221337831109375, 9362.0, 30146.0, 35388.0, 9362.0, 8.33057975769043, -0.3665653169155121, 0.6656239628791809, 8.601531028747559, -0.1071447879076004, -0.0058588432148098946, 1.0227609872817993, -0.05288119614124298, 0.1396007537841797, 1.50732421875, 1.462646484375, 0.125823974609375, 1.493408203125
26796, 3.988950729370117, 0.29014766216278076, 3.9521124362945557, -0.0003330362669657916, -0.07497923076152802, 74.73617553710938, -0.0023047681897878647, -0.524702250957489, 5.925378322601318, -0.7902883291244507, -1.0800862312316895, 0.07539978623390198, -0.5553815388643871, -1.0720804938283948, 5.912681710336159, 9362.0, 30146.0, 35388.0, 9362.0, 8.33057975769043, -0.30125245451927185, -0.10627792030572891, 1.6393417119979858, -0.09873858839273453, -0.004731148015707731, 1.022689700126648, -0.05288119614124298, 0.1396007537841797, 1.50732421875, 1.43701171875, 0.085052490234375, 1.49560546875
26806, 3.9885637760162354, 0.2891208827495575, 3.9494645595550537, -0.0003562385682016611, -0.0802612453699112, 74.79544067382812, -0.002333021489903331, -0.5317007899284363, 5.927339553833008, -0.7902980446815491, -1.0800880193710327, 0.07540667057037354, -0.5552472183448074, -1.0744793556221452, 5.915223348341604, 9362.0, 30146.0, 35388.0, 9362.0, 8.33057975769043, -0.05828593671321869, -0.5245610475540161, -4.643904209136963, -0.09736432880163193, -0.008852698840200901, 1.024948239326477, -0.05288119614124298, 0.1396007537841797, 1.50732421875, 1.439208984375, 0.0882415771484375, 1.49560546875
26816, 3.987036943435669, 0.2903493642807007, 3.9380388259887695, -0.00037969177355989814, -0.08561323583126068, 74.85472106933594, -0.002357914811000228, -0.5386974215507507, 5.929310321807861, -0.790337860584259, -1.0800992250442505, 0.07532498240470886, -0.5387915355490684, -1.1150512725305077, 5.8943968883976, 9362.0, 30146.0, 35388.0, 9362.0, 8.33057975769043, 0.6299005746841431, 0.05162724852561951, -5.889127254486084, -0.10232996940612793, -0.009552325122058392, 1.0234285593032837, -0.05288119614124298, 0.1396007537841797, 1.50732421875, 1.455322265625, 0.1134796142578125, 1.4912109375
26826, 3.9896464347839355, 0.2888125777244568, 3.9258999824523926, -0.00040338700637221336, -0.09103525429964066, 74.91402435302734, -0.0023825918324291706, -0.5457055568695068, 5.931458950042725, -0.7902922034263611, -1.0800896883010864, 0.07540740072727203, -0.5548273967477457, -1.0776818184091326, 5.917200154903052, 9362.0, 30146.0, 35388.0, 9362.0, 8.33057975769043, 0.13211184740066528, 0.031905949115753174, -0.40976113080978394, -0.11304937303066254, -0.007770594675093889, 1.025239109992981, -0.05288119614124298, 0.1396007537841797, 1.50732421875, 1.45751953125, 0.117095947265625, 1.4912109375
26836, 3.9896490573883057, 0.2880157232284546, 3.92618465423584, -0.0004273476079106331, -0.09652732312679291, 74.97335052490234, -0.002410919638350606, -0.5527087450027466, 5.93356990814209, -0.790286123752594, -1.0800968408584595, 0.07540085911750793, -0.55472508633101, -1.077038196098414, 5.922966070040299, 9362.0, 30146.0, 35388.0, 9362.0, 8.33057975769043, -0.17706705629825592, 0.3447854220867157, 9.555603981018066, -0.10930009186267853, -0.007990136742591858, 1.0229461193084717, -0.05288119614124298, 0.1396007537841797, 1.50732421875, 1.40185546875, 0.0417938232421875, 1.494140625
26846, 3.9899230003356934, 0.29018473625183105, 3.951991558074951, -0.0004515840846579522, -0.10208948701620102, 75.03269958496094, -0.002436306793242693, -0.5597242116928101, 5.935794830322266, -0.7903359532356262, -1.0801149606704712, 0.07530687004327774, -0.542751333313044, -1.1202777269881494, 5.891097347019939, 9362.0, 30146.0, 35388.0, 9362.0, 8.33057975769043, -0.15018294751644135, -0.06998764723539352, 3.8462681770324707, -0.10319086909294128, -0.007511408068239689, 1.0221213102340698, -0.04738612845540047, -0.1291980743408203, 1.4853515625, 1.41650390625, 0.0577545166015625, 1.494140625
26856, 3.9903364181518555, 0.29273831844329834, 3.9545652866363525, -0.00047606704174540937, -0.1077217385172844, 75.0920639038086, -0.0024572217371314764, -0.56672602891922, 5.937825679779053, -0.7902902364730835, -1.0800957679748535, 0.07542220503091812, -0.5492034592909482, -1.0743943863242578, 5.923815220891382, 9362.0, 30146.0, 35388.0, 9362.0, 8.33057975769043, -0.1674400120973587, -0.3442482352256775, -5.943515300750732, -0.09936808049678802, -0.008036182262003422, 1.0227861404418945, -0.04738612845540047, -0.1291980743408203, 1.4853515625, 1.43115234375, 0.0766143798828125, 1.493408203125
26866, 3.9895453453063965, 0.2935430705547333, 3.9366321563720703, -0.0005007620202377439, -0.11342398077249527, 75.15145111083984, -0.0024815413635224104, -0.5737224817276001, 5.939769744873047, -0.7902790307998657, -1.0800821781158447, 0.07541058957576752, -0.5490025582808473, -1.0723752446955643, 5.913777605492966, 9362.0, 30146.0, 35388.0, 9362.0, 8.33057975769043, 0.545796275138855, -0.20006999373435974, -5.856142520904541, -0.10337173193693161, -0.005223424639552832, 1.025131344795227, -0.04738612845540047, -0.1291980743408203, 1.4853515625, 1.440673828125, 0.090423583984375, 1.493408203125
26876, 3.9918930530548096, 0.29543015360832214, 3.9263131618499756, -0.0005257207085378468, -0.11919621378183365, 75.21086120605469, -0.002512426348403096, -0.5807241797447205, 5.941775321960449, -0.7902886271476746, -1.0800973176956177, 0.075395867228508, -0.547041854950975, -1.0794740361317565, 5.924928718326126, 9362.0, 30146.0, 35388.0, 9362.0, 8.33057975769043, 0.5223034024238586, -0.2714482843875885, -1.6540342569351196, -0.11292079836130142, -0.0060053132474422455, 1.022254467010498, -0.04738612845540047, -0.1291980743408203, 1.4853515625, 1.478759765625, 0.1546478271484375, 1.49267578125
26886, 3.9937431812286377, 0.29591915011405945, 3.9223341941833496, -0.0005510069895535707, -0.1250385195016861, 75.2702865600586, -0.0025461209006607533, -0.5877373218536377, 5.943959712982178, -0.7902986407279968, -1.0800917148590088, 0.07539232820272446, -0.5579519869069957, -1.081176711391123, 5.920268813499273, 9362.0, 30146.0, 35388.0, 9362.0, 8.33057975769043, -0.03909217193722725, 0.286013126373291, 6.826692581176758, -0.11246128380298615, -0.006828527897596359, 1.0229299068450928, -0.04738612845540047, -0.1291980743408203, 1.4853515625, 1.44580078125, 0.098236083984375, 1.49267578125
26896, 3.9940707683563232, 0.29683777689933777, 3.9400622844696045, -0.0005766512476839125, -0.1309509128332138, 75.3297348022461, -0.00258321943692863, -0.594741940498352, 5.945960998535156, -0.7902876138687134, -1.080069899559021, 0.07540219277143478, -0.5506119360578835, -1.075234762398651, 5.922601708165584, 9362.0, 30146.0, 35388.0, 9362.0, 8.33057975769043, -0.4232563376426697, 0.3029901087284088, 5.741469860076904, -0.10217486321926117, -0.003862775396555662, 1.023930549621582, -0.04738612845540047, -0.1291980743408203, 1.4853515625, 1.39013671875, 0.0314483642578125, 1.490478515625
26906, 3.9937689304351807, 0.29577386379241943, 3.9515011310577393, -0.0006026719929650426, -0.1369333565235138, 75.38920593261719, -0.0026187971234321594, -0.6017465591430664, 5.947916030883789, -0.7902916669845581, -1.080080509185791, 0.07542290538549423, -0.5516620146146483, -1.0758834960735726, 5.918462200729024, 9362.0, 30146.0, 35388.0, 9362.0, 8.33057975769043, 0.1055421456694603, -0.4398743212223053, -4.797247409820557, -0.09187177568674088, -0.01026926003396511, 1.0216728448867798, -0.04738612845540047, -0.1291980743408203, 1.4853515625, 1.4443359375, 0.0959930419921875, 1.490478515625
26916, 3.996272563934326, 0.2953720688819885, 3.9379897117614746, -0.0006290457095019519, -0.14298589527606964, 75.44869232177734, -0.002654505427926779, -0.6087599992752075, 5.949986934661865, -0.7902824282646179, -1.0800777673721313, 0.07541792839765549, -0.5567618905933416, -1.0803499883138272, 5.907753562344659, 9362.0, 30146.0, 35388.0, 9362.0, 8.33057975769043, 0.3960471749305725, -0.40771910548210144, -8.76335334777832, -0.10368968546390533, -0.012163817882537842, 1.0246340036392212, -0.04738612845540047, -0.1291980743408203, 1.4853515625, 1.42529296875, 0.0688018798828125, 1.49853515625
26926, 3.9973602294921875, 0.2956586182117462, 3.9170351028442383, -0.0006557601154781878, -0.14910851418972015, 75.5082015991211, -0.0026899788063019514, -0.6157630085945129, 5.951916694641113, -0.790296196937561, -1.0800923109054565, 0.07541773468255997, -0.5479738464607777, -1.0804598900705287, 5.921087593017346, 9362.0, 30146.0, 35388.0, 9362.0, 8.33057975769043, 0.40762361884117126, 0.19738593697547913, -0.7016488313674927, -0.10912703722715378, -0.00941157154738903, 1.0242857933044434, -0.04738612845540047, -0.1291980743408203, 1.4853515625, 1.48828125, 0.172576904296875, 1.49853515625
26936, 3.9979352951049805, 0.29435068368911743, 3.9239397048950195, -0.0006828329060226679, -0.1553012579679489, 75.56773376464844, -0.0027271253056824207, -0.6227848529815674, 5.954054355621338, -0.7903034090995789, -1.0800764560699463, 0.07540702819824219, -0.550610543556381, -1.0783313472854843, 5.917047947696213, 9362.0, 30146.0, 35388.0, 9362.0, 8.33057975769043, 0.004392378963530064, 0.12788738310337067, 3.791064739227295, -0.11414988338947296, -0.004024358466267586, 1.0217242240905762, -0.04738612845540047, -0.1291980743408203, 1.4853515625, 1.434814453125, 0.081787109375, 1.494873046875
26946, 3.998239755630493, 0.2954886555671692, 3.9321162700653076, -0.0007102919043973088, -0.16156423091888428, 75.62728881835938, -0.002763784723356366, -0.6298105716705322, 5.9562201499938965, -0.7902605533599854, -1.0800530910491943, 0.07541289180517197, -0.54822319787974, -1.080910193661623, 5.917566392393146, 9362.0, 30146.0, 35388.0, 9362.0, 8.33057975769043, -0.07999566197395325, -0.133589968085289, 2.916292428970337, -0.10402834415435791, -0.013434933498501778, 1.022025227546692, -0.049989715218544006, -0.05751800537109375, 1.4912109375, 1.434814453125, 0.081787109375, 1.494873046875
26956, 3.9991848468780518, 0.2970605194568634, 3.9376003742218018, -0.0007381011382676661, -0.16789738833904266, 75.68685913085938, -0.0027970990631729364, -0.6368216872215271, 5.958165645599365, -0.7902622222900391, -1.080066442489624, 0.07541793584823608, -0.5512999106986729, -1.078497849866551, 5.918773990968933, 9362.0, 30146.0, 35388.0, 9362.0, 8.33057975769043, -0.08331728726625443, 0.40436357259750366, -3.0871596336364746, -0.11290143430233002, -0.0005435857456177473, 1.0242807865142822, -0.049989715218544006, -0.05751800537109375, 1.4912109375, 1.437744140625, 0.086029052734375, 1.491943359375
26966, 3.9993021488189697, 0.29409679770469666, 3.9141879081726074, -0.0007662482094019651, -0.1743006557226181, 75.74645233154297, -0.0028316988609731197, -0.6438325643539429, 5.960098743438721, -0.7902839183807373, -1.080061435699463, 0.07537097483873367, -0.5323694601772185, -1.1142957167790541, 5.89026403350345, 9362.0, 30146.0, 35388.0, 9362.0, 8.33057975769043, 0.305286705493927, 0.03893343359231949, 10.28903865814209, -0.10148093104362488, -0.013726620934903622, 1.0217655897140503, -0.049989715218544006, -0.05751800537109375, 1.4912109375, 1.461181640625, 0.1233062744140625, 1.491943359375
26976, 4.000372409820557, 0.297723650932312, 3.951573371887207, -0.0007947513950057328, -0.18077412247657776, 75.80606079101562, -0.0028717066161334515, -0.6508603692054749, 5.962246894836426, -0.790252149105072, -1.080057978630066, 0.0754019021987915, -0.5547545878621721, -1.0682967266085655, 5.894888422582349, 9362.0, 30146.0, 35388.0, 9362.0, 8.33057975769043, -0.17907993495464325, -0.13836446404457092, 1.8488856554031372, -0.10048376768827438, -0.005672999657690525, 1.0252829790115356, -0.049989715218544006, -0.05751800537109375, 1.4912109375, 1.42529296875, 0.0688018798828125, 1.493408203125
26986, 3.9987874031066895, 0.2984313368797302, 3.9453322887420654, -0.0008236425346694887, -0.18731774389743805, 75.86569213867188, -0.0029021124355494976, -0.6578642129898071, 5.964056015014648, -0.7902916669845581, -1.080073595046997, 0.07537350058555603, -0.5348590473107003, -1.10701296796708, 5.872404908633502, 9362.0, 30146.0, 35388.0, 9362.0, 8.33057975769043, -0.13039900362491608, -0.3723064959049225, -8.811321258544922, -0.09646892547607422, -0.008477434515953064, 1.023618221282959, -0.049989715218544006, -0.05751800537109375, 1.4912109375, 1.462646484375, 0.125823974609375, 1.493408203125
26996, 3.9972684383392334, 0.29876554012298584, 3.921504259109497, -0.0008528465405106544, -0.19393156468868256, 75.92534637451172, -0.0029394924640655518, -0.6648995876312256, 5.966281414031982, -0.7902446985244751, -1.0800600051879883, 0.0754237249493599, -0.550408065020572, -1.074972391133258, 5.890581519545624, 9362.0, 30146.0, 35388.0, 9362.0, 8.33057975769043, 0.3987983167171478, 0.17894288897514343, -5.960893630981445, -0.10813736915588379, -0.004714996553957462, 1.0246628522872925, -0.049989715218544006, -0.05751800537109375, 1.4912109375, 1.46923828125, 0.137359619140625, 1.496337890625
27006, 3.998444080352783, 0.2972729206085205, 3.917144536972046, -0.0008824350079521537, -0.20061567425727844, 75.98501586914062, -0.0029811665881425142, -0.6719222664833069, 5.968364715576172, -0.7901962995529175, -1.0800656080245972, 0.0754472091794014, -0.5353017727438851, -1.0896937084403362, 5.871510702343121, 9362.0, 30146.0, 35388.0, 9362.0, 8.33057975769043, 0.07269423454999924, -0.236757293343544, -0.2737497091293335, -0.11214638501405716, -0.009465344250202179, 1.0202828645706177, -0.049989715218544006, -0.05751800537109375, 1.4912109375, 1.461181640625, 0.1233062744140625, 1.496337890625
27016, 3.9976015090942383, 0.29896414279937744, 3.9179208278656006, -0.0009124589269049466, -0.20737002789974213, 76.04470825195312, -0.003024082165211439, -0.6789498925209045, 5.970554351806641, -0.7902402281761169, -1.0800585746765137, 0.07543958723545074, -0.5515057676606415, -1.0712500478682614, 5.889103711134693, 9362.0, 30146.0, 35388.0, 9362.0, 8.33057975769043, -0.5085482597351074, 0.27955278754234314, 7.171961784362793, -0.11043980717658997, -0.009882177226245403, 1.026323676109314, -0.049989715218544006, -0.05751800537109375, 1.4912109375, 1.465576171875, 0.130889892578125, 1.49560546875
27026, 3.994364023208618, 0.29946956038475037, 3.933276414871216, -0.0009429003112018108, -0.21419456601142883, 76.10442352294922, -0.0030641464982181787, -0.6859573721885681, 5.972429275512695, -0.7902634739875793, -1.08005690574646, 0.07539012283086777, -0.5343393823629885, -1.114660854247461, 5.8562725379000895, 9362.0, 30146.0, 35388.0, 9362.0, 8.33057975769043, -0.3496364653110504, -0.11161873489618301, 8.721953392028809, -0.1002524271607399, -0.005646239500492811, 1.0259366035461426, -0.049989715218544006, -0.05751800537109375, 1.4912109375, 1.497802734375, 0.19122314453125, 1.49560546875
27036, 3.9931700229644775, 0.30367565155029297, 3.9481492042541504, -0.0009737578220665455, -0.22108928859233856, 76.1641616821289, -0.003105455543845892, -0.6929874420166016, 5.974648952484131, -0.7902246117591858, -1.0800458192825317, 0.07547629624605179, -0.5475782832977044, -1.078620707086145, 5.882488906542024, 9362.0, 30146.0, 35388.0, 9362.0, 8.33057975769043, -0.0013210264733061194, 0.6600419878959656, -1.958322286605835, -0.09428386390209198, -0.00522558344528079, 1.0260272026062012, -0.049989715218544006, -0.05751800537109375, 1.4912109375, 1.41064453125, 0.0509490966796875, 1.49267578125
27046, 3.9931819438934326, 0.2984144687652588, 3.936511754989624, -0.0010050254641100764, -0.22805431485176086, 76.22392272949219, -0.0031464057974517345, -0.7000172138214111, 5.9769415855407715, -0.7902460098266602, -1.080061674118042, 0.0754271149635315, -0.5478409586396683, -1.075598542311269, 5.890912366343268, 9362.0, 30146.0, 35388.0, 9362.0, 8.33057975769043, 0.2645713686943054, -0.3406681716442108, -8.377716064453125, -0.10219040513038635, -0.010023422539234161, 1.0231800079345703, -0.036704204976558685, -0.030637741088867188, 1.493408203125, 1.42529296875, 0.0688018798828125, 1.49267578125
27056, 3.993194341659546, 0.29641661047935486, 3.9190049171447754, -0.0010367309441789985, -0.23508961498737335, 76.28370666503906, -0.0031959153711795807, -0.7070422768592834, 5.979189872741699, -0.7902917265892029, -1.0800800323486328, 0.07535836100578308, -0.541460605466434, -1.109384720984167, 5.860338991034221, 9362.0, 30146.0, 35388.0, 9362.0, 8.33057975769043, 0.4195645749568939, 0.13278613984584808, -6.2124128341674805, -0.10997626930475235, -0.007693254388868809, 1.0222331285476685, -0.036704204976558685, -0.030637741088867188, 1.493408203125, 1.469970703125, 0.1386566162109375, 1.49560546875
27066, 3.99454665184021, 0.29395079612731934, 3.904799699783325, -0.0010688923066481948, -0.24219509959220886, 76.343505859375, -0.00323841767385602, -0.7140533328056335, 5.981247901916504, -0.7902418375015259, -1.0800622701644897, 0.07543113827705383, -0.5508351219171546, -1.0669260155205507, 5.880497449193747, 9362.0, 30146.0, 35388.0, 9362.0, 8.33057975769043, -0.17567455768585205, 0.1562354415655136, 1.797939419746399, -0.12023819237947464, -0.005175153724849224, 1.0238763093948364, -0.036704204976558685, -0.030637741088867188, 1.493408203125, 1.49560546875, 0.1868743896484375, 1.49560546875
27076, 3.993417263031006, 0.2928757965564728, 3.9131252765655518, -0.0011014718329533935, -0.24937066435813904, 76.40332794189453, -0.0032791034318506718, -0.7210585474967957, 5.983222961425781, -0.7902455925941467, -1.0800514221191406, 0.07545901089906693, -0.551886656558219, -1.0704028523857403, 5.885098222210282, 9362.0, 30146.0, 35388.0, 9362.0, 8.33057975769043, -0.14831891655921936, 0.2360229790210724, 7.438510417938232, -0.11150361597537994, -0.005689683370292187, 1.022417664527893, -0.036704204976558685, -0.030637741088867188, 1.493408203125, 1.44580078125, 0.098236083984375, 1.49267578125
27086, 3.994148015975952, 0.29333236813545227, 3.931389331817627, -0.0011344448430463672, -0.2566163241863251, 76.46317291259766, -0.0033144322223961353, -0.7280750274658203, 5.9853315353393555, -0.7902470827102661, -1.0800539255142212, 0.075452521443367, -0.5493319577986192, -1.0730565741918099, 5.891302928435199, 9362.0, 30146.0, 35388.0, 9362.0, 8.33057975769043, -0.7238346338272095, 0.005893127992749214, 3.7643613815307617, -0.10572920739650726, -0.01029940601438284, 1.0230659246444702, -0.036704204976558685, -0.030637741088867188, 1.493408203125, 1.468505859375, 0.13604736328125, 1.49267578125
27096, 3.99191951751709, 0.2936433255672455, 3.931466817855835, -0.0012013755040243268, -0.2713179588317871, 76.58291625976562, -0.00337787508033216, -0.7420885562896729, 5.9893107414245605, -0.7902455925941467, -1.0800622701644897, 0.07543697953224182, -0.5527606264041569, -1.066263016648179, 5.882799951634527, 9362.0, 30146.0, 35388.0, 9362.0, 8.33057975769043, 0.29206812381744385, 0.11220262944698334, -0.9719671010971069, -0.09594986587762833, -0.017495715990662575, 1.0230088233947754, -0.036704204976558685, -0.030637741088867188, 1.493408203125, 1.423095703125, 0.06591796875, 1.49267578125
27106, 3.9935357570648193, 0.29337310791015625, 3.922793388366699, -0.0012013755040243268, -0.2713179588317871, 76.58291625976562, -0.00337787508033216, -0.7420885562896729, 5.9893107414245605, -0.7902430295944214, -1.0800423622131348, 0.07545008510351181, -0.5495736313180825, -1.0745601209583526, 5.890467836555605, 9362.0, 30146.0, 35388.0, 9362.0, 8.33057975769043, -0.013606308028101921, 0.3028942346572876, -3.3552660942077637, -0.11824363470077515, -0.0004753575485665351, 1.0259593725204468, -0.036704204976558685, -0.030637741088867188, 1.493408203125, 1.44873046875, 0.102813720703125, 1.49267578125
27116, 3.991672992706299, 0.29203811287879944, 3.9037492275238037, -0.0012353184865787625, -0.27877384424209595, 76.642822265625, -0.0034117461182177067, -0.7490896582603455, 5.991264343261719, -0.7902505993843079, -1.080062747001648, 0.07541926205158234, -0.5514625278632691, -1.0664597887385412, 5.882586105802633, 9362.0, 30146.0, 35388.0, 9362.0, 8.33057975769043, 0.45114442706108093, 0.4633994698524475, 10.095659255981445, -0.09958179295063019, -0.006218725349754095, 1.0207536220550537, -0.036704204976558685, -0.030637741088867188, 1.493408203125, 1.423095703125, 0.06591796875, 1.494140625
27126, 3.9944705963134766, 0.2935672104358673, 3.9414005279541016, -0.0012696025660261512, -0.28629985451698303, 76.70274353027344, -0.0034474018029868603, -0.7561128735542297, 5.993495464324951, -0.7902231812477112, -1.0800402164459229, 0.07542424649000168, -0.5432273718302486, -1.0594985837824993, 5.8807356012384435, 9362.0, 30146.0, 35388.0, 9362.0, 8.33057975769043, -0.398112952709198, 0.5078094601631165, 1.558024525642395, -0.10725508630275726, -0.01388244703412056, 1.025578260421753, -0.036704204976558685, -0.030637741088867188, 1.493408203125, 1.45458984375, 0.11224365234375, 1.494140625
27136, 3.9927265644073486, 0.29106405377388, 3.9401659965515137, -0.001304243691265583, -0.293895959854126, 76.76268768310547, -0.003476390615105629, -0.7631059288978577, 5.9953413009643555, -0.7902452945709229, -1.08005952835083, 0.07543807476758957, -0.5477343997240388, -1.0659528580310962, 5.882252124003575, 9362.0, 30146.0, 35388.0, 9362.0, 8.33057975769043, -0.03301842510700226, -0.3098486661911011, -8.383159637451172, -0.09657719731330872, -0.008296361193060875, 1.0224270820617676, -0.036704204976558685, -0.030637741088867188, 1.493408203125, 1.43408203125, 0.080810546875, 1.49560546875
27146, 3.993140935897827, 0.2894510328769684, 3.9152798652648926, -0.001339163864031434, -0.3015621304512024, 76.8226547241211, -0.0035077177453786135, -0.7701271176338196, 5.997520446777344, -0.7902956604957581, -1.0800750255584717, 0.07536523044109344, -0.5374406644421216, -1.1040060545840333, 5.869105917329558, 9362.0, 30146.0, 35388.0, 9362.0, 8.33057975769043, 0.4103963077068329, -0.356675386428833, -4.37949275970459, -0.10611583292484283, -0.0027416052762418985, 1.0247266292572021, -0.05524299293756485, -0.12023735046386719, 1.486083984375, 1.5, 0.19561767578125, 1.49560546875
27186, 3.9931511878967285, 0.2905491292476654, 3.942439556121826, -0.001481747254729271, -0.33292824029922485, 77.0627212524414, -0.0036176934372633696, -0.7981756925582886, 6.005779266357422, -0.7902761101722717, -1.0800775289535522, 0.07535415887832642, -0.5388726622666246, -1.1103739338163052, 5.85565500612077, 9362.0, 30146.0, 35388.0, 9362.0, 8.33057975769043, -0.12400571256875992, -0.039999108761548996, 1.9886592626571655, -0.09839760512113571, -0.009228814393281937, 1.0248486995697021, -0.05524299293756485, -0.12023735046386719, 1.486083984375, 1.467041015625, 0.1334686279296875, 1.48974609375
27196, 3.9942073822021484, 0.2915090322494507, 3.9425902366638184, -0.001481747254729271, -0.33292824029922485, 77.0627212524414, -0.0036176934372633696, -0.7981756925582886, 6.005779266357422, -0.7902312874794006, -1.0800610780715942, 0.07544934004545212, -0.5541588563823928, -1.0761115695458443, 5.88266391014617, 9362.0, 30146.0, 35388.0, 9362.0, 8.33057975769043, 0.3684939444065094, -0.22749999165534973, -5.502717018127441, -0.09839760512113571, -0.009228814393281937, 1.0248486995697021, -0.05524299293756485, -0.12023735046386719, 1.486083984375, 1.44580078125, 0.098236083984375, 1.48974609375
27226, 3.9970269203186035, 0.29253682494163513, 3.9110872745513916, -0.001481747254729271, -0.33292824029922485, 77.0627212524414, -0.0036176934372633696, -0.7981756925582886, 6.005779266357422, -0.790245532989502, -1.0800719261169434, 0.07540054619312286, -0.5482160021628351, -1.074894155710723, 5.884164812689971, 9362.0, 30146.0, 35388.0, 9362.0, 8.33057975769043, -0.046926096081733704, 0.1340837925672531, 5.425791263580322, -0.11377118527889252, -0.007430986035615206, 1.0206276178359985, -0.05524299293756485, -0.12023735046386719, 1.486083984375, 1.496337890625, 0.1883087158203125, 1.48974609375
27236, 3.9979870319366455, 0.29361245036125183, 3.926237106323242, -0.001481747254729271, -0.33292824029922485, 77.0627212524414, -0.0036176934372633696, -0.7981756925582886, 6.005779266357422, -0.7902335524559021, -1.080055594444275, 0.07543636858463287, -0.5562085803050368, -1.0726083094239698, 5.87694123047209, 9362.0, 30146.0, 35388.0, 9362.0, 8.33057975769043, -0.5193504691123962, 0.24543093144893646, 6.640878200531006, -0.10297629237174988, -0.010120452381670475, 1.0221736431121826, -0.05524299293756485, -0.12023735046386719, 1.486083984375, 1.496337890625, 0.1883087158203125, 1.48974609375
27246, 3.9965744018554688, 0.2938975989818573, 3.9372448921203613, -0.001481747254729271, -0.33292824029922485, 77.0627212524414, -0.0036176934372633696, -0.7981756925582886, 6.005779266357422, -0.7902208566665649, -1.080045223236084, 0.07542632520198822, -0.543829151779711, -1.0586549673531067, 5.872957035857412, 9362.0, 30146.0, 35388.0, 9362.0, 8.33057975769043, -0.5193504691123962, 0.24543093144893646, 6.640878200531006, -0.10297629237174988, -0.010120452381670475, 1.0221736431121826, -0.06460791081190109, -0.11127853393554688, 1.48681640625, 1.496337890625, 0.1883087158203125, 1.48974609375
27256, 3.9949684143066406, 0.29551202058792114, 3.9342293739318848, -0.001481747254729271, -0.33292824029922485, 77.0627212524414, -0.0036176934372633696, -0.7981756925582886, 6.005779266357422, -0.7902414202690125, -1.0800610780715942, 0.07543966174125671, -0.5552427983013352, -1.0633260207474962, 5.878312649968354, 9362.0, 30146.0, 35388.0, 9362.0, 8.33057975769043, 0.3052917420864105, -0.3587031364440918, -6.356603622436523, -0.10297629237174988, -0.010120452381670475, 1.0221736431121826, -0.06460791081190109, -0.11127853393554688, 1.48681640625, 1.4091796875, 0.04937744140625, 1.48974609375
27276, 3.9967563152313232, 0.2945125102996826, 3.914344072341919, -0.001481747254729271, -0.33292824029922485, 77.0627212524414, -0.0036176934372633696, -0.7981756925582886, 6.005779266357422, -0.7902508974075317, -1.0800490379333496, 0.07542040199041367, -0.5485138828305566, -1.07796350586446, 5.881479613016383, 9362.0, 30146.0, 35388.0, 9362.0, 8.33057975769043, -0.1647820919752121, -0.39608094096183777, 2.6765408515930176, -0.10559014230966568, -0.01219423022121191, 1.0264009237289429, -0.06460791081190109, -0.11127853393554688, 1.48681640625, 1.4384765625, 0.0871429443359375, 1.48974609375
27286, 3.99578857421875, 0.29978081583976746, 3.9290809631347656, -0.001481747254729271, -0.33292824029922485, 77.0627212524414, -0.0036176934372633696, -0.7981756925582886, 6.005779266357422, -0.7902411222457886, -1.0800566673278809, 0.07543282955884933, -0.5460873582009064, -1.0742236560959668, 5.885276132735637, 9362.0, 30146.0, 35388.0, 9362.0, 8.33057975769043, -0.292218953371048, 0.19983623921871185, -3.022702932357788, -0.10753937065601349, 0.0017158326227217913, 1.023236870765686, -0.06460791081190109, -0.11127853393554688, 1.48681640625, 1.475830078125, 0.1492767333984375, 1.48974609375
27296, 3.995194673538208, 0.2981376051902771, 3.908142328262329, -0.001481747254729271, -0.33292824029922485, 77.0627212524414, -0.0036176934372633696, -0.7981756925582886, 6.005779266357422, -0.7902425527572632, -1.080058217048645, 0.07543011754751205, -0.5514353556613564, -1.075919699391818, 5.887122297186675, 9362.0, 30146.0, 35388.0, 9362.0, 8.33057975769043, -0.16874638199806213, -0.5050420761108398, 4.5643110275268555, -0.10753937065601349, 0.0017158326227217913, 1.023236870765686, -0.06460791081190109, -0.11127853393554688, 1.48681640625, 1.4677734375, 0.1347198486328125, 1.48974609375
27356, 3.9927000999450684, 0.3046629726886749, 3.9141178131103516, -0.002100636251270771, -0.46961480379104614, 78.02627563476562, -0.004190454725176096, -0.9104283452033997, 6.038975715637207, -0.7902607321739197, -1.0800544023513794, 0.07537819445133209, -0.5549031661975065, -1.061050894288229, 5.864742696968985, 9362.0, 30146.0, 35388.0, 9362.0, 8.33057975769043, -0.07169333100318909, 0.07041515409946442, 5.917221546173096, -0.11100707948207855, -0.005020026117563248, 1.0256929397583008, -0.06460791081190109, -0.11127853393554688, 1.48681640625, 1.4560546875, 0.1147003173828125, 1.496337890625
27366, 3.9923508167266846, 0.306471586227417, 3.9273834228515625, -0.002100636251270771, -0.46961480379104614, 78.02627563476562, -0.004190454725176096, -0.9104283452033997, 6.038975715637207, -0.790259599685669, -1.0800567865371704, 0.07537084072828293, -0.555889459105332, -1.065695352353032, 5.875676914967126, 9362.0, 30146.0, 35388.0, 9362.0, 8.33057975769043, -0.603742778301239, -0.1718275249004364, 4.821476459503174, -0.09940098226070404, -0.005275250878185034, 1.0262782573699951, -0.06460791081190109, -0.11127853393554688, 1.48681640625, 1.455322265625, 0.1134796142578125, 1.496337890625
27406, 3.99407958984375, 0.30652862787246704, 3.9058749675750732, -0.002361682476475835, -0.5255040526390076, 78.38899993896484, -0.004522895440459251, -0.9525591135025024, 6.0522637367248535, -0.7902706265449524, -1.0800623893737793, 0.0753803625702858, -0.5508804239251847, -1.0660850241057176, 5.87791047451245, 9362.0, 30146.0, 35388.0, 9362.0, 8.33057975769043, 0.077467180788517, 0.004616186488419771, 4.063198089599609, -0.1142200455069542, -0.006718613673001528, 1.0233677625656128, -0.06460791081190109, -0.11127853393554688, 1.48681640625, 1.4677734375, 0.1347198486328125, 1.496337890625
27436, 3.9936182498931885, 0.3057693839073181, 3.9346625804901123, -0.0024533369578421116, -0.5446956157684326, 78.51008605957031, -0.004639937076717615, -0.9665969610214233, 6.056555271148682, -0.7902569770812988, -1.080052375793457, 0.07537761330604553, -0.5533094726758325, -1.054932281543131, 5.867592821504644, 9362.0, 30146.0, 35388.0, 9362.0, 8.33057975769043, 0.2716807425022125, 0.16858616471290588, -3.1714587211608887, -0.09760916978120804, -0.008688285946846008, 1.0229449272155762, -0.06460791081190109, -0.11127853393554688, 1.48681640625, 1.486083984375, 0.16845703125, 1.496337890625
27446, 3.9945790767669678, 0.3046207129955292, 3.9251229763031006, -0.0024533369578421116, -0.5446956157684326, 78.51008605957031, -0.004639937076717615, -0.9665969610214233, 6.056555271148682, -0.7902674674987793, -1.0800613164901733, 0.07535870373249054, -0.5553622621953378, -1.0661665160041878, 5.872071571863161, 9362.0, 30146.0, 35388.0, 9362.0, 8.33057975769043, 0.2716807425022125, 0.16858616471290588, -3.1714587211608887, -0.09760916978120804, -0.008688285946846008, 1.0229449272155762, -0.06460791081190109, -0.11127853393554688, 1.48681640625, 1.46484375, 0.1295928955078125, 1.496337890625
27456, 3.9942710399627686, 0.3023304045200348, 3.9110796451568604, -0.0024533369578421116, -0.5446956157684326, 78.51008605957031, -0.004639937076717615, -0.9665969610214233, 6.056555271148682, -0.7902628183364868, -1.0800551176071167, 0.07538055628538132, -0.5556996210714449, -1.061438171870492, 5.862859873483203, 9362.0, 30146.0, 35388.0, 9362.0, 8.33057975769043, 0.24950246512889862, -0.019755691289901733, -1.8365304470062256, -0.09760916978120804, -0.008688285946846008, 1.0229449272155762, -0.06460791081190109, -0.11127853393554688, 1.48681640625, 1.497802734375, 0.19122314453125, 1.496337890625
27466, 3.995840072631836, 0.3019999861717224, 3.912858009338379, -0.0024533369578421116, -0.5446956157684326, 78.51008605957031, -0.004639937076717615, -0.9665969610214233, 6.056555271148682, -0.7902419567108154, -1.0800607204437256, 0.07542484998703003, -0.5548436199980737, -1.0659170315278175, 5.8747176869620965, 9362.0, 30146.0, 35388.0, 9362.0, 8.33057975769043, -0.19468194246292114, 0.07253438234329224, 2.8467628955841064, -0.10790330916643143, -0.00617252429947257, 1.0232332944869995, -0.06460791081190109, -0.11127853393554688, 1.48681640625, 1.482421875, 0.161529541015625, 1.496337890625
27476, 3.9948582649230957, 0.30194681882858276, 3.9217915534973145, -0.0024533369578421116, -0.5446956157684326, 78.51008605957031, -0.004639937076717615, -0.9665969610214233, 6.056555271148682, -0.7902740240097046, -1.0800598859786987, 0.07536250352859497, -0.5514435685491827, -1.0663138684375895, 5.8709021444538605, 9362.0, 30146.0, 35388.0, 9362.0, 8.33057975769043, -0.26232510805130005, -0.12154804915189743, 0.988200306892395, -0.10576976835727692, -0.005454183090478182, 1.0232200622558594, -0.06460791081190109, -0.11127853393554688, 1.48681640625, 1.461181640625, 0.1233062744140625, 1.496337890625
27486, 3.9947195053100586, 0.30259251594543457, 3.918140411376953, -0.0024533369578421116, -0.5446956157684326, 78.51008605957031, -0.004639937076717615, -0.9665969610214233, 6.056555271148682, -0.7902364134788513, -1.0800564289093018, 0.07539236545562744, -0.5568609657057689, -1.0638263635262604, 5.882960914846742, 9362.0, 30146.0, 35388.0, 9362.0, 8.33057975769043, -0.009890870191156864, 0.0024196964222937822, 0.6488019227981567, -0.10034617781639099, -0.009134497493505478, 1.0224041938781738, -0.06460791081190109, -0.11127853393554688, 1.48681640625, 1.483154296875, 0.162841796875, 1.496337890625
27496, 3.9952714443206787, 0.30205512046813965, 3.9198200702667236, -0.0024533369578421116, -0.5446956157684326, 78.51008605957031, -0.004639937076717615, -0.9665969610214233, 6.056555271148682, -0.7902612686157227, -1.0800557136535645, 0.07538460195064545, -0.553360796517729, -1.0590740461671828, 5.864459256367526, 9362.0, 30146.0, 35388.0, 9362.0, 8.33057975769043, 0.13731376826763153, -0.12789276242256165, -0.7508984804153442, -0.10034617781639099, -0.009134497493505478, 1.0224041938781738, -0.06460791081190109, -0.11127853393554688, 1.48681640625, 1.4853515625, 0.1669921875, 1.496337890625
27536, 3.996263265609741, 0.3053775131702423, 3.9144392013549805, -0.002943787258118391, -0.6448636651039124, 79.1167984008789, -0.005153411068022251, -1.0367485284805298, 6.077237606048584, -0.7902687788009644, -1.0800535678863525, 0.07537227869033813, -0.5537203166995083, -1.0560918244961215, 5.87412777202968, 9362.0, 30146.0, 35388.0, 9362.0, 8.33057975769043, -0.13536201417446136, 0.020265094935894012, 0.4408515989780426, -0.10681755095720291, -0.006577138788998127, 1.0231451988220215, -0.06460791081190109, -0.11127853393554688, 1.48681640625, 1.453125, 0.1099090576171875, 1.48974609375
27556, 3.9952733516693115, 0.303952693939209, 3.9155116081237793, -0.002943787258118391, -0.6448636651039124, 79.1167984008789, -0.005153411068022251, -1.0367485284805298, 6.077237606048584, -0.790224552154541, -1.0800654888153076, 0.07538605481386185, -0.543981701256604, -1.0770829058685933, 5.856149297666402, 9362.0, 30146.0, 35388.0, 9362.0, 8.350414276123047, 0.20551693439483643, 0.01744788885116577, -0.01676623336970806, -0.10416407138109207, -0.006228978279978037, 1.022296667098999, -0.06460791081190109, -0.11127853393554688, 1.48681640625, 1.461181640625, 0.1233062744140625, 1.494873046875
27586, 3.9953997135162354, 0.30037111043930054, 3.915414810180664, -0.002943787258118391, -0.6448636651039124, 79.1167984008789, -0.005153411068022251, -1.0367485284805298, 6.077237606048584, -0.7902638912200928, -1.0800533294677734, 0.07538559287786484, -0.5480741734611737, -1.057750788226059, 5.877383210932784, 9362.0, 30146.0, 35388.0, 9362.0, 8.350414276123047, 0.06075786426663399, -0.06983933597803116, -0.07950398325920105, -0.1021856814622879, -0.006365899462252855, 1.0229748487472534, -0.06460791081190109, -0.11127853393554688, 1.48681640625, 1.477294921875, 0.1519775390625, 1.496337890625
27596, 3.9959447383880615, 0.3004264533519745, 3.9152653217315674, -0.002943787258118391, -0.6448636651039124, 79.1167984008789, -0.005153411068022251, -1.0367485284805298, 6.077237606048584, -0.7902548909187317, -1.080053448677063, 0.07537854462862015, -0.5503555666147409, -1.0613580389818082, 5.879366627150269, 9362.0, 30146.0, 35388.0, 9362.0, 8.350414276123047, 0.048178113996982574, -0.07109129428863525, -0.06006300821900368, -0.1021856814622879, -0.006365899462252855, 1.0229748487472534, -0.06460791081190109, -0.11127853393554688, 1.48681640625, 1.44287109375, 0.0936279296875, 1.496337890625
27606, 3.9960007667541504, 0.30097028613090515, 3.9164600372314453, -0.002943787258118391, -0.6448636651039124, 79.1167984008789, -0.005153411068022251, -1.0367485284805298, 6.077237606048584, -0.790260910987854, -1.0800539255142212, 0.07534981518983841, -0.549944722984665, -1.0566328224809354, 5.867893452419016, 9362.0, 30146.0, 35388.0, 9362.0, 8.350414276123047, 0.0012371877674013376, -0.3060705363750458, 0.24619600176811218, -0.1021856814622879, -0.006365899462252855, 1.0229748487472534, -0.06460791081190109, -0.11127853393554688, 1.48681640625, 1.44287109375, 0.0936279296875, 1.496337890625
27616, 3.996189832687378, 0.3026306629180908, 3.918989419937134, -0.0034289248287677765, -0.7410140037536621, 79.66460418701172, -0.005614689085632563, -1.0999162197113037, 6.096079349517822, -0.7902517914772034, -1.0800474882125854, 0.07537257671356201, -0.5526044073645066, -1.0602102685812156, 5.871136874408662, 9362.0, 30146.0, 35388.0, 9362.0, 8.350414276123047, 0.0012371877674013376, -0.3060705363750458, 0.24619600176811218, -0.1021856814622879, -0.006365899462252855, 1.0229748487472534, -0.06460791081190109, -0.11127853393554688, 1.48681640625, 1.50439453125, 0.2044219970703125, 1.496337890625
27626, 3.996678113937378, 0.29896920919418335, 3.9216907024383545, -0.0034289248287677765, -0.7410140037536621, 79.66460418701172, -0.005614689085632563, -1.0999162197113037, 6.096079349517822, -0.7902215719223022, -1.080049753189087, 0.07537536323070526, -0.5395509220722432, -1.0822128854153164, 5.860418479234078, 9362.0, 30146.0, 35388.0, 9362.0, 8.350414276123047, 0.0012371877674013376, -0.3060705363750458, 0.24619600176811218, -0.10720247775316238, -0.0068087405525147915, 1.024525761604309, -0.06460791081190109, -0.11127853393554688, 1.48681640625, 1.5029296875, 0.201446533203125, 1.496337890625
27656, 3.9960920810699463, 0.30239665508270264, 3.923619508743286, -0.0034289248287677765, -0.7410140037536621, 79.66460418701172, -0.005614689085632563, -1.0999162197113037, 6.096079349517822, -0.7902641296386719, -1.0800459384918213, 0.07537157833576202, -0.5512330678613141, -1.0586616450397628, 5.877165906529628, 9362.0, 30146.0, 35388.0, 9362.0, 8.350414276123047, 0.04682142660021782, -0.5590481758117676, 0.10332585871219635, -0.10235952585935593, -0.007905322127044201, 1.0228800773620605, -0.06460791081190109, -0.11127853393554688, 1.48681640625, 1.475830078125, 0.1492767333984375, 1.48974609375
27666, 3.995596408843994, 0.30776938796043396, 3.9231860637664795, -0.0034289248287677765, -0.7410140037536621, 79.66460418701172, -0.005614689085632563, -1.0999162197113037, 6.096079349517822, -0.79022216796875, -1.0800553560256958, 0.07537689805030823, -0.5412292105934002, -1.0839177577715873, 5.858113872402327, 9362.0, 30146.0, 35388.0, 9362.0, 8.350414276123047, 0.037905625998973846, 0.21666866540908813, 0.15950685739517212, -0.10235952585935593, -0.007905322127044201, 1.0228800773620605, -0.06460791081190109, -0.11127853393554688, 1.48681640625, 1.46630859375, 0.132171630859375, 1.48974609375
27686, 3.995358943939209, 0.30818888545036316, 3.9242000579833984, -0.0034289248287677765, -0.7410140037536621, 79.66460418701172, -0.005614689085632563, -1.0999162197113037, 6.096079349517822, -0.790241539478302, -1.0800491571426392, 0.07535573840141296, -0.5496030009121056, -1.0465999566303594, 5.869074639509328, 9362.0, 30146.0, 35388.0, 9362.0, 8.350414276123047, 0.10504315793514252, -0.4373774826526642, -0.276312917470932, -0.10620854794979095, -0.0069088260643184185, 1.0270333290100098, -0.06460791081190109, -0.11127853393554688, 1.48681640625, 1.45751953125, 0.117095947265625, 1.48974609375
27716, 3.9960694313049316, 0.3051798939704895, 3.9235358238220215, -0.003953634295612574, -0.8428503274917603, 80.21411895751953, -0.006069120950996876, -1.1631004810333252, 6.115137100219727, -0.7902532815933228, -1.080058217048645, 0.07534222304821014, -0.5501489434429511, -1.0666898321467784, 5.873841489912682, 9362.0, 30146.0, 35388.0, 9362.0, 8.350414276123047, -0.025415878742933273, 0.03786180168390274, -0.4458850622177124, -0.1042817085981369, -0.009871062822639942, 1.0237082242965698, -0.06460791081190109, -0.11127853393554688, 1.48681640625, 1.45166015625, 0.107452392578125, 1.494140625
27726, 3.995504140853882, 0.30519044399261475, 3.9200053215026855, -0.004076245240867138, -0.8662531971931458, 80.33647155761719, -0.006189118605107069, -1.1771795749664307, 6.119881629943848, -0.7902581691741943, -1.0800373554229736, 0.07534267753362656, -0.5512715997899835, -1.064730990211558, 5.879573435698375, 9362.0, 30146.0, 35388.0, 9362.0, 8.350414276123047, -0.09798680990934372, 0.04820947349071503, -0.2948850393295288, -0.10499279201030731, -0.007426005322486162, 1.0236971378326416, -0.06460791081190109, -0.11127853393554688, 1.48681640625, 1.505126953125, 0.205902099609375, 1.494140625
27736, 3.9957141876220703, 0.30485090613365173, 3.917332649230957, -0.004076245240867138, -0.8662531971931458, 80.33647155761719, -0.006189118605107069, -1.1771795749664307, 6.119881629943848, -0.7902108430862427, -1.0800509452819824, 0.07537496089935303, -0.545700041181519, -1.083898909075259, 5.862549067033039, 9362.0, 30146.0, 35388.0, 9362.0, 8.350414276123047, 0.15613648295402527, 0.5711032152175903, -0.20007982850074768, -0.10664760321378708, -0.0060535999946296215, 1.0248371362686157, -0.06460791081190109, -0.11127853393554688, 1.48681640625, 1.505126953125, 0.205902099609375, 1.494140625
27746, 3.997795820236206, 0.30145376920700073, 3.9155256748199463, -0.004076245240867138, -0.8662531971931458, 80.33647155761719, -0.006189118605107069, -1.1771795749664307, 6.119881629943848, -0.7902638912200928, -1.0800403356552124, 0.07536333054304123, -0.5522100679535562, -1.0631500399082086, 5.871370766841475, 9362.0, 30146.0, 35388.0, 9362.0, 8.33057975769043, 0.12889698147773743, 0.0963321104645729, 0.03641555830836296, -0.10664760321378708, -0.0060535999946296215, 1.0248371362686157, -0.06460791081190109, -0.11127853393554688, 1.48681640625, 1.487548828125, 0.1712188720703125, 1.494140625
27756, 3.9986355304718018, 0.3012259900569916, 3.9150547981262207, -0.004076245240867138, -0.8662531971931458, 80.33647155761719, -0.006189118605107069, -1.1771795749664307, 6.119881629943848, -0.7902685403823853, -1.0800538063049316, 0.075354665517807, -0.5535400581272297, -1.0655463775958083, 5.880183646741931, 9362.0, 30146.0, 35388.0, 9362.0, 8.33057975769043, 0.11202212423086166, 0.36374786496162415, -0.12484395503997803, -0.10293946415185928, -0.007736540399491787, 1.022666573524475, -0.06460791081190109, -0.11127853393554688, 1.48681640625, 1.513916015625, 0.224029541015625, 1.494140625
27766, 3.9992918968200684, 0.2987789809703827, 3.9136199951171875, -0.004076245240867138, -0.8662531971931458, 80.33647155761719, -0.006189118605107069, -1.1771795749664307, 6.119881629943848, -0.7902132868766785, -1.0800362825393677, 0.07540658861398697, -0.5491619975139567, -1.0646383911321493, 5.888172621282616, 9362.0, 30146.0, 35388.0, 9362.0, 8.33057975769043, -0.0901091992855072, 0.48328548669815063, -0.08258384466171265, -0.10417116433382034, -0.007306583225727081, 1.0238618850708008, -0.06460791081190109, -0.11127853393554688, 1.48681640625, 1.44873046875, 0.102813720703125, 1.494140625
27776, 3.998821496963501, 0.2954593598842621, 3.912601947784424, -0.004076245240867138, -0.8662531971931458, 80.33647155761719, -0.006189118605107069, -1.1771795749664307, 6.119881629943848, -0.7902197241783142, -1.08005952835083, 0.07537919282913208, -0.544068619595986, -1.0884561134266448, 5.858459526734925, 9362.0, 30146.0, 35388.0, 9362.0, 8.33057975769043, 0.18294942378997803, -0.22106842696666718, -0.11876852065324783, -0.10222964733839035, -0.00587271386757493, 1.0226011276245117, -0.06460791081190109, -0.11127853393554688, 1.48681640625, 1.4853515625, 0.1669921875, 1.49267578125
27786, 3.999603509902954, 0.2954849600791931, 3.9110450744628906, -0.004076245240867138, -0.8662531971931458, 80.33647155761719, -0.006189118605107069, -1.1771795749664307, 6.119881629943848, -0.7902212738990784, -1.0800515413284302, 0.07538048923015594, -0.5398484334830013, -1.0667477200896656, 5.857341356504915, 9362.0, 30146.0, 35388.0, 9362.0, 8.33057975769043, -0.03564704209566116, 0.11510384827852249, 0.17119614779949188, -0.10209627449512482, -0.007716736290603876, 1.0225465297698975, -0.06460791081190109, -0.11127853393554688, 1.48681640625, 1.5322265625, 0.2628021240234375, 1.49267578125
27816, 3.9994959831237793, 0.29488807916641235, 3.910971164703369, -0.004587551578879356, -0.9626746773719788, 80.82673645019531, -0.0065648797899484634, -1.233346700668335, 6.136527061462402, -0.7902742028236389, -1.0800495147705078, 0.07536165416240692, -0.5525267341840717, -1.060660708872831, 5.873635206795559, 9362.0, 30146.0, 35388.0, 9362.0, 8.33057975769043, 0.025324886664748192, 0.26366671919822693, -0.19419418275356293, -0.1053171381354332, -0.008629873394966125, 1.0246028900146484, -0.06460791081190109, -0.11127853393554688, 1.48681640625, 1.4736328125, 0.1452178955078125, 1.4970703125
27846, 4.000533580780029, 0.29424935579299927, 3.909395694732666, -0.00485300412401557, -1.0125706195831299, 81.0723648071289, -0.006707068998366594, -1.2614449262619019, 6.14493989944458, -0.7902652621269226, -1.0800549983978271, 0.07537272572517395, -0.5560955999606473, -1.057070565263757, 5.8664037468007955, 9362.0, 30146.0, 35388.0, 9362.0, 8.33057975769043, 0.043535780161619186, -0.09849327802658081, -0.07703524827957153, -0.10399918258190155, -0.007563220802694559, 1.0238639116287231, -0.07916294783353806, -0.3083972930908203, 1.470703125, 1.494873046875, 0.185455322265625, 1.4970703125
27856, 4.001870155334473, 0.2953605353832245, 3.9090092182159424, -0.00485300412401557, -1.0125706195831299, 81.0723648071289, -0.006707068998366594, -1.2614449262619019, 6.14493989944458, -0.7902695536613464, -1.0800553560256958, 0.07537239789962769, -0.5524614920740369, -1.0578337925796006, 5.873940888725699, 9362.0, 30146.0, 35388.0, 9362.0, 8.33057975769043, 0.029726041480898857, -0.06715381145477295, -0.06980087608098984, -0.10803186148405075, -0.010123465210199356, 1.0229343175888062, -0.07916294783353806, -0.3083972930908203, 1.470703125, 1.470703125, 0.1399383544921875, 1.4970703125
27876, 4.001715183258057, 0.2959167957305908, 3.911302089691162, -0.004987859167158604, -1.0379400253295898, 81.19530487060547, -0.006778497248888016, -1.2754939794540405, 6.149103164672852, -0.7902719974517822, -1.0800520181655884, 0.07537409663200378, -0.5572634838830203, -1.0589056975038034, 5.865715429839442, 9362.0, 30146.0, 35388.0, 9362.0, 8.33057975769043, -0.2072124183177948, -0.11279624700546265, 0.1288333237171173, -0.10522528737783432, -0.007764128968119621, 1.0240248441696167, -0.07916294783353806, -0.3083972930908203, 1.470703125, 1.468505859375, 0.13604736328125, 1.4970703125
27926, 3.997267723083496, 0.29875069856643677, 3.9174373149871826, -0.005401376634836197, -1.1157341003417969, 81.56462097167969, -0.007007593754678965, -1.317636251449585, 6.161385536193848, -0.79027259349823, -1.0800538063049316, 0.07538452744483948, -0.5524573153020121, -1.0610905288315564, 5.867152467379474, 9362.0, 30146.0, 35388.0, 9362.0, 8.33057975769043, -0.1288660168647766, 0.13694728910923004, 0.3438178300857544, -0.10285139083862305, -0.0062696863897144794, 1.0251357555389404, -0.07916294783353806, -0.3083972930908203, 1.470703125, 1.5234375, 0.2439727783203125, 1.4912109375
27936, 3.9973411560058594, 0.2994822859764099, 3.918938159942627, -0.005401376634836197, -1.1157341003417969, 81.56462097167969, -0.007007593754678965, -1.317636251449585, 6.161385536193848, -0.790241003036499, -1.0800420045852661, 0.07541704177856445, -0.5571026098018594, -1.066068449576818, 5.875924001517347, 9362.0, 30146.0, 35388.0, 9362.0, 8.33057975769043, -0.01240350678563118, 0.22743380069732666, 0.031219959259033203, -0.1040104478597641, -0.006179310847073793, 1.0252490043640137, -0.07916294783353806, -0.3083972930908203, 1.470703125, 1.5234375, 0.2439727783203125, 1.4912109375
27956, 3.997581958770752, 0.2994619309902191, 3.91853404045105, -0.005401376634836197, -1.1157341003417969, 81.56462097167969, -0.007007593754678965, -1.317636251449585, 6.161385536193848, -0.7902508974075317, -1.0800492763519287, 0.07538075745105743, -0.5472205781162583, -1.0505948202174977, 5.868822738091169, 9362.0, 30146.0, 35388.0, 9362.0, 8.33057975769043, -0.34104785323143005, -0.11557797342538834, -0.05413873493671417, -0.10753867775201797, -0.006557002197951078, 1.0247259140014648, -0.07916294783353806, -0.3083972930908203, 1.470703125, 1.5234375, 0.2439727783203125, 1.49560546875
27976, 3.9960057735443115, 0.30348268151283264, 3.919088363647461, -0.005684967618435621, -1.1690011024475098, 81.81124877929688, -0.0071760062128305435, -1.3457329273223877, 6.169895172119141, -0.7902526259422302, -1.0800436735153198, 0.07537420094013214, -0.5538677836606661, -1.0613791934926837, 5.865256668795931, 9362.0, 30146.0, 35388.0, 9362.0, 8.33057975769043, -0.14344961941242218, -0.09749578684568405, 0.028931068256497383, -0.1055624932050705, -0.008164836093783379, 1.0224634408950806, -0.07916294783353806, -0.3083972930908203, 1.470703125, 1.497802734375, 0.19122314453125, 1.494873046875
28016, 3.9947237968444824, 0.30225223302841187, 3.9200785160064697, -0.005975769832730293, -1.223392128944397, 82.05821228027344, -0.007371290121227503, -1.3738094568252563, 6.17826509475708, -0.7902172803878784, -1.0800570249557495, 0.07539033144712448, -0.5509072800304409, -1.083137981603528, 5.85025052373043, 9362.0, 30146.0, 35388.0, 9362.0, 8.33057975769043, 0.11263938248157501, -0.021820206195116043, -0.017652075737714767, -0.10582627356052399, -0.0082179494202137, 1.0239489078521729, -0.07916294783353806, -0.3083972930908203, 1.470703125, 1.46484375, 0.1295928955078125, 1.48828125
28026, 3.993889808654785, 0.3041926622390747, 3.9197604656219482, -0.00612421752884984, -1.2510087490081787, 82.18181610107422, -0.007473347708582878, -1.3878625631332397, 6.18269157409668, -0.7902185320854187, -1.0800670385360718, 0.07540005445480347, -0.5492294865948937, -1.0807923332832559, 5.851598800989605, 9362.0, 30146.0, 35388.0, 9362.0, 8.33057975769043, 0.0546184740960598, -0.19079415500164032, 0.04458535090088844, -0.10548925399780273, -0.0065670376643538475, 1.023010015487671, -0.07916294783353806, -0.3083972930908203, 1.470703125, 1.4677734375, 0.1347198486328125, 1.48828125
28066, 3.9953436851501465, 0.3044147789478302, 3.920757293701172, -0.0064272768795490265, -1.307084321975708, 82.42928314208984, -0.007683176081627607, -1.4159022569656372, 6.190698623657227, -0.790224015712738, -1.0800554752349854, 0.07538294792175293, -0.5446466328631088, -1.0896208834365382, 5.85696416825888, 9362.0, 30146.0, 35388.0, 9362.0, 8.33057975769043, -0.11531463265419006, -0.37794098258018494, -0.00444237282499671, -0.10237867385149002, -0.0048887599259614944, 1.0233198404312134, -0.07916294783353806, -0.3083972930908203, 1.470703125, 1.5, 0.19561767578125, 1.493408203125
28076, 3.994093418121338, 0.3075319826602936, 3.921699285507202, -0.0064272768795490265, -1.307084321975708, 82.42928314208984, -0.007683176081627607, -1.4159022569656372, 6.190698623657227, -0.7902118563652039, -1.0800575017929077, 0.07538158446550369, -0.5478397105133965, -1.0827594788068495, 5.854005855534953, 9362.0, 30146.0, 35388.0, 9362.0, 8.33057975769043, 0.09935213625431061, 0.35359880328178406, 0.14476466178894043, -0.10570140182971954, -0.006299577187746763, 1.0241097211837769, -0.07916294783353806, -0.3083972930908203, 1.470703125, 1.446533203125, 0.09930419921875, 1.493408203125
