timeTick, roll, pitch, yaw, stateX, stateY, stateZ, stateVX, stateVY, stateVZ, otX0, otY0, otZ0, otRoll0, otPitch0, otYaw0, left wing, pitch motor, yaw motor, right wing, voltage, roll rate, pitch rate, yaw rate, A_x, A_y, A_z, current, i_raw, v_raw, airflow_voltage, airflow_speed, pot_Pitch, voltage_nKF, kFFx, volt_KF_vel, kP, volt_KF_pos
31768, 4.921800136566162, -9.65841007232666, -1.765137791633606, 0, 0, 0, 0, 0, 0, -0.7961453199386597, -0.9589746594429016, 0.06285127252340317, -0.29726884863669834, 0.3571447299447357, 0.0754085309536233, 0, 0, 0, 0, 0, 0, 0, 0, 0, 0, 0, 0, 0, 0, 0, 0, 0, 0, 0, 0, 0, 0
31778, 4.922069549560547, -9.658781051635742, -1.763992428779602, -0.0006869153585284948, 0.0003798188699875027, -4.622276782989502, -0.01828281581401825, 0.010110334493219852, -0.3054353892803192, -0.7961755990982056, -0.9589869379997253, 0.06283153593540192, -0.30032915385324227, 0.3721574378804178, 0.0664683794765698, 9362.0, 30146.0, 35388.0, 9362.0, 0, 0.05641569569706917, 0.19576598703861237, 0.16138054430484772, 0.007076798472553492, -0.058948419988155365, 0.9971116781234741, 0, 0, 0, 0, 0, 0, 0, 0, 0, 0, 0
31788, 4.923088073730469, -9.659689903259277, -1.7614097595214844, -0.000789235346019268, 0.0004364146734587848, -4.625340938568115, -0.002181020565330982, 0.001209148787893355, -0.30735719203948975, -0.7961419820785522, -0.9590128660202026, 0.0628504678606987, -0.2513630100594002, 0.33169329725959074, 0.06687511398594603, 9362.0, 30146.0, 35388.0, 9362.0, 0, -0.10395015776157379, -0.11727265268564224, 0.025475699454545975, 0.005496220197528601, -0.05871140956878662, 0.996083676815033, 0, 0, 0, 1.453857421875, 0.1110687255859375, 0, 1.48388671875, 10.0, 1.4151984453201294, 1.5, 1.4151984453201294
31798, 4.922811985015869, -9.659178733825684, -1.7593159675598145, -0.0007306195911951363, 0.00040404548053629696, -4.628424644470215, 0.013904517516493797, -0.007682274095714092, -0.3093823194503784, -0.7961704730987549, -0.958954930305481, 0.06283402442932129, -0.29038142722208043, 0.35435318916708525, 0.0716880772595698, 9362.0, 30146.0, 35388.0, 9362.0, 0, -0.10620371997356415, 0.16918842494487762, 0.23270626366138458, 0.006223947275429964, -0.061885349452495575, 0.9955348372459412, 0, 0, 0, 1.578369140625, 0.3665008544921875, 1.48974609375, 1.238525390625, 10.0, 1.4146406650543213, 1.5, 1.4146406650543213
31808, 4.921651840209961, -9.658947944641113, -1.7585798501968384, -0.0005112237995490432, 0.000282803550362587, -4.631529331207275, 0.029975002631545067, -0.016565527766942978, -0.3115082085132599, -0.7961391806602478, -0.959023654460907, 0.06288468092679977, -0.2642160767532789, 0.33861792674269964, 0.06597248082277316, 9362.0, 30146.0, 35388.0, 9362.0, 0, 0.16616129875183105, -0.24484528601169586, -0.28699547052383423, 0.005189694929867983, -0.06097928062081337, 0.9974665641784668, 0, 0, 0, 1.22021484375, 0.2799530029296875, 1.48974609375, 1.385009765625, 10.0, 1.414547085762024, 1.5, 1.414547085762024
31818, 4.922554969787598, -9.658245086669922, -1.7595009803771973, -0.00013111825683154166, 7.273039955180138e-05, -4.634654998779297, 0.046046242117881775, -0.025448884814977646, -0.3136250078678131, -0.79617840051651, -0.9589661359786987, 0.0628264993429184, -0.29286777304645817, 0.37126326757606876, 0.06598686562020847, 9362.0, 30146.0, 35388.0, 9362.0, 0, -0.07983806729316711, 0.19132326543331146, 0.05569295212626457, 0.005542318802326918, -0.060694582760334015, 0.9986369609832764, 0, 0, 0, 1.452392578125, 0.10870361328125, 1.48681640625, 1.5791015625, 10.0, 1.4150665998458862, 1.5, 1.4150665998458862
31828, 4.922842502593994, -9.660006523132324, -1.7588483095169067, 0.00040980285848490894, -0.00022622292453888804, -4.637801170349121, 0.062137849628925323, -0.03434205427765846, -0.3156174421310425, -0.7961538434028625, -0.9589550495147705, 0.06284885108470917, -0.2924111977987547, 0.3681543662000877, 0.07777983496607667, 9362.0, 30146.0, 35388.0, 9362.0, 0, 0.20377284288406372, 0.15424790978431702, 0.20238132774829865, 0.0061040217988193035, -0.061397016048431396, 0.9996944069862366, 0, 0, 0, 1.37841796875, 0.023406982421875, 1.48681640625, 1.2919921875, 10.0, 1.4146779775619507, 1.5, 1.4146779775619507
31838, 4.92291784286499, -9.659285545349121, -1.757218837738037, 0.0011117503745481372, -0.0006141815683804452, -4.640966415405273, 0.0782516822218895, -0.04324950650334358, -0.3174702823162079, -0.7961357235908508, -0.9590290188789368, 0.06288465112447739, -0.26792271739149226, 0.33499560504716897, 0.06621758898202307, 9362.0, 30146.0, 35388.0, 9362.0, 0, -0.14594687521457672, 0.18928790092468262, 0.18075142800807953, 0.006470642518252134, -0.06146184355020523, 0.9989689588546753, 0, 0, 0, 1.13818359375, 0.8482208251953125, 1.4912109375, 1.5703125, 10.0, 1.415169358253479, 1.5, 1.415169358253479
31848, 4.922347545623779, -9.660394668579102, -1.7554738521575928, 0.0019749056082218885, -0.0010912466095760465, -4.644150257110596, 0.09437964111566544, -0.05216304957866669, -0.3192581832408905, -0.7961723804473877, -0.9589831829071045, 0.06282934546470642, -0.2923297193798399, 0.369168788751864, 0.07638838315175725, 9362.0, 30146.0, 35388.0, 9362.0, 0, -0.14623911678791046, 0.09075170755386353, 0.11153258383274078, 0.006510838866233826, -0.06040587276220322, 0.9981522560119629, 0, 0, 0, 1.094970703125, 1.3307952880859375, 1.4912109375, 1.573974609375, 10.0, 1.4156707525253296, 1.5, 1.4156707525253296
31858, 4.922226905822754, -9.662310600280762, -1.7547208070755005, 0.0029992745257914066, -0.0016574114561080933, -4.64735221862793, 0.11049439013004303, -0.061069440096616745, -0.32111936807632446, -0.7961287498474121, -0.9589672088623047, 0.06288820505142212, -0.2894216896225934, 0.34216449533471405, 0.0738669151583844, 9362.0, 30146.0, 35388.0, 9362.0, 0, -0.1821286976337433, 0.17407651245594025, 0.26049578189849854, 0.005041048862040043, -0.06094062700867653, 0.997365415096283, 0, 0, 0, 1.241455078125, 0.192626953125, 1.487548828125, 1.532958984375, 10.0, 1.4160410165786743, 1.5, 1.4160410165786743
31868, 4.922065258026123, -9.66479206085205, -1.7514413595199585, 0.004184744320809841, -0.002312601776793599, -4.650573253631592, 0.12659965455532074, -0.06996838003396988, -0.3230493664741516, -0.7961341738700867, -0.9590052366256714, 0.06286151707172394, -0.25637418939067574, 0.34539933859036864, 0.07132391126398231, 9362.0, 30146.0, 35388.0, 9362.0, 8.152067184448242, 0.09255054593086243, 0.2019370049238205, 0.20463557541370392, 0.005493649747222662, -0.05833772197365761, 0.9966352581977844, -0.0754624754190445, 0.05000114440917969, 1.5, 1.509521484375, 0.2148895263671875, 1.487548828125, 1.54248046875, 10.0, 1.4164402484893799, 1.5, 1.4164402484893799
31878, 4.922602653503418, -9.664253234863281, -1.7514667510986328, 0.005531209986656904, -0.003056738991290331, -4.65381383895874, 0.1426939219236374, -0.0788581594824791, -0.32506805658340454, -0.7961564660072327, -0.9590352773666382, 0.06288429349660873, -0.26331285572116386, 0.3489356059465081, 0.07661102037365716, 9362.0, 30146.0, 35388.0, 9362.0, 8.152067184448242, -0.005926160607486963, -0.03822429105639458, 0.005294101778417826, 0.0050461324863135815, -0.06010165065526962, 0.9996869564056396, -0.0754624754190445, 0.05000114440917969, 1.5, 1.439208984375, 0.0882415771484375, 1.49267578125, 1.57470703125, 10.0, 1.4169399738311768, 1.5, 1.4169399738311768
31888, 4.921931266784668, -9.662606239318848, -1.7511911392211914, 0.007038651034235954, -0.0038897739723324776, -4.657074451446533, 0.15879429876804352, -0.08774883300065994, -0.3270755708217621, -0.7961500883102417, -0.9590216279029846, 0.06286155432462692, -0.26076248702022853, 0.35520151450347726, 0.07851786388732432, 9362.0, 30146.0, 35388.0, 9362.0, 8.152067184448242, 0.07414007931947708, -0.05165166035294533, 0.009560472331941128, 0.00668017752468586, -0.059381116181612015, 0.9985532760620117, -0.0754624754190445, 0.05000114440917969, 1.5, 1.376220703125, 0.0222930908203125, 1.49267578125, 1.55419921875, 10.0, 1.4173732995986938, 1.5, 1.4173732995986938
31898, 4.922104835510254, -9.661749839782715, -1.7515366077423096, 0.008707286790013313, -0.004811828024685383, -4.660354137420654, 0.17493286728858948, -0.09666185081005096, -0.3288494050502777, -0.7961422801017761, -0.9589779376983643, 0.0628429427742958, -0.28520852721849776, 0.34023389297027506, 0.07191417032216982, 9362.0, 30146.0, 35388.0, 9362.0, 8.152067184448242, 0.015867283567786217, 0.07300934940576553, -0.33936265110969543, 0.007778850384056568, -0.05953333526849747, 0.9969646334648132, -0.0754624754190445, 0.05000114440917969, 1.5, 1.489013671875, 0.174041748046875, 1.491943359375, 1.626708984375, 10.0, 1.4180341958999634, 1.5, 1.4180341958999634
31908, 4.920713901519775, -9.65953254699707, -1.7542442083358765, 0.010537173599004745, -0.005822938401252031, -4.663652420043945, 0.1910444051027298, -0.10556036978960037, -0.3307678997516632, -0.7961605787277222, -0.9589952230453491, 0.06283990293741226, -0.2808988646740667, 0.3443183385059285, 0.06700211926040946, 9362.0, 30146.0, 35388.0, 9362.0, 8.152067184448242, -0.017943507060408592, 0.13806115090847015, 0.0881977453827858, 0.007084401324391365, -0.06070857495069504, 0.9970617294311523, -0.0754624754190445, 0.05000114440917969, 1.5, 1.472900390625, 0.1439361572265625, 1.491943359375, 1.619384765625, 10.0, 1.4186699390411377, 1.5, 1.4186699390411377
31918, 4.920001983642578, -9.660063743591309, -1.7546392679214478, 0.012528065592050552, -0.00692297937348485, -4.666970252990723, 0.20713359117507935, -0.11444853246212006, -0.3328079879283905, -0.7961453795433044, -0.9590188264846802, 0.06285715103149414, -0.264762027746524, 0.343202634761667, 0.08036194477214702, 9362.0, 30146.0, 35388.0, 9362.0, 8.152067184448242, -0.17194710671901703, 0.0716477707028389, 0.02655588462948799, 0.006776907946914434, -0.06026765704154968, 0.9975742101669312, -0.0754624754190445, 0.05000114440917969, 1.5, 1.46044921875, 0.12200927734375, 1.489013671875, 1.544677734375, 10.0, 1.4190677404403687, 1.5, 1.4190677404403687
31928, 4.918111801147461, -9.662407875061035, -1.7548643350601196, 0.01467984076589346, -0.008111899718642235, -4.670308589935303, 0.22322143614292145, -0.12333569675683975, -0.3348337411880493, -0.7961503863334656, -0.9590166211128235, 0.06284987181425095, -0.256354073546228, 0.3438457068151308, 0.06560151414517511, 9362.0, 30146.0, 35388.0, 9362.0, 8.152067184448242, -0.16706408560276031, -0.061131324619054794, 0.1255708485841751, 0.006835673935711384, -0.06149643287062645, 0.9993979334831238, -0.0754624754190445, 0.05000114440917969, 1.5, 1.254638671875, 0.1486053466796875, 1.489013671875, 1.427490234375, 10.0, 1.4190943241119385, 1.5, 1.4190943241119385
31938, 4.917778491973877, -9.661643028259277, -1.755182147026062, 0.01699255220592022, -0.009389715269207954, -4.673666954040527, 0.23932069540023804, -0.13222752511501312, -0.33679699897766113, -0.7961175441741943, -0.9590118527412415, 0.06288901716470718, -0.26264442157514467, 0.33886675825695534, 0.07513980244522767, 9362.0, 30146.0, 35388.0, 9362.0, 8.152067184448242, -0.014787471853196621, 0.3909134566783905, 0.13668395578861237, 0.006775957532227039, -0.05946538969874382, 1.0011253356933594, -0.0754624754190445, 0.05000114440917969, 1.5, 1.171142578125, 0.5709228515625, 1.4853515625, 1.245849609375, 10.0, 1.4185473918914795, 1.5, 1.4185473918914795
31948, 4.917607307434082, -9.663753509521484, -1.7530741691589355, 0.019466441124677658, -0.010756525211036205, -4.677043914794922, 0.25545692443847656, -0.14113453030586243, -0.3385635018348694, -0.7961491346359253, -0.9590263366699219, 0.06287065893411636, -0.25423204555785606, 0.35900008564769337, 0.07350856041561661, 9362.0, 30146.0, 35388.0, 9362.0, 8.152067184448242, 0.10348046571016312, 0.07996504008769989, -0.0009725956479087472, 0.005211120471358299, -0.06048367917537689, 0.9968540668487549, -0.0754624754190445, 0.05000114440917969, 1.5, 1.060546875, 1.82684326171875, 1.4853515625, 1.25390625, 10.0, 1.4180275201797485, 1.5, 1.4180275201797485
31958, 4.917569637298584, -9.666046142578125, -1.751625418663025, 0.022101739421486855, -0.01221243292093277, -4.680438041687012, 0.2716030180454254, -0.15004633367061615, -0.34026581048965454, -0.7961357831954956, -0.959019124507904, 0.06284927576780319, -0.26728918832567783, 0.3414517556271335, 0.06704793857167882, 9362.0, 30146.0, 35388.0, 9362.0, 8.152067184448242, 0.0797509178519249, 0.3862245976924896, 0.005329558625817299, 0.004139783326536417, -0.06036663055419922, 0.9994751214981079, -0.0754624754190445, 0.05000114440917969, 1.5, 1.48095703125, 0.1587677001953125, 1.48681640625, 1.48974609375, 10.0, 1.418254017829895, 1.5, 1.418254017829895
31968, 4.91743803024292, -9.66868782043457, -1.7507591247558594, 0.024898266419768333, -0.013757316395640373, -4.6838507652282715, 0.2877027690410614, -0.15892986953258514, -0.3422679901123047, -0.796125054359436, -0.9589843153953552, 0.06287432461977005, -0.2870290540141627, 0.34558450894030557, 0.05979336264410971, 9362.0, 30146.0, 35388.0, 9362.0, 8.152067184448242, 0.06406500190496445, -0.03551036864519119, -0.0229526124894619, 0.005745311267673969, -0.059447839856147766, 0.9994360208511353, -0.06592364609241486, -0.09335899353027344, 1.48828125, 1.371826171875, 0.02008056640625, 1.48681640625, 1.5849609375, 10.0, 1.4187803268432617, 1.5, 1.4187803268432617
31978, 4.916419982910156, -9.669734001159668, -1.750817894935608, 0.027855955064296722, -0.015391112305223942, -4.687282562255859, 0.3038350045681, -0.1678289920091629, -0.34410035610198975, -0.7961307764053345, -0.9590144753456116, 0.06285157054662704, -0.2715055673852604, 0.34368631417834195, 0.06734302535966266, 9362.0, 30146.0, 35388.0, 9362.0, 8.152067184448242, 0.00754198245704174, 0.35148346424102783, 0.18940602242946625, 0.005340479779988527, -0.060814421623945236, 1.0011790990829468, -0.06592364609241486, -0.09335899353027344, 1.48828125, 1.318359375, 0.028656005859375, 1.491943359375, 1.150634765625, 10.0, 1.417933702468872, 1.5, 1.417933702468872
31988, 4.915841102600098, -9.669737815856934, -1.7499326467514038, 0.03097503073513508, -0.01711392030119896, -4.690732479095459, 0.31998005509376526, -0.17673258483409882, -0.345883846282959, -0.7961275577545166, -0.958983302116394, 0.0628666803240776, -0.2889130950955864, 0.34279267465936414, 0.06549801676820169, 9362.0, 30146.0, 35388.0, 9362.0, 8.152067184448242, 0.11914214491844177, -0.1998877376317978, 0.038806505501270294, 0.005396888125687838, -0.06012985482811928, 0.9991906881332397, -0.06592364609241486, -0.09335899353027344, 1.48828125, 1.51611328125, 0.2286224365234375, 1.491943359375, 1.468505859375, 10.0, 1.4180933237075806, 1.5, 1.4180933237075806
31998, 4.916901588439941, -9.668278694152832, -1.7493677139282227, 0.03425568714737892, -0.018925823271274567, -4.694199562072754, 0.3361515700817108, -0.18564774096012115, -0.3475205898284912, -0.7961327433586121, -0.9589771032333374, 0.06282554566860199, -0.280047208286391, 0.34381013465741717, 0.06240057825501107, 9362.0, 30146.0, 35388.0, 9362.0, 8.152067184448242, -0.14000853896141052, 0.16886693239212036, 0.2756446599960327, 0.005576116498559713, -0.06259920448064804, 0.9986964464187622, -0.06592364609241486, -0.09335899353027344, 1.48828125, 1.50732421875, 0.2104644775390625, 1.4912109375, 1.5380859375, 10.0, 1.418472170829773, 1.5, 1.418472170829773
32008, 4.916819095611572, -9.668743133544922, -1.7478355169296265, 0.037697914987802505, -0.0208267904818058, -4.697683811187744, 0.35229411721229553, -0.19454573094844818, -0.3493316173553467, -0.7961311340332031, -0.9589688777923584, 0.06283619999885559, -0.2852452886303636, 0.342339753272654, 0.06427210476309243, 9362.0, 30146.0, 35388.0, 9362.0, 8.152067184448242, -0.14829221367835999, -0.20928920805454254, 0.07347522675991058, 0.00619644345715642, -0.06058867648243904, 0.9967212080955505, -0.06592364609241486, -0.09335899353027344, 1.48828125, 1.532958984375, 0.2644195556640625, 1.4912109375, 1.380615234375, 10.0, 1.4183526039123535, 1.5, 1.4183526039123535
32018, 4.915855407714844, -9.668686866760254, -1.7476290464401245, 0.04130148887634277, -0.02281670831143856, -4.701186656951904, 0.36842069029808044, -0.20343747735023499, -0.3512233793735504, -0.7961351275444031, -0.9589753150939941, 0.06282395124435425, -0.2926019247832172, 0.3365258121454531, 0.06521184106868219, 9362.0, 30146.0, 35388.0, 9362.0, 8.152067184448242, 0.18451625108718872, 0.2407563328742981, 0.3292907476425171, 0.0061175827868282795, -0.060624513775110245, 0.9961667060852051, -0.06592364609241486, -0.09335899353027344, 1.48828125, 1.521240234375, 0.2393646240234375, 1.487548828125, 1.4267578125, 10.0, 1.4183791875839233, 1.5, 1.4183791875839233
32028, 4.916616439819336, -9.670342445373535, -1.7453019618988037, 0.04506621137261391, -0.024895474314689636, -4.704709053039551, 0.38452401757240295, -0.21231572329998016, -0.3532593846321106, -0.7961409091949463, -0.9590169191360474, 0.06287430971860886, -0.2578165478465698, 0.33828690636593706, 0.07272549242741037, 9362.0, 30146.0, 35388.0, 9362.0, 8.152067184448242, 0.007734567392617464, 0.20212513208389282, 0.0441264733672142, 0.00713164871558547, -0.06073829531669617, 0.9973794221878052, -0.06592364609241486, -0.09335899353027344, 1.48828125, 1.552001953125, 0.3063201904296875, 1.487548828125, 1.4267578125, 10.0, 1.4184056520462036, 1.5, 1.4184056520462036
32038, 4.917513370513916, -9.671092987060547, -1.7451108694076538, 0.04899190366268158, -0.027062978595495224, -4.708252429962158, 0.4006143808364868, -0.22118449211120605, -0.3553743064403534, -0.7961496114730835, -0.9590147733688354, 0.06284632533788681, -0.25756341242173064, 0.3267428375244492, 0.0704499233689853, 9362.0, 30146.0, 35388.0, 9362.0, 8.152067184448242, -0.05794237554073334, -0.10406658798456192, -0.03246856480836868, 0.00531612616032362, -0.060803402215242386, 0.9994964003562927, -0.06592364609241486, -0.09335899353027344, 1.48828125, 1.56005859375, 0.324493408203125, 1.48095703125, 1.3857421875, 10.0, 1.4183025360107422, 1.5, 1.4183025360107422
32048, 4.917402744293213, -9.670475006103516, -1.745641827583313, 0.053078629076480865, -0.029319239780306816, -4.71181583404541, 0.4167310297489166, -0.23006752133369446, -0.35734909772872925, -0.7961429357528687, -0.9590186476707458, 0.06285782158374786, -0.26717807282208567, 0.3337701896130909, 0.07626826901847987, 9362.0, 30146.0, 35388.0, 9362.0, 8.152067184448242, 0.11960829794406891, 0.16348682343959808, 0.13003312051296234, 0.005516819190233946, -0.06130725517868996, 0.9994814395904541, -0.06592364609241486, -0.09335899353027344, 1.48828125, 1.53515625, 0.2692413330078125, 1.48095703125, 1.26123046875, 10.0, 1.417806625366211, 1.5, 1.417806625366211
32058, 4.918050765991211, -9.671940803527832, -1.7444931268692017, 0.05732669308781624, -0.03166442736983299, -4.71539831161499, 0.4328819215297699, -0.23897042870521545, -0.35912755131721497, -0.7961522340774536, -0.9589747786521912, 0.06285177916288376, -0.2842893326519746, 0.3551963622641665, 0.06675751985834713, 9362.0, 30146.0, 35388.0, 9362.0, 8.152067184448242, -0.1186327412724495, 0.05418035760521889, -0.16221974790096283, 0.005955894012004137, -0.060592759400606155, 0.9987038969993591, -0.06592364609241486, -0.09335899353027344, 1.48828125, 1.58642578125, 0.3851776123046875, 1.48828125, 1.30810546875, 10.0, 1.417460322380066, 1.5, 1.417460322380066
32068, 4.917387962341309, -9.672493934631348, -1.745133638381958, 0.06173623353242874, -0.03409862890839577, -4.718998432159424, 0.449025958776474, -0.2478695511817932, -0.36094096302986145, -0.7961362600326538, -0.958980917930603, 0.06286097317934036, -0.29852576972715134, 0.3385258193649179, 0.059471436608994586, 9362.0, 30146.0, 35388.0, 9362.0, 8.152067184448242, 0.1863020360469818, 0.028292836621403694, 0.011933148838579655, 0.006556670647114515, -0.0604325532913208, 0.9995459318161011, -0.059063225984573364, -0.01271820068359375, 1.494873046875, 1.118408203125, 1.0510711669921875, 1.48828125, 1.360107421875, 10.0, 1.4172792434692383, 1.5, 1.4172792434692383
32078, 4.918249607086182, -9.672749519348145, -1.7439988851547241, 0.0663071870803833, -0.036621805280447006, -4.722617149353027, 0.4651646316051483, -0.25676578283309937, -0.3628007471561432, -0.7961397767066956, -0.958991527557373, 0.06282680481672287, -0.2909870062694022, 0.3390566463204152, 0.07936209659855614, 9362.0, 30146.0, 35388.0, 9362.0, 8.152067184448242, 0.03603532537817955, 0.3398573696613312, 0.23658756911754608, 0.006205355748534203, -0.05923570320010185, 0.9995141625404358, -0.059063225984573364, -0.01271820068359375, 1.494873046875, 1.458984375, 0.1195831298828125, 1.48828125, 1.497802734375, 10.0, 1.41753351688385, 1.5, 1.41753351688385
32088, 4.918583393096924, -9.674208641052246, -1.7419945001602173, 0.07103955745697021, -0.03923395276069641, -4.726254463195801, 0.481310099363327, -0.2656637728214264, -0.3646268844604492, -0.7961565852165222, -0.9589818120002747, 0.06287357211112976, -0.2929492583088432, 0.33263780880440663, 0.07191101563951952, 9362.0, 30146.0, 35388.0, 9362.0, 8.152067184448242, 0.12388558685779572, 0.09441597014665604, -0.19869311153888702, 0.0062249512411653996, -0.05984548479318619, 0.9996715784072876, -0.059063225984573364, -0.01271820068359375, 1.494873046875, 1.51904296875, 0.2346954345703125, 1.48828125, 1.46044921875, 10.0, 1.4176690578460693, 1.5, 1.4176690578460693
32098, 4.919031620025635, -9.67462158203125, -1.7416765689849854, 0.07593340426683426, -0.04193509742617607, -4.729909896850586, 0.4974600374698639, -0.2745647132396698, -0.3664303421974182, -0.7961512207984924, -0.9590376615524292, 0.0628826916217804, -0.2552067292104245, 0.3420776526797056, 0.07429102823475757, 9362.0, 30146.0, 35388.0, 9362.0, 8.152067184448242, 0.12388558685779572, 0.09441597014665604, -0.19869311153888702, 0.0062249512411653996, -0.05984548479318619, 0.9996715784072876, -0.059063225984573364, -0.01271820068359375, 1.494873046875, 1.24658203125, 0.1746063232421875, 1.490478515625, 1.215087890625, 10.0, 1.4176690578460693, 1.5, 1.4176690578460693
32108, 4.919409275054932, -9.675275802612305, -1.7439208030700684, 0.07593340426683426, -0.04193509742617607, -4.729909896850586, 0.4974600374698639, -0.2745647132396698, -0.3664303421974182, -0.7961485981941223, -0.9589788317680359, 0.06284351646900177, -0.28616595511459536, 0.34050635265393225, 0.07321224125119637, 9362.0, 30146.0, 35388.0, 9362.0, 8.152067184448242, -0.23738785088062286, -0.17014950513839722, -0.014305850490927696, 0.0062249512411653996, -0.05984548479318619, 0.9996715784072876, -0.059063225984573364, -0.01271820068359375, 1.494873046875, 1.15869140625, 0.6672515869140625, 1.490478515625, 1.562255859375, 10.0, 1.4176690578460693, 1.5, 1.4176690578460693
32118, 4.918121337890625, -9.673828125, -1.744633436203003, 0.07593340426683426, -0.04193509742617607, -4.729909896850586, 0.4974600374698639, -0.2745647132396698, -0.3664303421974182, -0.79615718126297, -0.9590254426002502, 0.06285448372364044, -0.2608558379404978, 0.33546109490538356, 0.0777436418212035, 9362.0, 30146.0, 35388.0, 9362.0, 8.152067184448242, -0.12474020570516586, -0.23343953490257263, 0.10890394449234009, 0.004083038307726383, -0.06079013645648956, 0.9985224008560181, -0.059063225984573364, -0.01271820068359375, 1.494873046875, 1.1865234375, 0.4651947021484375, 1.490478515625, 1.56005859375, 10.0, 1.4176690578460693, 1.5, 1.4176690578460693
32128, 4.917072296142578, -9.672222137451172, -1.7437427043914795, 0.07593340426683426, -0.04193509742617607, -4.729909896850586, 0.4974600374698639, -0.2745647132396698, -0.3664303421974182, -0.7961748838424683, -0.9589754939079285, 0.06278549134731293, -0.30789889439039775, 0.3614721800713312, 0.07258389422420754, 9362.0, 30146.0, 35388.0, 9362.0, 8.152067184448242, 0.15163157880306244, 0.40857356786727905, 0.32238975167274475, 0.004083038307726383, -0.06079013645648956, 0.9985224008560181, -0.059063225984573364, -0.01271820068359375, 1.494873046875, 1.196044921875, 0.4066162109375, 1.490478515625, 1.554931640625, 10.0, 1.4176690578460693, 1.5, 1.4176690578460693
32138, 4.9175944328308105, -9.675394058227539, -1.7402290105819702, 0.07593340426683426, -0.04193509742617607, -4.729909896850586, 0.4974600374698639, -0.2745647132396698, -0.3664303421974182, -0.7961355447769165, -0.9590310454368591, 0.06286709010601044, -0.26131769593367726, 0.3436719558388859, 0.06458767529318139, 9362.0, 30146.0, 35388.0, 9362.0, 8.152067184448242, 0.10551665723323822, 0.5767698884010315, -0.2582085132598877, 0.004083038307726383, -0.06079013645648956, 0.9985224008560181, -0.059063225984573364, -0.01271820068359375, 1.494873046875, 1.168212890625, 0.59271240234375, 1.490478515625, 1.552001953125, 10.0, 1.4176690578460693, 1.5, 1.4176690578460693
32148, 4.9172844886779785, -9.678622245788574, -1.740803837776184, 0.10282427072525024, -0.056775446981191635, -4.748464584350586, 0.5781615376472473, -0.31904032826423645, -0.3757992386817932, -0.796140193939209, -0.9590153098106384, 0.06285583227872849, -0.2664395347834157, 0.33934177426317547, 0.06149380468019188, 9362.0, 30146.0, 35388.0, 9362.0, 8.152067184448242, -0.04495048150420189, -0.3439551889896393, -0.017319466918706894, 0.004083038307726383, -0.06079013645648956, 0.9985224008560181, -0.059063225984573364, -0.01271820068359375, 1.494873046875, 1.168212890625, 0.59271240234375, 1.490478515625, 1.56298828125, 10.0, 1.4176690578460693, 1.5, 1.4176690578460693
32158, 4.916704177856445, -9.676508903503418, -1.7414072751998901, 0.10282427072525024, -0.056775446981191635, -4.748464584350586, 0.5781615376472473, -0.31904032826423645, -0.3757992386817932, -0.7961785793304443, -0.958985447883606, 0.06282807886600494, -0.2969593940344401, 0.36359236377444404, 0.0720515275531875, 9362.0, 30146.0, 35388.0, 9362.0, 8.152067184448242, 0.07272067666053772, -0.11593013256788254, -0.03400754928588867, 0.004083038307726383, -0.06079013645648956, 0.9985224008560181, -0.059063225984573364, -0.01271820068359375, 1.494873046875, 1.13671875, 0.862274169921875, 1.490478515625, 1.56298828125, 10.0, 1.4195836782455444, 1.5, 1.4195836782455444
32178, 4.918067932128906, -9.676776885986328, -1.7414798736572266, 0.10282427072525024, -0.056775446981191635, -4.748464584350586, 0.5781615376472473, -0.31904032826423645, -0.3757992386817932, -0.7961967587471008, -0.9589735865592957, 0.06280550360679626, -0.28244251840734835, 0.3681881241546705, 0.05257547216037918, 9362.0, 30146.0, 35388.0, 9362.0, 8.152067184448242, -0.30027398467063904, -0.07606051862239838, -0.13116395473480225, 0.00639466242864728, -0.0610973946750164, 0.9986796379089355, -0.08964953571557999, -0.18295860290527344, 1.48095703125, 1.363037109375, 0.0169219970703125, 1.490478515625, 1.552734375, 10.0, 1.4202011823654175, 1.5, 1.4202011823654175
32188, 4.917263984680176, -9.678466796875, -1.741532325744629, 0.12724274396896362, -0.07024871557950974, -4.763644218444824, 0.6427537798881531, -0.35461920499801636, -0.3832050561904907, -0.7961403131484985, -0.9590035676956177, 0.06284598261117935, -0.25140797793457437, 0.35335466180359276, 0.05559340691477686, 9362.0, 30146.0, 35388.0, 9362.0, 8.152067184448242, 0.08842191845178604, 0.01193496398627758, 0.07277349382638931, 0.00639466242864728, -0.0610973946750164, 0.9986796379089355, -0.08964953571557999, -0.18295860290527344, 1.48095703125, 1.363037109375, 0.0169219970703125, 1.490478515625, 1.552734375, 10.0, 1.4203814268112183, 1.5, 1.4203814268112183
32198, 4.918313980102539, -9.67846393585205, -1.7427315711975098, 0.12724274396896362, -0.07024871557950974, -4.763644218444824, 0.6427537798881531, -0.35461920499801636, -0.3832050561904907, -0.7961921691894531, -0.9589744210243225, 0.0628087967634201, -0.2877488950796685, 0.37247285144553643, 0.06567766522902485, 9362.0, 30146.0, 35388.0, 9362.0, 8.152067184448242, 0.07565385848283768, -0.12078317999839783, -0.07176625728607178, 0.00639466242864728, -0.0610973946750164, 0.9986796379089355, -0.08964953571557999, -0.18295860290527344, 1.48095703125, 1.363037109375, 0.0169219970703125, 1.4912109375, 1.552734375, 10.0, 1.4207738637924194, 1.5, 1.4207738637924194
32208, 4.918160915374756, -9.678080558776855, -1.744240641593933, 0.12724274396896362, -0.07024871557950974, -4.763644218444824, 0.6427537798881531, -0.35461920499801636, -0.3832050561904907, -0.7961915135383606, -0.9589846134185791, 0.062802255153656, -0.2860768697409567, 0.3749580708913527, 0.055429306401783736, 9362.0, 30146.0, 35388.0, 9362.0, 8.152067184448242, 0.028541279956698418, 0.09249433130025864, -0.18469838798046112, 0.00639466242864728, -0.0610973946750164, 0.9986796379089355, -0.08964953571557999, -0.18295860290527344, 1.48095703125, 1.363037109375, 0.0169219970703125, 1.4912109375, 1.552734375, 10.0, 1.420644760131836, 1.5, 1.420644760131836
32228, 4.919322967529297, -9.67884635925293, -1.7448832988739014, 0.15424379706382751, -0.08514457941055298, -4.77912712097168, 0.7072876691818237, -0.39016854763031006, -0.3910207450389862, -0.7961439490318298, -0.9590150117874146, 0.06286326795816422, -0.25371259490851067, 0.3404926674738249, 0.05807621707018838, 9362.0, 30146.0, 35388.0, 9362.0, 8.152067184448242, -0.18094457685947418, 0.022907743230462074, -0.16505509614944458, 0.006315403617918491, -0.06041097268462181, 0.9997068047523499, -0.08964953571557999, -0.18295860290527344, 1.48095703125, 1.380615234375, 0.024749755859375, 1.490478515625, 1.552734375, 10.0, 1.420644760131836, 1.5, 1.420644760131836
32288, 4.91702127456665, -9.68608570098877, -1.7439053058624268, 0.19958637654781342, -0.11015500873327255, -4.80293607711792, 0.8041324019432068, -0.4435015320777893, -0.40267354249954224, -0.7961503267288208, -0.9590271711349487, 0.06285084038972855, -0.26093582496789947, 0.33632026458968767, 0.05914515006917869, 9362.0, 30146.0, 35388.0, 9362.0, 8.152067184448242, -0.14133554697036743, -0.11737142503261566, 0.08964373171329498, 0.0062369778752326965, -0.06154821068048477, 0.9957675933837891, -0.08964953571557999, -0.18295860290527344, 1.48095703125, 0.999755859375, 2.9892425537109375, 1.48974609375, 1.53515625, 10.0, 1.420644760131836, 1.5, 1.420644760131836
32298, 4.916532516479492, -9.685471534729004, -1.7422751188278198, 0.19958637654781342, -0.11015500873327255, -4.80293607711792, 0.8041324019432068, -0.4435015320777893, -0.40267354249954224, -0.7961786985397339, -0.9589834213256836, 0.06284523010253906, -0.2760316936737801, 0.34175715987817057, 0.05759196008895821, 9362.0, 30146.0, 35388.0, 9362.0, 8.152067184448242, -0.033938366919755936, 0.24579419195652008, 0.07037483900785446, 0.0062369778752326965, -0.06154821068048477, 0.9957675933837891, -0.08964953571557999, -0.18295860290527344, 1.48095703125, 0.999755859375, 2.9892425537109375, 1.4912109375, 1.528564453125, 10.0, 1.420644760131836, 1.5, 1.420644760131836
32308, 4.916723251342773, -9.686616897583008, -1.741787314414978, 0.21599143743515015, -0.11920246481895447, -4.811031818389893, 0.8363854289054871, -0.46124985814094543, -0.40683531761169434, -0.7962004542350769, -0.9589787721633911, 0.06278837472200394, -0.2961675020114227, 0.3681035445215173, 0.06711047674315249, 9362.0, 30146.0, 35388.0, 9362.0, 8.152067184448242, -0.13022875785827637, -0.103057362139225, -0.2548162043094635, 0.0062369778752326965, -0.06154821068048477, 0.9957675933837891, -0.08964953571557999, -0.18295860290527344, 1.48095703125, 0.999755859375, 2.9892425537109375, 1.4912109375, 1.467041015625, 10.0, 1.420644760131836, 1.5, 1.420644760131836
32318, 4.915960788726807, -9.68663215637207, -1.7429238557815552, 0.21599143743515015, -0.11920246481895447, -4.811031818389893, 0.8363854289054871, -0.46124985814094543, -0.40683531761169434, -0.7962261438369751, -0.9589799642562866, 0.06272627413272858, -0.30750777434005716, 0.37923387829937383, 0.0554126510646059, 9362.0, 30146.0, 35388.0, 9362.0, 8.152067184448242, -0.0785006508231163, 0.15234681963920593, 0.21706761419773102, 0.0062369778752326965, -0.06154821068048477, 0.9957675933837891, -0.08964953571557999, -0.18295860290527344, 1.48095703125, 0.999755859375, 2.9892425537109375, 1.490478515625, 1.468505859375, 10.0, 1.420644760131836, 1.5, 1.420644760131836
32328, 4.915825366973877, -9.688651084899902, -1.740922212600708, 0.21599143743515015, -0.11920246481895447, -4.811031818389893, 0.8363854289054871, -0.46124985814094543, -0.40683531761169434, -0.7961764335632324, -0.9589418768882751, 0.06272856891155243, -0.28739134820116746, 0.3860717320730771, 0.010738891686161172, 9362.0, 30146.0, 35388.0, 9362.0, 8.152067184448242, 0.01051106583327055, 0.11073474586009979, 0.11303088068962097, 0.0062369778752326965, -0.06154821068048477, 0.9957675933837891, -0.08964953571557999, -0.18295860290527344, 1.48095703125, 1.401123046875, 0.041015625, 1.490478515625, 1.468505859375, 10.0, 1.4188235998153687, 1.5, 1.4188235998153687
32338, 4.915696620941162, -9.691425323486328, -1.740354299545288, 0.21599143743515015, -0.11920246481895447, -4.811031818389893, 0.8363854289054871, -0.46124985814094543, -0.40683531761169434, -0.7961550354957581, -0.9589899778366089, 0.06276530772447586, -0.2647394362409297, 0.3700862646027474, 0.03075560859963399, 9362.0, 30146.0, 35388.0, 9362.0, 8.152067184448242, 0.01051106583327055, 0.11073474586009979, 0.11303088068962097, 0.004934496711939573, -0.06224675476551056, 1.000685691833496, -0.08964953571557999, -0.18295860290527344, 1.48095703125, 1.46923828125, 0.137359619140625, 1.490478515625, 1.2421875, 10.0, 1.4188235998153687, 1.5, 1.4188235998153687
32358, 4.9137959480285645, -9.691547393798828, -1.7416881322860718, 0.21599143743515015, -0.11920246481895447, -4.811031818389893, 0.8363854289054871, -0.46124985814094543, -0.40683531761169434, -0.7961856722831726, -0.9589942693710327, 0.06279434263706207, -0.26171090213997544, 0.3740918873782846, 0.03386914983287266, 9362.0, 30146.0, 35388.0, 9362.0, 8.152067184448242, 0.060972683131694794, 0.2023039162158966, -0.022747550159692764, 0.007215684745460749, -0.05891638249158859, 0.9987053871154785, -0.08964953571557999, -0.18295860290527344, 1.48095703125, 1.1220703125, 1.01129150390625, 1.486083984375, 1.45166015625, 10.0, 1.4188235998153687, 1.5, 1.4188235998153687
32378, 4.912939548492432, -9.693653106689453, -1.742138147354126, 0.21599143743515015, -0.11920246481895447, -4.811031818389893, 0.8363854289054871, -0.46124985814094543, -0.40683531761169434, -0.7961898446083069, -0.9589748978614807, 0.06275814026594162, -0.2812863176358297, 0.37732764342558767, 0.043980477629462625, 9362.0, 30146.0, 35388.0, 9362.0, 8.152067184448242, 0.10820651799440384, -0.16029347479343414, 0.14137688279151917, 0.005628230515867472, -0.058650217950344086, 0.9960578680038452, -0.09171461313962936, -0.27255821228027344, 1.4736328125, 1.22900390625, 0.2412872314453125, 1.486083984375, 1.5146484375, 10.0, 1.4188235998153687, 1.5, 1.4188235998153687
32388, 4.912591457366943, -9.691471099853516, -1.7421305179595947, 0.21599143743515015, -0.11920246481895447, -4.811031818389893, 0.8363854289054871, -0.46124985814094543, -0.40683531761169434, -0.79619961977005, -0.9589405655860901, 0.062757708132267, -0.2910825527301676, 0.3859326138625079, 0.029762031455239847, 9362.0, 30146.0, 35388.0, 9362.0, 8.152067184448242, -0.08276398479938507, -0.24537096917629242, 0.02377522923052311, 0.005628230515867472, -0.058650217950344086, 0.9960578680038452, -0.09171461313962936, -0.27255821228027344, 1.4736328125, 1.2041015625, 0.3609771728515625, 1.486083984375, 1.537353515625, 10.0, 1.4188235998153687, 1.5, 1.4188235998153687
32398, 4.910795211791992, -9.690869331359863, -1.743640661239624, 0.21599143743515015, -0.11920246481895447, -4.811031818389893, 0.8363854289054871, -0.46124985814094543, -0.40683531761169434, -0.796208381652832, -0.9589558243751526, 0.06273644417524338, -0.2956371039609702, 0.38075389834486373, 0.03954447578476957, 9362.0, 30146.0, 35388.0, 9362.0, 8.152067184448242, -0.08753769844770432, 0.13166892528533936, 0.0631641075015068, 0.005628230515867472, -0.058650217950344086, 0.9960578680038452, -0.09171461313962936, -0.27255821228027344, 1.4736328125, 1.46484375, 0.1295928955078125, 1.491943359375, 1.55126953125, 10.0, 1.4188235998153687, 1.5, 1.4188235998153687
32408, 4.910573482513428, -9.692859649658203, -1.7428011894226074, 0.3077152967453003, -0.1697743535041809, -4.852637767791748, 0.9980425834655762, -0.55013507604599, -0.42573583126068115, -0.7961926460266113, -0.9589468240737915, 0.06276623904705048, -0.2866806677138937, 0.39037442313326665, 0.041943346448472724, 9362.0, 30146.0, 35388.0, 9362.0, 8.152067184448242, 0.0007695196545682847, -0.21294139325618744, -0.09338563680648804, 0.005628230515867472, -0.058650217950344086, 0.9960578680038452, -0.09171461313962936, -0.27255821228027344, 1.4736328125, 1.42822265625, 0.0726470947265625, 1.491943359375, 1.55126953125, 10.0, 1.4198033809661865, 1.5, 1.4198033809661865
32418, 4.911001205444336, -9.69225788116455, -1.742887020111084, 0.3077152967453003, -0.1697743535041809, -4.852637767791748, 0.9980425834655762, -0.55013507604599, -0.42573583126068115, -0.7961591482162476, -0.9589539170265198, 0.06280405819416046, -0.2874496625482521, 0.36807842762982546, 0.029187216514388017, 9362.0, 30146.0, 35388.0, 9362.0, 8.152067184448242, -0.05170735716819763, 0.2900230586528778, -0.04058491811156273, 0.005628230515867472, -0.058650217950344086, 0.9960578680038452, -0.09171461313962936, -0.27255821228027344, 1.4736328125, 1.42822265625, 0.0726470947265625, 1.48828125, 1.587158203125, 10.0, 1.4198033809661865, 1.5, 1.4198033809661865
32428, 4.911497116088867, -9.695390701293945, -1.7427657842636108, 0.3279991149902344, -0.1809544861316681, -4.86119270324707, 1.0303469896316528, -0.5678803324699402, -0.42971351742744446, -0.7961820960044861, -0.9589694142341614, 0.06272972375154495, -0.2918575598329857, 0.3835972488569155, 0.02745416375053171, 9362.0, 30146.0, 35388.0, 9362.0, 8.152067184448242, 0.14140111207962036, 0.16526851058006287, -0.2826122045516968, 0.005628230515867472, -0.058650217950344086, 0.9960578680038452, -0.09171461313962936, -0.27255821228027344, 1.4736328125, 1.546875, 0.2949676513671875, 1.48828125, 1.53955078125, 10.0, 1.4198033809661865, 1.5, 1.4198033809661865
32438, 4.912551403045654, -9.696185111999512, -1.7442799806594849, 0.3279991149902344, -0.1809544861316681, -4.86119270324707, 1.0303469896316528, -0.5678803324699402, -0.42971351742744446, -0.7961591482162476, -0.9589518308639526, 0.06277036666870117, -0.2901939570899225, 0.37015776474154904, 0.027264927462278727, 9362.0, 30146.0, 35388.0, 9362.0, 8.152067184448242, -0.10962969809770584, -0.23945215344429016, -0.03705676272511482, 0.006108102388679981, -0.06257911026477814, 1.0000760555267334, -0.09171461313962936, -0.27255821228027344, 1.4736328125, 1.521240234375, 0.2393646240234375, 1.48828125, 1.553466796875, 10.0, 1.4198033809661865, 1.5, 1.4198033809661865
32448, 4.912230968475342, -9.694436073303223, -1.7447521686553955, 0.34892889857292175, -0.19248943030834198, -4.869828224182129, 1.0626575946807861, -0.5856281518936157, -0.4336910545825958, -0.796183168888092, -0.958961009979248, 0.06273391842842102, -0.2953676752812268, 0.3813253849097862, 0.032875800963694884, 9362.0, 30146.0, 35388.0, 9362.0, 8.152067184448242, -0.10746771097183228, -0.008959065191447735, 0.0429002046585083, 0.006108102388679981, -0.06257911026477814, 1.0000760555267334, -0.09171461313962936, -0.27255821228027344, 1.4736328125, 1.521240234375, 0.2393646240234375, 1.48828125, 1.54248046875, 10.0, 1.4198033809661865, 1.5, 1.4198033809661865
32458, 4.911873817443848, -9.693530082702637, -1.7433936595916748, 0.34892889857292175, -0.19248943030834198, -4.869828224182129, 1.0626575946807861, -0.5856281518936157, -0.4336910545825958, -0.7961875796318054, -0.958956778049469, 0.06273116171360016, -0.29317477608302356, 0.38034377519363716, 0.026400223350240223, 9362.0, 30146.0, 35388.0, 9362.0, 8.152067184448242, 0.0659450963139534, 0.3394607603549957, 0.09711123257875443, 0.006108102388679981, -0.06257911026477814, 1.0000760555267334, -0.09171461313962936, -0.27255821228027344, 1.4736328125, 1.201171875, 0.3771514892578125, 1.48828125, 1.5615234375, 10.0, 1.4198033809661865, 1.5, 1.4198033809661865
32478, 4.91199254989624, -9.696033477783203, -1.7446231842041016, 0.34892889857292175, -0.19248943030834198, -4.869828224182129, 1.0626575946807861, -0.5856281518936157, -0.4336910545825958, -0.7961980700492859, -0.9589577913284302, 0.06275634467601776, -0.2939773545847378, 0.3906897626268062, 0.03166282727842279, 9362.0, 30146.0, 35388.0, 9362.0, 8.152067184448242, -0.13597171008586884, -0.272881418466568, -0.025983989238739014, 0.006108102388679981, -0.06257911026477814, 1.0000760555267334, -0.07513906806707382, -0.05751800537109375, 1.4912109375, 1.415771484375, 0.0568695068359375, 1.490478515625, 1.55712890625, 10.0, 1.4226983785629272, 1.5, 1.4226983785629272
32488, 4.9119744300842285, -9.69486141204834, -1.7447360754013062, 0.3927287459373474, -0.2166251540184021, -4.887329578399658, 1.127298355102539, -0.621138870716095, -0.4415692389011383, -0.7961635589599609, -0.9589844346046448, 0.0628194734454155, -0.2523556776619005, 0.35753770704684484, 0.03195532327062634, 9362.0, 30146.0, 35388.0, 9362.0, 8.152067184448242, -0.1761358380317688, 0.3085722327232361, 0.1752406805753708, 0.005949411075562239, -0.060913681983947754, 0.997826874256134, -0.07513906806707382, -0.05751800537109375, 1.4912109375, 1.415771484375, 0.0568695068359375, 1.490478515625, 1.55712890625, 10.0, 1.4226983785629272, 1.5, 1.4226983785629272
32498, 4.911698341369629, -9.695523262023926, -1.7443219423294067, 0.3927287459373474, -0.2166251540184021, -4.887329578399658, 1.127298355102539, -0.621138870716095, -0.4415692389011383, -0.7961909770965576, -0.9589493274688721, 0.06276487559080124, -0.2943926347572151, 0.37574550435829224, 0.03619753262571646, 9362.0, 30146.0, 35388.0, 9362.0, 8.152067184448242, 0.0006537077133543789, 0.16684335470199585, 0.21474984288215637, 0.005949411075562239, -0.060913681983947754, 0.997826874256134, -0.07513906806707382, -0.05751800537109375, 1.4912109375, 1.415771484375, 0.0568695068359375, 1.490478515625, 1.55712890625, 10.0, 1.4233585596084595, 1.5, 1.4233585596084595
32508, 4.911612510681152, -9.696526527404785, -1.7429050207138062, 0.4155981242656708, -0.22922557592391968, -4.8961992263793945, 1.159635305404663, -0.6389014720916748, -0.44542205333709717, -0.7961887717247009, -0.9589536190032959, 0.06275010854005814, -0.29980173165152485, 0.38451793596729544, 0.030077037983390908, 9362.0, 30146.0, 35388.0, 9362.0, 8.152067184448242, -0.11510706692934036, 0.14476655423641205, 0.1649629771709442, 0.005615216214209795, -0.06057468429207802, 0.9971768260002136, -0.07513906806707382, -0.05751800537109375, 1.4912109375, 1.415771484375, 0.0568695068359375, 1.490478515625, 1.55712890625, 10.0, 1.423831820487976, 1.5, 1.423831820487976
32518, 4.911376953125, -9.697254180908203, -1.7429779767990112, 0.4155981242656708, -0.22922557592391968, -4.8961992263793945, 1.159635305404663, -0.6389014720916748, -0.44542205333709717, -0.7961574792861938, -0.9589881300926208, 0.06279199570417404, -0.27677577109972623, 0.3633901399641388, 0.029393314353215832, 9362.0, 30146.0, 35388.0, 9362.0, 8.152067184448242, -0.03286176919937134, 0.035791490226984024, 0.1664404720067978, 0.006875632796436548, -0.06008477136492729, 0.9986827969551086, -0.07513906806707382, -0.05751800537109375, 1.4912109375, 1.415771484375, 0.0568695068359375, 1.48974609375, 1.5322265625, 10.0, 1.423831820487976, 1.5, 1.423831820487976
32528, 4.911444664001465, -9.698020935058594, -1.7412545680999756, 0.4391140043735504, -0.24218109250068665, -4.905147552490234, 1.1919527053833008, -0.6566501259803772, -0.44940608739852905, -0.7961711883544922, -0.9589840769767761, 0.06276153773069382, -0.276457350761273, 0.37993651488346813, 0.03337491815402827, 9362.0, 30146.0, 35388.0, 9362.0, 8.152067184448242, -0.028521845117211342, 0.02209318056702614, 0.04964081570506096, 0.008219457231462002, -0.05944455787539482, 0.9984195232391357, -0.07513906806707382, -0.05751800537109375, 1.4912109375, 1.415771484375, 0.0568695068359375, 1.48974609375, 1.5322265625, 10.0, 1.423831820487976, 1.5, 1.423831820487976
32588, 4.91030740737915, -9.698579788208008, -1.73888099193573, 0.5135414004325867, -0.2831779718399048, -4.932463645935059, 1.2889161109924316, -0.7098891735076904, -0.4613502621650696, -0.7961635589599609, -0.9589929580688477, 0.06278196722269058, -0.2638805516465206, 0.3583454448429393, 0.020498124209555674, 9362.0, 30146.0, 35388.0, 9362.0, 8.152067184448242, -0.017597399652004242, -0.2807340919971466, -0.06106117367744446, 0.007050963584333658, -0.059225741773843765, 0.999148964881897, -0.086102694272995, -0.2546367645263672, 1.47509765625, 1.212158203125, 0.3188018798828125, 1.490478515625, 1.54833984375, 10.0, 1.423831820487976, 1.5, 1.423831820487976
32598, 4.909829616546631, -9.69744873046875, -1.738346815109253, 0.5135414004325867, -0.2831779718399048, -4.932463645935059, 1.2889161109924316, -0.7098891735076904, -0.4613502621650696, -0.7962014079093933, -0.9589552283287048, 0.06274712830781937, -0.2935532420031886, 0.38199407329838664, 0.03366134765301919, 9362.0, 30146.0, 35388.0, 9362.0, 8.152067184448242, -0.1085655614733696, -0.03690309077501297, 0.19987688958644867, 0.007050963584333658, -0.059225741773843765, 0.999148964881897, -0.086102694272995, -0.2546367645263672, 1.47509765625, 1.212158203125, 0.3188018798828125, 1.48974609375, 1.46337890625, 10.0, 1.423831820487976, 1.5, 1.423831820487976
32608, 4.909996509552002, -9.696439743041992, -1.7363486289978027, 0.5396428108215332, -0.2975531220436096, -4.941730976104736, 1.321245789527893, -0.7276352047920227, -0.46529194712638855, -0.7961944937705994, -0.9589473605155945, 0.06279727816581726, -0.2935451606839485, 0.38496934158595764, 0.038762825875546504, 9362.0, 30146.0, 35388.0, 9362.0, 8.152067184448242, -0.1833035945892334, 0.23728913068771362, 0.14390398561954498, 0.007050963584333658, -0.059225741773843765, 0.999148964881897, -0.086102694272995, -0.2546367645263672, 1.47509765625, 1.212158203125, 0.3188018798828125, 1.48974609375, 1.52783203125, 10.0, 1.423831820487976, 1.5, 1.423831820487976
32618, 4.909142971038818, -9.69901180267334, -1.7340086698532104, 0.5396428108215332, -0.2975531220436096, -4.941730976104736, 1.321245789527893, -0.7276352047920227, -0.46529194712638855, -0.7961544990539551, -0.9589654207229614, 0.06279601901769638, -0.2879605192794037, 0.35909187307007073, 0.03767771478409245, 9362.0, 30146.0, 35388.0, 9362.0, 8.152067184448242, -0.057617221027612686, -0.08650456368923187, -0.1226595938205719, 0.007050963584333658, -0.059225741773843765, 0.999148964881897, -0.086102694272995, -0.2546367645263672, 1.47509765625, 1.212158203125, 0.3188018798828125, 1.493408203125, 1.500732421875, 10.0, 1.423831820487976, 1.5, 1.423831820487976
32628, 4.908834934234619, -9.698678016662598, -1.7338664531707764, 0.5396428108215332, -0.2975531220436096, -4.941730976104736, 1.321245789527893, -0.7276352047920227, -0.46529194712638855, -0.7961975336074829, -0.9589522480964661, 0.06278233975172043, -0.2894031898967381, 0.3764180857180861, 0.04280429148494554, 9362.0, 30146.0, 35388.0, 9362.0, 8.152067184448242, -0.057617221027612686, -0.08650456368923187, -0.1226595938205719, 0.007130324374884367, -0.06183820217847824, 0.9992225766181946, -0.086102694272995, -0.2546367645263672, 1.47509765625, 1.335205078125, 0.018280029296875, 1.493408203125, 1.500732421875, 10.0, 1.423950433731079, 1.5, 1.423950433731079
32638, 4.9098381996154785, -9.701447486877441, -1.7305024862289429, 0.5396428108215332, -0.2975531220436096, -4.941730976104736, 1.321245789527893, -0.7276352047920227, -0.46529194712638855, -0.7961682677268982, -0.9589834213256836, 0.06279700249433517, -0.29431532485787665, 0.3558356587210767, 0.025357111296740672, 9362.0, 30146.0, 35388.0, 9362.0, 8.152067184448242, -0.18075841665267944, -0.08730185031890869, 0.0955648347735405, 0.007130324374884367, -0.06183820217847824, 0.9992225766181946, -0.086102694272995, -0.2546367645263672, 1.47509765625, 1.335205078125, 0.018280029296875, 1.4853515625, 1.469970703125, 10.0, 1.423950433731079, 1.5, 1.423950433731079
32648, 4.907994747161865, -9.700438499450684, -1.7300962209701538, 0.5396428108215332, -0.2975531220436096, -4.941730976104736, 1.321245789527893, -0.7276352047920227, -0.46529194712638855, -0.7961944937705994, -0.9589605927467346, 0.06273788958787918, -0.29425191424356006, 0.3872980087739961, 0.033147648444174886, 9362.0, 30146.0, 35388.0, 9362.0, 8.152067184448242, 0.023614484816789627, 0.16417723894119263, 0.16388669610023499, 0.005969283636659384, -0.060520656406879425, 0.9996820092201233, -0.086102694272995, -0.2546367645263672, 1.47509765625, 1.354248046875, 0.0154266357421875, 1.4853515625, 1.469970703125, 10.0, 1.423950433731079, 1.5, 1.423950433731079
32658, 4.9081315994262695, -9.701131820678711, -1.7285841703414917, 0.5396428108215332, -0.2975531220436096, -4.941730976104736, 1.321245789527893, -0.7276352047920227, -0.46529194712638855, -0.7961668968200684, -0.9589605927467346, 0.06278470903635025, -0.29138876135663544, 0.35929487569100615, 0.032008419807009775, 9362.0, 30146.0, 35388.0, 9362.0, 8.152067184448242, 0.023614484816789627, 0.16417723894119263, 0.16388669610023499, 0.005193853285163641, -0.06053692474961281, 1.0005470514297485, -0.086102694272995, -0.2546367645263672, 1.47509765625, 1.354248046875, 0.0154266357421875, 1.4853515625, 1.494873046875, 10.0, 1.423950433731079, 1.5, 1.423950433731079
32678, 4.907163143157959, -9.7025728225708, -1.7291138172149658, 0.5396428108215332, -0.2975531220436096, -4.941730976104736, 1.321245789527893, -0.7276352047920227, -0.46529194712638855, -0.796194851398468, -0.9589638113975525, 0.06276562809944153, -0.2939674016311807, 0.3848978300372039, 0.03334089174775479, 9362.0, 30146.0, 35388.0, 9362.0, 8.152067184448242, 0.027590090408921242, 0.23094259202480316, -0.1295013576745987, 0.005159812979400158, -0.06269212067127228, 0.9993884563446045, -0.07042236626148224, 0.08584022521972656, 1.5029296875, 1.354248046875, 0.0154266357421875, 1.487548828125, 1.163818359375, 10.0, 1.423950433731079, 1.5, 1.423950433731079
32688, 4.90704345703125, -9.702665328979492, -1.729082703590393, 0.5396428108215332, -0.2975531220436096, -4.941730976104736, 1.321245789527893, -0.7276352047920227, -0.46529194712638855, -0.7961949706077576, -0.95896315574646, 0.06276922672986984, -0.3001105116026912, 0.3833955836616951, 0.041227720795415077, 9362.0, 30146.0, 35388.0, 9362.0, 8.152067184448242, 0.027590090408921242, 0.23094259202480316, -0.1295013576745987, 0.005369408056139946, -0.060227952897548676, 0.9989445805549622, -0.07042236626148224, 0.08584022521972656, 1.5029296875, 1.112548828125, 1.1168670654296875, 1.487548828125, 1.395263671875, 10.0, 1.423674464225769, 1.5, 1.423674464225769
32698, 4.90730619430542, -9.701665878295898, -1.7299867868423462, 0.5396428108215332, -0.2975531220436096, -4.941730976104736, 1.321245789527893, -0.7276352047920227, -0.46529194712638855, -0.7961651682853699, -0.9589900970458984, 0.06279268115758896, -0.26507508689195153, 0.35925404358403057, 0.02544424591259976, 9362.0, 30146.0, 35388.0, 9362.0, 8.152067184448242, 0.03304005041718483, 0.3640904724597931, -0.12819530069828033, 0.005369408056139946, -0.060227952897548676, 0.9989445805549622, -0.07042236626148224, 0.08584022521972656, 1.5029296875, 1.112548828125, 1.1168670654296875, 1.487548828125, 1.1484375, 10.0, 1.423674464225769, 1.5, 1.423674464225769
32708, 4.90802526473999, -9.705641746520996, -1.7300574779510498, 0.5396428108215332, -0.2975531220436096, -4.941730976104736, 1.321245789527893, -0.7276352047920227, -0.46529194712638855, -0.7961752414703369, -0.9589598178863525, 0.06276357918977737, -0.29336455067025025, 0.3832133031319529, 0.03825139406706023, 9362.0, 30146.0, 35388.0, 9362.0, 8.152067184448242, -0.08169105648994446, 0.2021237462759018, -0.15806187689304352, 0.005369408056139946, -0.060227952897548676, 0.9989445805549622, -0.07042236626148224, 0.08584022521972656, 1.5029296875, 1.458984375, 0.1195831298828125, 1.487548828125, 1.1484375, 10.0, 1.4229612350463867, 1.5, 1.4229612350463867
32718, 4.907037258148193, -9.70836353302002, -1.7307053804397583, 0.5396428108215332, -0.2975531220436096, -4.941730976104736, 1.321245789527893, -0.7276352047920227, -0.46529194712638855, -0.7961694598197937, -0.9589746594429016, 0.06278268992900848, -0.28552761996937737, 0.3655939855973145, 0.026581007185311215, 9362.0, 30146.0, 35388.0, 9362.0, 8.152067184448242, -0.08986528217792511, -0.05185231566429138, 0.21219086647033691, 0.005369408056139946, -0.060227952897548676, 0.9989445805549622, -0.07042236626148224, 0.08584022521972656, 1.5029296875, 1.534423828125, 0.267578125, 1.487548828125, 1.1484375, 10.0, 1.4229824542999268, 1.5, 1.4229824542999268
32728, 4.907436847686768, -9.708291053771973, -1.7298924922943115, 0.7098445296287537, -0.3912602365016937, -4.998926639556885, 1.5155452489852905, -0.8341737985610962, -0.48756036162376404, -0.7961889505386353, -0.9589548707008362, 0.06274736672639847, -0.29743350638762384, 0.38139950902538544, 0.0390356663227892, 9362.0, 30146.0, 35388.0, 9362.0, 8.152067184448242, 0.234999880194664, 0.12678484618663788, 0.2921195328235626, 0.004741996061056852, -0.062256645411252975, 0.9985263347625732, -0.07042236626148224, 0.08584022521972656, 1.5029296875, 1.445068359375, 0.0970306396484375, 1.487548828125, 1.203369140625, 10.0, 1.4229824542999268, 1.5, 1.4229824542999268
32738, 4.908186435699463, -9.710105895996094, -1.7277755737304688, 0.7098445296287537, -0.3912602365016937, -4.998926639556885, 1.5155452489852905, -0.8341737985610962, -0.48756036162376404, -0.7961629033088684, -0.9589887857437134, 0.06281571090221405, -0.2605347341272867, 0.36367678070888587, 0.034162178163854307, 9362.0, 30146.0, 35388.0, 9362.0, 8.152067184448242, 0.1759931445121765, 0.15350911021232605, -0.24065059423446655, 0.004741996061056852, -0.062256645411252975, 0.9985263347625732, -0.07042236626148224, 0.08584022521972656, 1.5029296875, 1.445068359375, 0.0970306396484375, 1.487548828125, 1.203369140625, 10.0, 1.42243492603302, 1.5, 1.42243492603302
32748, 4.908569812774658, -9.712946891784668, -1.7282847166061401, 0.7404792308807373, -0.4081210792064667, -5.008716583251953, 1.547926425933838, -0.8519103527069092, -0.49144625663757324, -0.7961756587028503, -0.9589673280715942, 0.0627652257680893, -0.29105181623006365, 0.3769265737343517, 0.030518400290849245, 9362.0, 30146.0, 35388.0, 9362.0, 8.152067184448242, 0.07771065831184387, 0.07622124254703522, 0.29440298676490784, 0.006848054006695747, -0.061944782733917236, 0.9991585612297058, -0.07042236626148224, 0.08584022521972656, 1.5029296875, 1.446533203125, 0.09930419921875, 1.487548828125, 1.203369140625, 10.0, 1.42243492603302, 1.5, 1.42243492603302
32758, 4.9086785316467285, -9.71438217163086, -1.726503610610962, 0.7404792308807373, -0.4081210792064667, -5.008716583251953, 1.547926425933838, -0.8519103527069092, -0.49144625663757324, -0.7961658835411072, -0.9589555263519287, 0.06278954446315765, -0.28746388529073325, 0.3707300397800566, 0.03459524948775092, 9362.0, 30146.0, 35388.0, 9362.0, 8.152067184448242, -0.12738505005836487, 0.23027470707893372, -0.1577148288488388, 0.006813968997448683, -0.06160494312644005, 0.9974945187568665, -0.07042236626148224, 0.08584022521972656, 1.5029296875, 1.412841796875, 0.0534515380859375, 1.491943359375, 1.156494140625, 10.0, 1.42243492603302, 1.5, 1.42243492603302
32778, 4.908291816711426, -9.71778392791748, -1.7253087759017944, 0.771761953830719, -0.4253368377685547, -5.018582820892334, 1.5803488492965698, -0.8696668744087219, -0.4951554536819458, -0.7961819767951965, -0.9589510560035706, 0.06277253478765488, -0.2956974095525778, 0.38427685271449263, 0.03598598979871606, 9362.0, 30146.0, 35388.0, 9362.0, 8.152067184448242, -0.20150615274906158, -0.0693945363163948, 0.1943751573562622, 0.0064608133397996426, -0.059752486646175385, 0.997588038444519, -0.0761072188615799, -0.06647872924804688, 1.490478515625, 1.458984375, 0.1195831298828125, 1.486083984375, 1.05615234375, 10.0, 1.42243492603302, 1.5, 1.42243492603302
32788, 4.907801151275635, -9.718759536743164, -1.7227725982666016, 0.8036928176879883, -0.44290751218795776, -5.0285258293151855, 1.6127444505691528, -0.8874006271362305, -0.4991113543510437, -0.7961503863334656, -0.9589919447898865, 0.0627923533320427, -0.2599673373145671, 0.36642004795251637, 0.03490823688085424, 9362.0, 30146.0, 35388.0, 9362.0, 8.152067184448242, 0.10538014769554138, 0.053480926901102066, 0.1253901869058609, 0.0064608133397996426, -0.059752486646175385, 0.997588038444519, -0.0761072188615799, -0.06647872924804688, 1.490478515625, 1.458984375, 0.1195831298828125, 1.486083984375, 1.05615234375, 10.0, 1.4196863174438477, 1.5, 1.4196863174438477
32798, 4.90785026550293, -9.719675064086914, -1.721521019935608, 0.8036928176879883, -0.44290751218795776, -5.0285258293151855, 1.6127444505691528, -0.8874006271362305, -0.4991113543510437, -0.7961910367012024, -0.9589669108390808, 0.06275036185979843, -0.3045265701141184, 0.3827012883355394, 0.036520657865869395, 9362.0, 30146.0, 35388.0, 9362.0, 8.152067184448242, 0.21155670285224915, 0.22485481202602386, -0.06321748346090317, 0.0064608133397996426, -0.059752486646175385, 0.997588038444519, -0.0761072188615799, -0.06647872924804688, 1.490478515625, 1.458984375, 0.1195831298828125, 1.48828125, 1.05615234375, 10.0, 1.4201040267944336, 1.5, 1.4201040267944336
32808, 4.908910274505615, -9.721015930175781, -1.7216062545776367, 0.8362718820571899, -0.4608328938484192, -5.038547039031982, 1.6451689004898071, -0.905141294002533, -0.5029566287994385, -0.7961897253990173, -0.9589515924453735, 0.06273609399795532, -0.2949426906600286, 0.38345963403904193, 0.035363936566421506, 9362.0, 30146.0, 35388.0, 9362.0, 8.152067184448242, 0.10551337152719498, -0.0168918389827013, 0.02291104942560196, 0.0064608133397996426, -0.059752486646175385, 0.997588038444519, -0.0761072188615799, -0.06647872924804688, 1.490478515625, 1.458984375, 0.1195831298828125, 1.48828125, 1.559326171875, 10.0, 1.4201040267944336, 1.5, 1.4201040267944336
32818, 4.909367084503174, -9.720196723937988, -1.7226026058197021, 0.8362718820571899, -0.4608328938484192, -5.038547039031982, 1.6451689004898071, -0.905141294002533, -0.5029566287994385, -0.7961667776107788, -0.9589596390724182, 0.06278347223997116, -0.29085304160142456, 0.35344746173151975, 0.03066825517098681, 9362.0, 30146.0, 35388.0, 9362.0, 8.152067184448242, 0.1577642858028412, -0.3039311170578003, -0.13320356607437134, 0.0064608133397996426, -0.059752486646175385, 0.997588038444519, -0.0761072188615799, -0.06647872924804688, 1.490478515625, 1.20849609375, 0.3375701904296875, 1.48828125, 1.559326171875, 10.0, 1.4200983047485352, 1.5, 1.4200983047485352
32828, 4.910226345062256, -9.71915340423584, -1.7237000465393066, 0.8694993853569031, -0.47911301255226135, -5.048645973205566, 1.6775819063186646, -0.9228733777999878, -0.5069121718406677, -0.7961874604225159, -0.9589628577232361, 0.06276829540729523, -0.29672766634969683, 0.3848446913764576, 0.04259793156940844, 9362.0, 30146.0, 35388.0, 9362.0, 8.152067184448242, 0.0061479248106479645, 0.36909833550453186, 0.1234624832868576, 0.006550329737365246, -0.061338696628808975, 0.9974926114082336, -0.0761072188615799, -0.06647872924804688, 1.490478515625, 1.20849609375, 0.3375701904296875, 1.48828125, 1.559326171875, 10.0, 1.4200983047485352, 1.5, 1.4200983047485352
