timeTick, roll, pitch, yaw, stateX, stateY, stateZ, stateVX, stateVY, stateVZ, otX0, otY0, otZ0, otRoll0, otPitch0, otYaw0, left wing, pitch motor, yaw motor, right wing, voltage, roll rate, pitch rate, yaw rate, A_x, A_y, A_z, current, i_raw, v_raw, airflow_voltage, airflow_speed, pot_Pitch, voltage_nKF, kFFx, volt_KF_vel, kP, volt_KF_pos
13792, 0.5281969904899597, -0.28588205575942993, 1.2124080657958984, 0, 0, 0, 0, 0, 0, -0.78098464012146, -0.9611419439315796, 0.06255100667476654, -0.4768255236323097, 0.4375371638206218, -9.456908433762026, 0, 0, 0, 0, 0, 0, 0, 0, 0, 0, 0, 0, 0, 0, 0, 0, 0, 0, 0, 0, 0, 0
13802, 0.5274767875671387, -0.2856118083000183, 1.213943600654602, -9.258612408302724e-06, 1.6710117051843554e-05, -1.2649035453796387, 0.00044903435627929866, -0.0007820807513780892, -0.20826728641986847, -0.7809719443321228, -0.9611372947692871, 0.06256552040576935, -0.46979946940935774, 0.44327521967272787, -9.459712050129854, 9362.0, 30146.0, 35388.0, 9362.0, 0, 0.16415299475193024, 0.029008660465478897, 0.18142089247703552, 0.007505133748054504, -0.06383595615625381, 0.9997066259384155, 0, 0, 0, 0, 0, 0, 0, 0, 0, 0, 0
13812, 0.5275407433509827, -0.2852117717266083, 1.2133240699768066, -2.2308631741907448e-06, 4.431249180925079e-06, -1.2669867277145386, 0.0009565067593939602, -0.0016736985417082906, -0.2083757519721985, -0.7809651494026184, -0.9611313343048096, 0.06255324184894562, -0.46585992412600064, 0.44748405585252726, -9.467839422286618, 9362.0, 30146.0, 35388.0, 9362.0, 0, 0.24422475695610046, -0.28436270356178284, -0.02063000202178955, 0.006243464071303606, -0.06383291631937027, 0.9979077577590942, 0, 0, 0, 1.41943359375, 0.0612945556640625, 0, 1.36962890625, 10.0, 1.410227656364441, 1.5, 1.410227656364441
13822, 0.5282480120658875, -0.28425171971321106, 1.2130390405654907, 9.867145308817271e-06, -1.6762669474701397e-05, -1.2690712213516235, 0.0014630932128056884, -0.00256508681923151, -0.20852312445640564, -0.7809969782829285, -0.961145281791687, 0.06250008940696716, -0.4623619876717614, 0.4438435120028146, -9.472336416796557, 9362.0, 30146.0, 35388.0, 9362.0, 0, 0.27070164680480957, 0.21990127861499786, 0.07661337405443192, 0.006352160591632128, -0.062471792101860046, 1.000841498374939, 0, 0, 0, 1.5673828125, 0.3411102294921875, 1.48974609375, 1.439208984375, 10.0, 1.4105583429336548, 1.5, 1.4105583429336548
13832, 0.528430163860321, -0.28466886281967163, 1.212946891784668, 2.7026766474591568e-05, -4.6883509639883414e-05, -1.2711564302444458, 0.0019688301254063845, -0.003459081519395113, -0.20852117240428925, -0.7809117436408997, -0.9611156582832336, 0.06265474855899811, -0.4536523016568669, 0.42087210296503486, -9.471033669976494, 9362.0, 30146.0, 35388.0, 9362.0, 0, -0.05673782527446747, -0.10501297563314438, 0.02336941659450531, 0.009751826524734497, -0.06361071765422821, 1.0000609159469604, 0, 0, 0, 1.60107421875, 0.4197540283203125, 1.48974609375, 1.505859375, 10.0, 1.4097269773483276, 1.5, 1.4097269773483276
13842, 0.5291754007339478, -0.2829047739505768, 1.212255597114563, 4.924835229758173e-05, -8.594754035584629e-05, -1.273241400718689, 0.002475475426763296, -0.004353731870651245, -0.20848065614700317, -0.780966579914093, -0.9611648321151733, 0.06256181746721268, -0.47886790427738213, 0.4475258261641102, -9.440456492093771, 9362.0, 30146.0, 35388.0, 9362.0, 0, -0.014194663614034653, 0.2979353070259094, -0.225286602973938, 0.00892661139369011, -0.06518696248531342, 0.9981305003166199, 0, 0, 0, 1.528564453125, 0.2548828125, 1.48974609375, 1.5087890625, 10.0, 1.4093631505966187, 1.5, 1.4093631505966187
13852, 0.5292769074440002, -0.2855614423751831, 1.2110607624053955, 7.6517098932527e-05, -0.0001339572190772742, -1.2753268480300903, 0.002978249453008175, -0.0052482131868600845, -0.20860643684864044, -0.780937135219574, -0.9611254334449768, 0.06262029707431793, -0.4448326131170244, 0.4384984135367631, -9.473214647670899, 9362.0, 30146.0, 35388.0, 9362.0, 0, 0.1821906715631485, -0.1873530000448227, -0.19726184010505676, 0.008225764147937298, -0.06390641629695892, 0.9978293776512146, 0, 0, 0, 1.5380859375, 0.2755889892578125, 1.48974609375, 1.4619140625, 10.0, 1.4087879657745361, 1.5, 1.4087879657745361
13862, 0.5301291942596436, -0.2852444648742676, 1.2091697454452515, 0.00010883207869483158, -0.00019090485875494778, -1.277414321899414, 0.0034847185015678406, -0.0061413259245455265, -0.20889219641685486, -0.7809538841247559, -0.9611594080924988, 0.0625421330332756, -0.47732576923149556, 0.4438006953465674, -9.445515330957342, 9362.0, 30146.0, 35388.0, 9362.0, 0, -0.06737593561410904, -0.07637374103069305, -0.01218530535697937, 0.006536638364195824, -0.06344395130872726, 0.9994248151779175, 0, 0, 0, 1.1103515625, 1.1422271728515625, 1.493408203125, 1.54833984375, 10.0, 1.4091769456863403, 1.5, 1.4091769456863403
13872, 0.5303258299827576, -0.28634336590766907, 1.2089496850967407, 0.00014621426817029715, -0.0002568002382759005, -1.2795037031173706, 0.003991712816059589, -0.00703775230795145, -0.20897655189037323, -0.7809317111968994, -0.9611145853996277, 0.06265223771333694, -0.4453314954596737, 0.42005134735302363, -9.479120609218, 9362.0, 30146.0, 35388.0, 9362.0, 0, 0.021557806059718132, -0.21824198961257935, -0.17523548007011414, 0.006609828677028418, -0.06240605562925339, 0.9968670606613159, 0, 0, 0, 1.3505859375, 0.0153045654296875, 1.493408203125, 1.516845703125, 10.0, 1.4092960357666016, 1.5, 1.4092960357666016
13882, 0.5306859016418457, -0.28506311774253845, 1.2080646753311157, 0.00018867140170186758, -0.0003316535730846226, -1.2815947532653809, 0.004499704111367464, -0.00793292373418808, -0.2092309594154358, -0.7809412479400635, -0.961118221282959, 0.06262079626321793, -0.45105842929918055, 0.4383914075061739, -9.478872847300632, 9362.0, 30146.0, 35388.0, 9362.0, 0, -0.21804697811603546, -0.16544735431671143, -0.1354844719171524, 0.00567359384149313, -0.06323571503162384, 0.9963982105255127, 0, 0, 0, 1.48974609375, 0.1755218505859375, 1.49267578125, 1.3564453125, 10.0, 1.4097650051116943, 1.5, 1.4097650051116943
13892, 0.5293272733688354, -0.2835744619369507, 1.2077600955963135, 0.00023619586136192083, -0.0004154590715188533, -1.2836886644363403, 0.005005191080272198, -0.008828186430037022, -0.20954899489879608, -0.7809543013572693, -0.961145281791687, 0.06254938244819641, -0.49339593477123883, 0.4478581678909279, -9.44060196750929, 9362.0, 30146.0, 35388.0, 9362.0, 8.390083312988281, -0.06849760562181473, -0.6593788862228394, -0.1181853786110878, 0.00659454008564353, -0.062220510095357895, 0.9964991211891174, -0.06861904263496399, -0.11127853393554688, 1.48681640625, 1.56298828125, 0.3311767578125, 1.49267578125, 1.5615234375, 10.0, 1.41024649143219, 1.5, 1.41024649143219
13902, 0.5287198424339294, -0.27869707345962524, 1.2077529430389404, 0.00028876197757199407, -0.0005082054412923753, -1.2857857942581177, 0.005508057773113251, -0.009721091017127037, -0.20987676084041595, -0.780952513217926, -0.9611669778823853, 0.06254789978265762, -0.4804757521055574, 0.4498155277142928, -9.44373164796133, 9362.0, 30146.0, 35388.0, 9362.0, 8.390083312988281, -0.03626702353358269, 0.03194272518157959, 0.16848726570606232, 0.008655661717057228, -0.06395416706800461, 0.9981978535652161, -0.06861904263496399, -0.11127853393554688, 1.48681640625, 1.576171875, 0.361328125, 1.486083984375, 1.43994140625, 10.0, 1.4107568264007568, 1.5, 1.4107568264007568
13912, 0.5292887687683105, -0.2790984809398651, 1.208261489868164, 0.00034631817834451795, -0.0006098822341300547, -1.2878855466842651, 0.006003188900649548, -0.010614259168505669, -0.21008050441741943, -0.7809632420539856, -0.9611446261405945, 0.0625460222363472, -0.47780915863751455, 0.4347105526803148, -9.45465136261191, 9362.0, 30146.0, 35388.0, 9362.0, 8.390083312988281, 0.1606789231300354, -0.24057957530021667, 0.02349611185491085, 0.007565080653876066, -0.06501996517181396, 0.998104453086853, -0.06861904263496399, -0.11127853393554688, 1.48681640625, 1.5498046875, 0.3014678955078125, 1.486083984375, 1.487548828125, 10.0, 1.4102731943130493, 1.5, 1.4102731943130493
13922, 0.5298776030540466, -0.2781370282173157, 1.2083384990692139, 0.0004088296554982662, -0.000720496173016727, -1.289987325668335, 0.006499113980680704, -0.01150852907449007, -0.21026794612407684, -0.7809285521507263, -0.9611191749572754, 0.06260818243026733, -0.4515209208388773, 0.43274473663157664, -9.485817616655833, 9362.0, 30146.0, 35388.0, 9362.0, 8.390083312988281, -0.21223972737789154, -0.08187507092952728, -0.1199430301785469, 0.008500942029058933, -0.0636703372001648, 0.9984502792358398, -0.06861904263496399, -0.11127853393554688, 1.48681640625, 1.169677734375, 0.5817718505859375, 1.491943359375, 1.4208984375, 10.0, 1.4106361865997314, 1.5, 1.4106361865997314
13932, 0.5284777879714966, -0.27775970101356506, 1.2082139253616333, 0.0004762932367157191, -0.0008400597143918276, -1.2920907735824585, 0.00699360016733408, -0.012404186651110649, -0.210418239235878, -0.780903160572052, -0.9611110687255859, 0.06263406574726105, -0.454615064877296, 0.43016432304233376, -9.472715885928068, 9362.0, 30146.0, 35388.0, 9362.0, 8.390083312988281, 0.03969298675656319, 0.24331256747245789, -0.0936189815402031, 0.007337483111768961, -0.06411433219909668, 0.9981194734573364, -0.06861904263496399, -0.11127853393554688, 1.48681640625, 1.505859375, 0.2073974609375, 1.491943359375, 1.34033203125, 10.0, 1.410654902458191, 1.5, 1.410654902458191
13942, 0.5288413166999817, -0.2795087695121765, 1.2089416980743408, 0.000548698240891099, -0.0009685680270195007, -1.2941956520080566, 0.0074874041602015495, -0.01329746749252081, -0.21056734025478363, -0.7809475064277649, -0.9611262083053589, 0.06262342631816864, -0.45039511894413536, 0.4370445874179154, -9.486119830134488, 9362.0, 30146.0, 35388.0, 9362.0, 8.390083312988281, 0.02297261916100979, -0.08723165094852448, -0.07699050009250641, 0.008203968405723572, -0.06495697051286697, 0.9966745972633362, -0.06861904263496399, -0.11127853393554688, 1.48681640625, 1.5498046875, 0.3014678955078125, 1.4912109375, 1.1630859375, 10.0, 1.410185694694519, 1.5, 1.410185694694519
13952, 0.528724730014801, -0.27999910712242126, 1.2087986469268799, 0.0006260535446926951, -0.0011060069082304835, -1.2963026762008667, 0.00798365380614996, -0.014190305955708027, -0.21082615852355957, -0.7809478640556335, -0.9611385464668274, 0.06255935877561569, -0.47481999636368716, 0.4349888573105716, -9.44851911278913, 9362.0, 30146.0, 35388.0, 9362.0, 8.390083312988281, 0.011267993599176407, 0.36637985706329346, 0.14064528048038483, 0.006780348718166351, -0.06586696207523346, 0.9986952543258667, -0.06861904263496399, -0.11127853393554688, 1.48681640625, 1.568115234375, 0.3428955078125, 1.4912109375, 1.23046875, 10.0, 1.4097880125045776, 1.5, 1.4097880125045776
13962, 0.5283527374267578, -0.28288865089416504, 1.2101362943649292, 0.0007083764066919684, -0.0012523747282102704, -1.2984120845794678, 0.008480933494865894, -0.015083248727023602, -0.211048424243927, -0.7809584140777588, -0.9611456394195557, 0.06254912912845612, -0.48480236803667354, 0.44423597804259884, -9.448408328057951, 9362.0, 30146.0, 35388.0, 9362.0, 8.390083312988281, -0.15895430743694305, 0.1321093887090683, 0.009548358619213104, 0.00827355682849884, -0.06336284428834915, 0.9986264705657959, -0.06861904263496399, -0.11127853393554688, 1.48681640625, 1.57763671875, 0.3647918701171875, 1.493408203125, 1.38427734375, 10.0, 1.4090951681137085, 1.5, 1.4090951681137085
13972, 0.5277665257453918, -0.28323137760162354, 1.2107046842575073, 0.0007956998306326568, -0.0014076735824346542, -1.300523042678833, 0.008983762934803963, -0.01597652956843376, -0.21115218102931976, -0.7809140682220459, -0.9611206650733948, 0.06264327466487885, -0.4514578525990281, 0.426305754970258, -9.476059577364222, 9362.0, 30146.0, 35388.0, 9362.0, 8.390083312988281, -0.03354013338685036, 0.02127731777727604, 0.002937756944447756, 0.009312290698289871, -0.061023809015750885, 0.9974765777587891, -0.06861904263496399, -0.11127853393554688, 1.48681640625, 1.552734375, 0.3080596923828125, 1.493408203125, 1.56884765625, 10.0, 1.4095925092697144, 1.5, 1.4095925092697144
13982, 0.5278398394584656, -0.2848576009273529, 1.2111530303955078, 0.000888050242792815, -0.001571892760694027, -1.302635908126831, 0.009486319497227669, -0.01686730422079563, -0.21141919493675232, -0.7809284925460815, -0.9611263275146484, 0.06260906159877777, -0.4556861156678098, 0.42529834209076967, -9.472161133735776, 9362.0, 30146.0, 35388.0, 9362.0, 8.390083312988281, -0.08380420506000519, -0.38528701663017273, -0.07807662338018417, 0.00850522518157959, -0.061527177691459656, 0.9988155961036682, -0.06861904263496399, -0.11127853393554688, 1.48681640625, 1.07666015625, 1.58135986328125, 1.493408203125, 1.56591796875, 10.0, 1.4087953567504883, 1.5, 1.4087953567504883
13992, 0.5269968509674072, -0.2826842665672302, 1.2108465433120728, 0.000985443708486855, -0.0017450263258069754, -1.3047508001327515, 0.00999237596988678, -0.017759408801794052, -0.2115478813648224, -0.7809607982635498, -0.9611360430717468, 0.06252936273813248, -0.4674475190303003, 0.4463438514365521, -9.461565760546623, 9362.0, 30146.0, 35388.0, 9362.0, 8.390083312988281, -0.04731862246990204, 0.2934957444667816, 0.060476601123809814, 0.006057096179574728, -0.06201336532831192, 0.9975218772888184, -0.07793466001749039, -0.03959846496582031, 1.49267578125, 1.524169921875, 0.2455596923828125, 1.493408203125, 1.12939453125, 10.0, 1.409354329109192, 1.5, 1.409354329109192
14002, 0.526022732257843, -0.2859008312225342, 1.2122952938079834, 0.0010878760367631912, -0.0019270688062533736, -1.3068674802780151, 0.01049408782273531, -0.01864907331764698, -0.2117941975593567, -0.7809211611747742, -0.961101233959198, 0.06258422136306763, -0.4464183063198677, 0.4308948678285276, -9.48770326250965, 9362.0, 30146.0, 35388.0, 9362.0, 8.390083312988281, 0.049916431307792664, 0.41474243998527527, -0.23662088811397552, 0.007362596690654755, -0.06365355104207993, 0.9971358776092529, -0.07793466001749039, -0.03959846496582031, 1.49267578125, 1.434814453125, 0.081787109375, 1.49267578125, 1.578369140625, 10.0, 1.40841805934906, 1.5, 1.40841805934906
14012, 0.5264793634414673, -0.28883081674575806, 1.2107163667678833, 0.0011953524081036448, -0.0021179981995373964, -1.308986783027649, 0.011001154780387878, -0.019536824896931648, -0.21205566823482513, -0.78095543384552, -0.9611456394195557, 0.06252947449684143, -0.4700970368558756, 0.45010940772513663, -9.450603788267895, 9362.0, 30146.0, 35388.0, 9362.0, 8.390083312988281, -0.0820901021361351, 0.23040877282619476, 0.07553606480360031, 0.009818825870752335, -0.06289224326610565, 0.9982963800430298, -0.07793466001749039, -0.03959846496582031, 1.49267578125, 1.311767578125, 0.0348052978515625, 1.49267578125, 1.57470703125, 10.0, 1.4089012145996094, 1.5, 1.4089012145996094
14022, 0.525609016418457, -0.29185986518859863, 1.211666226387024, 0.0013079250929877162, -0.002317809732630849, -1.3111084699630737, 0.011513394303619862, -0.02042549103498459, -0.21229058504104614, -0.7809405326843262, -0.96111661195755, 0.06258926540613174, -0.4470510534403203, 0.42767817571851197, -9.4904639909208, 9362.0, 30146.0, 35388.0, 9362.0, 8.390083312988281, -0.21226459741592407, -0.20764951407909393, -0.13213665783405304, 0.008815746754407883, -0.06354144960641861, 0.9992064237594604, -0.07793466001749039, -0.03959846496582031, 1.49267578125, 1.628173828125, 0.484893798828125, 1.48828125, 1.55859375, 10.0, 1.4094038009643555, 1.5, 1.4094038009643555
14032, 0.5239460468292236, -0.2899307310581207, 1.2110599279403687, 0.001425650087185204, -0.0025265070144087076, -1.3132318258285522, 0.01203159336000681, -0.02131395787000656, -0.21237201988697052, -0.7809678912162781, -0.9611424803733826, 0.06252741813659668, -0.475519215508097, 0.4485680372507659, -9.467421604609557, 9362.0, 30146.0, 35388.0, 9362.0, 8.390083312988281, -0.07897990196943283, -0.0054996744729578495, -0.06959205120801926, 0.00685834838077426, -0.065386563539505, 0.9982931017875671, -0.07793466001749039, -0.03959846496582031, 1.49267578125, 1.579833984375, 0.369873046875, 1.48828125, 1.54833984375, 10.0, 1.410007357597351, 1.5, 1.410007357597351
14042, 0.5234392285346985, -0.29019778966903687, 1.2109127044677734, 0.0015485371695831418, -0.0027440697886049747, -1.3153564929962158, 0.012545811012387276, -0.022198593243956566, -0.2125706672668457, -0.7809743285179138, -0.9611475467681885, 0.062550850212574, -0.4695458489638278, 0.4456297439649006, -9.45460376855666, 9362.0, 30146.0, 35388.0, 9362.0, 8.390083312988281, -0.1635051965713501, 0.1581358015537262, 0.09453512728214264, 0.006954648531973362, -0.06403125077486038, 0.9974244236946106, -0.07793466001749039, -0.03959846496582031, 1.49267578125, 1.445068359375, 0.0970306396484375, 1.48388671875, 1.57470703125, 10.0, 1.4105156660079956, 1.5, 1.4105156660079956
14052, 0.5223519802093506, -0.2899307906627655, 1.2110521793365479, 0.0016765681793913245, -0.0029704738408327103, -1.3174833059310913, 0.013060396537184715, -0.023082228377461433, -0.21278299391269684, -0.7809377908706665, -0.9611064195632935, 0.06260424852371216, -0.4531066534861879, 0.4331537164365784, -9.483130049269699, 9362.0, 30146.0, 35388.0, 9362.0, 8.390083312988281, 0.14536046981811523, 0.13201816380023956, 0.14247865974903107, 0.0057636140845716, -0.06220231205224991, 0.9961891770362854, -0.07793466001749039, -0.03959846496582031, 1.49267578125, 1.53369140625, 0.265960693359375, 1.48388671875, 1.58935546875, 10.0, 1.4110525846481323, 1.5, 1.4110525846481323
14062, 0.5232982635498047, -0.29189538955688477, 1.2129895687103271, 0.0018097383435815573, -0.003205697750672698, -1.319612979888916, 0.013573653064668179, -0.02396252378821373, -0.21315769851207733, -0.780953049659729, -0.9611148238182068, 0.06260749697685242, -0.4558366867698682, 0.42818325394901535, -9.476054110758744, 9362.0, 30146.0, 35388.0, 9362.0, 8.390083312988281, 0.19332726299762726, 0.20976166427135468, -0.19588904082775116, 0.007124482188373804, -0.06315422058105469, 0.9978537559509277, -0.07793466001749039, -0.03959846496582031, 1.49267578125, 1.327880859375, 0.0218353271484375, 1.496337890625, 1.4619140625, 10.0, 1.4105637073516846, 1.5, 1.4105637073516846
14072, 0.5248575210571289, -0.29236096143722534, 1.2128814458847046, 0.0019480612827464938, -0.003449737560003996, -1.3217458724975586, 0.014090942218899727, -0.024845456704497337, -0.21341119706630707, -0.7810027599334717, -0.9611510634422302, 0.06250685453414917, -0.4850565006799761, 0.453309428481532, -9.446119229262047, 9362.0, 30146.0, 35388.0, 9362.0, 8.390083312988281, 0.1359805464744568, 0.3636634647846222, 0.20805183053016663, 0.00614464096724987, -0.06361473351716995, 0.997810423374176, -0.07793466001749039, -0.03959846496582031, 1.49267578125, 1.44580078125, 0.098236083984375, 1.496337890625, 1.5908203125, 10.0, 1.410958170890808, 1.5, 1.410958170890808
14082, 0.5264090299606323, -0.29592639207839966, 1.214797854423523, 0.0020915628410875797, -0.0037026226054877043, -1.3238810300827026, 0.01460939645767212, -0.0257315244525671, -0.21360914409160614, -0.7809944748878479, -0.961129903793335, 0.06251771003007889, -0.47752266058359555, 0.456756954829757, -9.465106721633276, 9362.0, 30146.0, 35388.0, 9362.0, 8.390083312988281, -0.10632424056529999, 0.05987119302153587, -0.1602305918931961, 0.006915203761309385, -0.06244523823261261, 0.9960572123527527, -0.07793466001749039, -0.03959846496582031, 1.49267578125, 1.2861328125, 0.0716094970703125, 1.491943359375, 1.59228515625, 10.0, 1.410273790359497, 1.5, 1.410273790359497
14092, 0.5269991755485535, -0.29760313034057617, 1.21420156955719, 0.002240275265648961, -0.003964372910559177, -1.3260189294815063, 0.015133061446249485, -0.02661854587495327, -0.2139808088541031, -0.7810073494911194, -0.9611371159553528, 0.06249012425541878, -0.4788737303549169, 0.44723648563544316, -9.468216475211882, 9362.0, 30146.0, 35388.0, 9362.0, 8.390083312988281, -0.29566508531570435, 0.2844644784927368, 0.049781396985054016, 0.006531803403049707, -0.06370364129543304, 0.9980463981628418, -0.059488918632268906, -0.2546367645263672, 1.47509765625, 1.30810546875, 0.0388031005859375, 1.491943359375, 1.49267578125, 10.0, 1.4106061458587646, 1.5, 1.4106061458587646
14102, 0.5262097120285034, -0.29812583327293396, 1.2134937047958374, 0.002394242212176323, -0.00423500407487154, -1.3281599283218384, 0.015660323202610016, -0.027507741004228592, -0.21421845257282257, -0.781025230884552, -0.9611132144927979, 0.06243600696325302, -0.4921729972629528, 0.4393900242012023, -9.455122384873604, 9362.0, 30146.0, 35388.0, 9362.0, 8.390083312988281, 0.058294735848903656, 0.05970484018325806, 0.16621004045009613, 0.0068231369368731976, -0.06378193199634552, 0.9978011846542358, -0.059488918632268906, -0.2546367645263672, 1.47509765625, 1.185791015625, 0.4698638916015625, 1.48974609375, 1.5322265625, 10.0, 1.4109724760055542, 1.5, 1.4109724760055542
14112, 0.5273327827453613, -0.3000101149082184, 1.2134188413619995, 0.0025534871965646744, -0.004514522384852171, -1.3303030729293823, 0.016188642010092735, -0.028395894914865494, -0.21441932022571564, -0.7810367941856384, -0.9611372351646423, 0.06245001405477524, -0.48181574871373484, 0.4376217326813787, -9.454592562181512, 9362.0, 30146.0, 35388.0, 9362.0, 8.390083312988281, 0.0794999748468399, -0.163094162940979, -0.07983904331922531, 0.007416776847094297, -0.061559733003377914, 0.9995741248130798, -0.059488918632268906, -0.2546367645263672, 1.47509765625, 1.576171875, 0.361328125, 1.48974609375, 1.435546875, 10.0, 1.410880446434021, 1.5, 1.410880446434021
14122, 0.5277754068374634, -0.2997739315032959, 1.212611436843872, 0.002718033967539668, -0.004802935291081667, -1.3324477672576904, 0.01672070473432541, -0.02928672917187214, -0.21453051269054413, -0.7810379266738892, -0.9611319899559021, 0.06241066753864288, -0.48342303548267906, 0.436478234327069, -9.45159807378831, 9362.0, 30146.0, 35388.0, 9362.0, 8.390083312988281, -0.07040233910083771, 0.3313118815422058, 0.07319743186235428, 0.008150500245392323, -0.06417278200387955, 0.9979751706123352, -0.059488918632268906, -0.2546367645263672, 1.47509765625, 1.354248046875, 0.0154266357421875, 1.4912109375, 1.5498046875, 10.0, 1.4109753370285034, 1.5, 1.4109753370285034
14132, 0.5272352695465088, -0.30067378282546997, 1.2122416496276855, 0.002718033967539668, -0.004802935291081667, -1.3324477672576904, 0.01672070473432541, -0.02928672917187214, -0.21453051269054413, -0.7810147404670715, -0.9611388444900513, 0.062435049563646317, -0.4930581675335253, 0.44346448246602677, -9.446021169305661, 9362.0, 30146.0, 35388.0, 9362.0, 8.390083312988281, 0.06949813663959503, -0.04130367189645767, -0.2735002040863037, 0.007577613461762667, -0.06263330578804016, 0.9966534376144409, -0.059488918632268906, -0.2546367645263672, 1.47509765625, 1.40771484375, 0.0478363037109375, 1.4912109375, 1.56591796875, 10.0, 1.4109753370285034, 1.5, 1.4109753370285034
14142, 0.527681827545166, -0.3014587461948395, 1.209986925125122, 0.002718033967539668, -0.004802935291081667, -1.3324477672576904, 0.01672070473432541, -0.02928672917187214, -0.21453051269054413, -0.7810171246528625, -0.961125373840332, 0.06244179978966713, -0.4845562017459119, 0.44031011499689043, -9.454038360999911, 9362.0, 30146.0, 35388.0, 9362.0, 8.390083312988281, 0.21791435778141022, 0.33076193928718567, 0.055911313742399216, 0.008879058994352818, -0.06354614347219467, 0.9958058595657349, -0.059488918632268906, -0.2546367645263672, 1.47509765625, 1.40771484375, 0.0478363037109375, 1.48974609375, 1.56591796875, 10.0, 1.4109753370285034, 1.5, 1.4109753370285034
14162, 0.5282297134399414, -0.3066008687019348, 1.210288166999817, 0.003243590472266078, -0.0057216002605855465, -1.3388935327529907, 0.0183173269033432, -0.031955868005752563, -0.21535995602607727, -0.7810280323028564, -0.9611258506774902, 0.06243794038891792, -0.48874355585635737, 0.44182693023438446, -9.459191184665276, 9362.0, 30146.0, 35388.0, 9362.0, 8.390083312988281, 0.01986013352870941, 0.19587023556232452, 0.26947760581970215, 0.006509413477033377, -0.06372986733913422, 0.9978449940681458, -0.059488918632268906, -0.2546367645263672, 1.47509765625, 1.40771484375, 0.0478363037109375, 1.48828125, 1.56591796875, 10.0, 1.4109753370285034, 1.5, 1.4109753370285034
14172, 0.5289314389228821, -0.30875617265701294, 1.2117949724197388, 0.0036207230295985937, -0.006378543563187122, -1.3432064056396484, 0.019398175179958344, -0.03373829275369644, -0.21589292585849762, -0.7810130715370178, -0.9611203670501709, 0.062454838305711746, -0.4901568478532316, 0.4480845422385471, -9.452537772890944, 9362.0, 30146.0, 35388.0, 9362.0, 8.390083312988281, 0.0256864745169878, 0.29338571429252625, 0.28003987669944763, 0.005849247798323631, -0.06316974759101868, 0.9971043467521667, -0.059488918632268906, -0.2546367645263672, 1.47509765625, 1.40771484375, 0.0478363037109375, 1.48828125, 1.56591796875, 10.0, 1.4109753370285034, 1.5, 1.4109753370285034
14182, 0.5287558436393738, -0.3101333975791931, 1.2133063077926636, 0.0036207230295985937, -0.006378543563187122, -1.3432064056396484, 0.019398175179958344, -0.03373829275369644, -0.21589292585849762, -0.781018853187561, -0.961115837097168, 0.0624430812895298, -0.4817819228931864, 0.4418281982502208, -9.449327822285994, 9362.0, 30146.0, 35388.0, 9362.0, 8.390083312988281, 0.047676682472229004, 0.08755504339933395, 0.14073997735977173, 0.007679114118218422, -0.06227286532521248, 0.9972478747367859, -0.059488918632268906, -0.2546367645263672, 1.47509765625, 1.342529296875, 0.0161895751953125, 1.48828125, 1.56591796875, 10.0, 1.4109753370285034, 1.5, 1.4109753370285034
14202, 0.5296669602394104, -0.3126325011253357, 1.2129334211349487, 0.004019622690975666, -0.007071144878864288, -1.3475295305252075, 0.020492898300290108, -0.035521477460861206, -0.216437429189682, -0.7810243368148804, -0.9611107707023621, 0.06244649365544319, -0.48763761311838866, 0.4401480687469643, -9.443483228722028, 9362.0, 30146.0, 35388.0, 9362.0, 8.390083312988281, 0.02804056741297245, -0.021811893209815025, 0.20685231685638428, 0.0073743052780628204, -0.06383553892374039, 0.9987635612487793, -0.059488918632268906, -0.2546367645263672, 1.47509765625, 1.342529296875, 0.0161895751953125, 1.490478515625, 1.4912109375, 10.0, 1.4109753370285034, 1.5, 1.4109753370285034
14212, 0.5307194590568542, -0.31276705861091614, 1.214636206626892, 0.004019622690975666, -0.007071144878864288, -1.3475295305252075, 0.020492898300290108, -0.035521477460861206, -0.216437429189682, -0.7810131311416626, -0.9611186981201172, 0.06245701014995575, -0.49007520501169727, 0.4374524783306697, -9.459228663412828, 9362.0, 30146.0, 35388.0, 9362.0, 8.390083312988281, 0.055544354021549225, 0.28897419571876526, 0.08913373947143555, 0.008516799658536911, -0.06419596076011658, 0.9986028075218201, -0.059488918632268906, -0.2546367645263672, 1.47509765625, 1.342529296875, 0.0161895751953125, 1.490478515625, 1.55712890625, 10.0, 1.4109753370285034, 1.5, 1.4109753370285034
14222, 0.5311247110366821, -0.3149416148662567, 1.216119647026062, 0.004019622690975666, -0.007071144878864288, -1.3475295305252075, 0.020492898300290108, -0.035521477460861206, -0.216437429189682, -0.7810084819793701, -0.9611225128173828, 0.062432292848825455, -0.4904496496316987, 0.4345799708390814, -9.453807318637292, 9362.0, 30146.0, 35388.0, 9362.0, 8.390083312988281, 0.10254096239805222, -0.002677164040505886, -0.24362339079380035, 0.0073861535638570786, -0.06608392298221588, 0.9956619143486023, -0.059488918632268906, -0.2546367645263672, 1.47509765625, 1.342529296875, 0.0161895751953125, 1.491943359375, 1.55712890625, 10.0, 1.4109753370285034, 1.5, 1.4109753370285034
14232, 0.5301694273948669, -0.31562477350234985, 1.2153518199920654, 0.004019622690975666, -0.007071144878864288, -1.3475295305252075, 0.020492898300290108, -0.035521477460861206, -0.216437429189682, -0.781008780002594, -0.9611159563064575, 0.06244758144021034, -0.484944870208185, 0.4363335985837864, -9.447536808188964, 9362.0, 30146.0, 35388.0, 9362.0, 8.390083312988281, 0.12104083597660065, 0.018970444798469543, -0.07310744374990463, 0.006786100100725889, -0.06141791120171547, 0.9982712268829346, -0.059488918632268906, -0.2546367645263672, 1.47509765625, 1.342529296875, 0.0161895751953125, 1.491943359375, 1.445068359375, 10.0, 1.4109753370285034, 1.5, 1.4109753370285034
14242, 0.5317317843437195, -0.31463101506233215, 1.2139320373535156, 0.004019622690975666, -0.007071144878864288, -1.3475295305252075, 0.020492898300290108, -0.035521477460861206, -0.216437429189682, -0.7810130715370178, -0.961118221282959, 0.06245404854416847, -0.48778653106668196, 0.440969786999716, -9.457345466348146, 9362.0, 30146.0, 35388.0, 9362.0, 8.390083312988281, 0.017541678622364998, -0.14222215116024017, -0.26529058814048767, 0.006786100100725889, -0.06141791120171547, 0.9982712268829346, -0.059488918632268906, -0.2546367645263672, 1.47509765625, 1.515380859375, 0.2270050048828125, 1.491943359375, 1.546875, 10.0, 1.4109753370285034, 1.5, 1.4109753370285034
14252, 0.5320547223091125, -0.3134293258190155, 1.2122153043746948, 0.005348695907741785, -0.00936333928257227, -1.3605616092681885, 0.0238199345767498, -0.04088951274752617, -0.217830628156662, -0.7810227274894714, -0.9611195921897888, 0.06245659664273262, -0.48942326526520696, 0.44237765723158873, -9.45764053338841, 9362.0, 30146.0, 35388.0, 9362.0, 8.390083312988281, 0.011959156952798367, 0.15827231109142303, 0.38746529817581177, 0.007467856630682945, -0.06509041041135788, 0.9970461130142212, -0.059488918632268906, -0.2546367645263672, 1.47509765625, 1.515380859375, 0.2270050048828125, 1.491943359375, 1.546875, 10.0, 1.4109753370285034, 1.5, 1.4109753370285034
14272, 0.5295992493629456, -0.31620311737060547, 1.213700532913208, 0.005836195778101683, -0.01019905973225832, -1.364924669265747, 0.024931708350777626, -0.04268184304237366, -0.21855810284614563, -0.7810279130935669, -0.9611172676086426, 0.06242837756872177, -0.4819854305625773, 0.4331994110252424, -9.45270702550532, 9362.0, 30146.0, 35388.0, 9362.0, 8.390083312988281, 0.09046173095703125, -0.054048147052526474, -0.29325661063194275, 0.006278381682932377, -0.06442692130804062, 0.995003342628479, -0.059488918632268906, -0.2546367645263672, 1.47509765625, 1.515380859375, 0.2270050048828125, 1.490478515625, 1.546875, 10.0, 1.4109753370285034, 1.5, 1.4109753370285034
14282, 0.5300430655479431, -0.3158593475818634, 1.2129573822021484, 0.005836195778101683, -0.01019905973225832, -1.364924669265747, 0.024931708350777626, -0.04268184304237366, -0.21855810284614563, -0.7810043692588806, -0.9611347913742065, 0.06242651492357254, -0.48085889858533803, 0.4426231412979007, -9.460312489028471, 9362.0, 30146.0, 35388.0, 9362.0, 8.390083312988281, 0.1451510787010193, -0.0426502600312233, 0.16686682403087616, 0.006278381682932377, -0.06442692130804062, 0.995003342628479, -0.059488918632268906, -0.2546367645263672, 1.47509765625, 1.515380859375, 0.2270050048828125, 1.49267578125, 1.546875, 10.0, 1.4109753370285034, 1.5, 1.4109753370285034
14292, 0.5306906700134277, -0.3137931823730469, 1.2128098011016846, 0.006346023175865412, -0.011070581153035164, -1.3692982196807861, 0.026050440967082977, -0.04447026178240776, -0.21884500980377197, -0.7810257077217102, -0.9611058831214905, 0.062440648674964905, -0.48563142287322636, 0.4442982038295895, -9.454938304215577, 9362.0, 30146.0, 35388.0, 9362.0, 8.390083312988281, 0.1451510787010193, -0.0426502600312233, 0.16686682403087616, 0.0071723912842571735, -0.05984428524971008, 0.9957041144371033, -0.059488918632268906, -0.2546367645263672, 1.47509765625, 1.515380859375, 0.2270050048828125, 1.49267578125, 1.546875, 10.0, 1.4109753370285034, 1.5, 1.4109753370285034
14302, 0.5298181772232056, -0.3136018216609955, 1.2110917568206787, 0.006346023175865412, -0.011070581153035164, -1.3692982196807861, 0.026050440967082977, -0.04447026178240776, -0.21884500980377197, -0.7810243368148804, -0.9611276984214783, 0.06246017664670944, -0.4908186770712685, 0.4517365582217394, -9.458849362484578, 9362.0, 30146.0, 35388.0, 9362.0, 8.390083312988281, 0.0897650420665741, 0.28909358382225037, 0.07342462241649628, 0.007294902112334967, -0.06252482533454895, 0.9950361251831055, -0.059488918632268906, -0.2546367645263672, 1.47509765625, 1.515380859375, 0.2270050048828125, 1.49267578125, 1.587890625, 10.0, 1.4109753370285034, 1.5, 1.4109753370285034
14312, 0.530139684677124, -0.3150739371776581, 1.2118520736694336, 0.006878106854856014, -0.011977839283645153, -1.373684048652649, 0.027157552540302277, -0.046254534274339676, -0.21977019309997559, -0.781013548374176, -0.9611173272132874, 0.062430378049612045, -0.4881772894761157, 0.4302410131391241, -9.455822532321008, 9362.0, 30146.0, 35388.0, 9362.0, 8.390083312988281, 0.04764930531382561, -0.35256925225257874, -0.021234022453427315, 0.00983488280326128, -0.06288538873195648, 0.9971634149551392, -0.059488918632268906, -0.2546367645263672, 1.47509765625, 1.18798828125, 0.455841064453125, 1.49267578125, 1.587890625, 10.0, 1.4109753370285034, 1.5, 1.4109753370285034
14322, 0.5305052399635315, -0.312959223985672, 1.2109169960021973, 0.006878106854856014, -0.011977839283645153, -1.373684048652649, 0.027157552540302277, -0.046254534274339676, -0.21977019309997559, -0.7810080647468567, -0.9611164927482605, 0.062390949577093124, -0.48080693152833276, 0.43754862356544777, -9.460500312663664, 9362.0, 30146.0, 35388.0, 9362.0, 8.390083312988281, -0.301388144493103, -0.2201206535100937, 0.0018533830298110843, 0.009847919456660748, -0.062003228813409805, 0.9978660345077515, -0.059488918632268906, -0.2546367645263672, 1.47509765625, 1.18798828125, 0.455841064453125, 1.49267578125, 1.5615234375, 10.0, 1.4109753370285034, 1.5, 1.4109753370285034
14332, 0.5285810232162476, -0.3111115097999573, 1.2109102010726929, 0.006878106854856014, -0.011977839283645153, -1.373684048652649, 0.027157552540302277, -0.046254534274339676, -0.21977019309997559, -0.7810099124908447, -0.9611138701438904, 0.062432143837213516, -0.48757909747662626, 0.43409242909731915, -9.448249740929398, 9362.0, 30146.0, 35388.0, 9362.0, 8.390083312988281, -0.16080929338932037, -0.15071067214012146, -0.2528444528579712, 0.008711002767086029, -0.061643440276384354, 0.9984421133995056, -0.059488918632268906, -0.2546367645263672, 1.47509765625, 1.25830078125, 0.137664794921875, 1.49267578125, 1.5615234375, 10.0, 1.4109753370285034, 1.5, 1.4109753370285034
14342, 0.5264926552772522, -0.30937087535858154, 1.2100800275802612, 0.006878106854856014, -0.011977839283645153, -1.373684048652649, 0.027157552540302277, -0.046254534274339676, -0.21977019309997559, -0.7810109853744507, -0.9611210227012634, 0.06244741380214691, -0.4829870475829168, 0.4503739040677601, -9.460885417436408, 9362.0, 30146.0, 35388.0, 9362.0, 8.390083312988281, 0.14582328498363495, 0.24467803537845612, 0.13980025053024292, 0.005988074000924826, -0.06352755427360535, 0.9981306791305542, -0.059488918632268906, -0.2546367645263672, 1.47509765625, 1.209228515625, 0.3337554931640625, 1.49267578125, 1.5615234375, 10.0, 1.4109753370285034, 1.5, 1.4109753370285034
14352, 0.5266789197921753, -0.31071025133132935, 1.2107328176498413, 0.006878106854856014, -0.011977839283645153, -1.373684048652649, 0.027157552540302277, -0.046254534274339676, -0.21977019309997559, -0.7810190916061401, -0.9611205458641052, 0.06244747340679169, -0.4859611954560855, 0.43797144783772524, -9.45547289490035, 9362.0, 30146.0, 35388.0, 9362.0, 8.390083312988281, 0.2515183091163635, 0.10715547204017639, 0.17665524780750275, 0.005988074000924826, -0.06352755427360535, 0.9981306791305542, -0.059488918632268906, -0.2546367645263672, 1.47509765625, 1.209228515625, 0.3337554931640625, 1.49267578125, 1.5615234375, 10.0, 1.4109753370285034, 1.5, 1.4109753370285034
14362, 0.5272565484046936, -0.3122045397758484, 1.212497353553772, 0.006878106854856014, -0.011977839283645153, -1.373684048652649, 0.027157552540302277, -0.046254534274339676, -0.21977019309997559, -0.7809963822364807, -0.9611144065856934, 0.06245862692594528, -0.487225807875135, 0.4432695021177153, -9.455812503328172, 9362.0, 30146.0, 35388.0, 9362.0, 8.390083312988281, -0.028545834124088287, 0.01957479491829872, 0.0181522648781538, 0.005988074000924826, -0.06352755427360535, 0.9981306791305542, -0.059488918632268906, -0.2546367645263672, 1.47509765625, 1.483154296875, 0.162841796875, 1.49267578125, 1.5615234375, 10.0, 1.4109753370285034, 1.5, 1.4109753370285034
14372, 0.526439905166626, -0.3123374581336975, 1.212567687034607, 0.006878106854856014, -0.011977839283645153, -1.373684048652649, 0.027157552540302277, -0.046254534274339676, -0.21977019309997559, -0.7810122966766357, -0.9611181020736694, 0.062430743128061295, -0.48369994468519006, 0.445826757503454, -9.45361619900683, 9362.0, 30146.0, 35388.0, 9362.0, 8.390083312988281, -0.11635196954011917, -0.05729743838310242, 0.09677726030349731, 0.00847735907882452, -0.0613752044737339, 0.997647225856781, -0.059488918632268906, -0.2546367645263672, 1.47509765625, 1.177734375, 0.5238800048828125, 1.49267578125, 1.5615234375, 10.0, 1.4109753370285034, 1.5, 1.4109753370285034
14382, 0.526174008846283, -0.3122422993183136, 1.2123594284057617, 0.006878106854856014, -0.011977839283645153, -1.373684048652649, 0.027157552540302277, -0.046254534274339676, -0.21977019309997559, -0.7810246348381042, -0.9611241817474365, 0.062457576394081116, -0.4820085869739676, 0.4403247842447513, -9.458357142302011, 9362.0, 30146.0, 35388.0, 9362.0, 8.390083312988281, -0.09977222234010696, -0.19142268598079681, 0.10805318504571915, 0.007004044484347105, -0.06438068300485611, 0.9958951473236084, -0.059488918632268906, -0.2546367645263672, 1.47509765625, 1.177734375, 0.5238800048828125, 1.48974609375, 1.5615234375, 10.0, 1.4109753370285034, 1.5, 1.4109753370285034
14392, 0.5256938338279724, -0.311133474111557, 1.2130789756774902, 0.006878106854856014, -0.011977839283645153, -1.373684048652649, 0.027157552540302277, -0.046254534274339676, -0.21977019309997559, -0.7810160517692566, -0.9611159563064575, 0.062415361404418945, -0.49138871777834014, 0.44253509709270133, -9.460869783605943, 9362.0, 30146.0, 35388.0, 9362.0, 8.390083312988281, -0.09977222234010696, -0.19142268598079681, 0.10805318504571915, 0.007004044484347105, -0.06438068300485611, 0.9958951473236084, -0.05787042900919914, -0.030637741088867188, 1.493408203125, 1.275146484375, 0.09429931640625, 1.48974609375, 1.5615234375, 10.0, 1.4109753370285034, 1.5, 1.4109753370285034
14402, 0.5270482897758484, -0.31138327717781067, 1.2149516344070435, 0.006878106854856014, -0.011977839283645153, -1.373684048652649, 0.027157552540302277, -0.046254534274339676, -0.21977019309997559, -0.7810115218162537, -0.9611074328422546, 0.062434256076812744, -0.4804086952280411, 0.44188948370430126, -9.461540826333534, 9362.0, 30146.0, 35388.0, 9362.0, 8.390083312988281, 0.08475852012634277, 0.3363814949989319, 0.005889705382287502, 0.008037625811994076, -0.06265381723642349, 0.9970616698265076, -0.05787042900919914, -0.030637741088867188, 1.493408203125, 1.275146484375, 0.09429931640625, 1.48974609375, 1.598876953125, 10.0, 1.4109753370285034, 1.5, 1.4109753370285034
14412, 0.5280061364173889, -0.31449487805366516, 1.2152682542800903, 0.009869920089840889, -0.017048684880137444, -1.3957808017730713, 0.03267158195376396, -0.055146850645542145, -0.2224934995174408, -0.7810192704200745, -0.9611129760742188, 0.062439482659101486, -0.4803836339488174, 0.44203232440429474, -9.44880711493388, 9362.0, 30146.0, 35388.0, 9362.0, 8.390083312988281, -0.1762131303548813, -0.07083465903997421, -0.36836743354797363, 0.008037625811994076, -0.06265381723642349, 0.9970616698265076, -0.05787042900919914, -0.030637741088867188, 1.493408203125, 1.275146484375, 0.09429931640625, 1.48974609375, 1.598876953125, 10.0, 1.4109753370285034, 1.5, 1.4109753370285034
14422, 0.526534378528595, -0.3137613832950592, 1.2136863470077515, 0.009869920089840889, -0.017048684880137444, -1.3957808017730713, 0.03267158195376396, -0.055146850645542145, -0.2224934995174408, -0.7810133695602417, -0.9611148238182068, 0.062458403408527374, -0.48814716204856523, 0.44626987101608506, -9.454692395563967, 9362.0, 30146.0, 35388.0, 9362.0, 8.390083312988281, -0.1791146993637085, -0.24093842506408691, 0.11935128271579742, 0.00832897238433361, -0.0631997212767601, 0.9983291029930115, -0.05787042900919914, -0.030637741088867188, 1.493408203125, 1.311767578125, 0.0348052978515625, 1.48974609375, 1.46484375, 10.0, 1.4109753370285034, 1.5, 1.4109753370285034
14432, 0.5255159735679626, -0.3125470280647278, 1.2153334617614746, 0.010534477420151234, -0.018169429153203964, -1.4002339839935303, 0.0337834432721138, -0.05692629516124725, -0.22282159328460693, -0.7810140252113342, -0.9611103534698486, 0.062449097633361816, -0.47694919656718937, 0.43962197019425275, -9.458820616364207, 9362.0, 30146.0, 35388.0, 9362.0, 8.390083312988281, 0.23645225167274475, 0.299986332654953, -0.29091301560401917, 0.00636331969872117, -0.0626208484172821, 0.997420608997345, -0.05787042900919914, -0.030637741088867188, 1.493408203125, 1.311767578125, 0.0348052978515625, 1.48974609375, 1.46484375, 10.0, 1.4109753370285034, 1.5, 1.4109753370285034
14442, 0.5269892811775208, -0.3147536814212799, 1.214116096496582, 0.010534477420151234, -0.018169429153203964, -1.4002339839935303, 0.0337834432721138, -0.05692629516124725, -0.22282159328460693, -0.781005322933197, -0.9611044526100159, 0.0624360628426075, -0.49090272762633136, 0.4308705757176483, -9.447577784445167, 9362.0, 30146.0, 35388.0, 9362.0, 8.390083312988281, -0.01971590518951416, -0.43740978837013245, -0.0667327493429184, 0.00636331969872117, -0.0626208484172821, 0.997420608997345, -0.05787042900919914, -0.030637741088867188, 1.493408203125, 1.22021484375, 0.2799530029296875, 1.48974609375, 1.5322265625, 10.0, 1.4109753370285034, 1.5, 1.4109753370285034
14452, 0.5255630016326904, -0.3118903338909149, 1.214658260345459, 0.011221216060221195, -0.019325682893395424, -1.4046958684921265, 0.03489210084080696, -0.05869990587234497, -0.2234126329421997, -0.7810198068618774, -0.9611256122589111, 0.06243899092078209, -0.4783200045432841, 0.44024226176392744, -9.448176533744174, 9362.0, 30146.0, 35388.0, 9362.0, 8.390083312988281, 0.06344273686408997, 0.165024071931839, 0.26603183150291443, 0.006443297024816275, -0.06179160252213478, 0.9970191121101379, -0.05787042900919914, -0.030637741088867188, 1.493408203125, 1.22021484375, 0.2799530029296875, 1.48974609375, 1.5322265625, 10.0, 1.4109753370285034, 1.5, 1.4109753370285034
14462, 0.5259751677513123, -0.31195536255836487, 1.2155002355575562, 0.011572892777621746, -0.019917108118534088, -1.4069316387176514, 0.03544318303465843, -0.05958520621061325, -0.22374951839447021, -0.7810261845588684, -0.9611291885375977, 0.06240519508719444, -0.4887620175247033, 0.44630673034396295, -9.452153488632469, 9362.0, 30146.0, 35388.0, 9362.0, 8.390083312988281, -0.004404417239129543, 0.20092101395130157, 0.32048627734184265, 0.007033401634544134, -0.06282243877649307, 0.9970253109931946, -0.05787042900919914, -0.030637741088867188, 1.493408203125, 1.22021484375, 0.2799530029296875, 1.48974609375, 1.5322265625, 10.0, 1.4109753370285034, 1.5, 1.4109753370285034
14472, 0.5263761878013611, -0.3130066990852356, 1.2165961265563965, 0.011572892777621746, -0.019917108118534088, -1.4069316387176514, 0.03544318303465843, -0.05958520621061325, -0.22374951839447021, -0.7810181975364685, -0.9611179232597351, 0.062414031475782394, -0.4807085761791936, 0.43931723545208, -9.451909352554866, 9362.0, 30146.0, 35388.0, 9362.0, 8.390083312988281, 0.4978131353855133, -0.04724908247590065, -0.15864843130111694, 0.007040882017463446, -0.06285122781991959, 0.997212827205658, -0.05787042900919914, -0.030637741088867188, 1.493408203125, 1.28173828125, 0.0802001953125, 1.48974609375, 1.48974609375, 10.0, 1.4109753370285034, 1.5, 1.4109753370285034
14482, 0.5285491943359375, -0.31291404366493225, 1.215341567993164, 0.011572892777621746, -0.019917108118534088, -1.4069316387176514, 0.03544318303465843, -0.05958520621061325, -0.22374951839447021, -0.7809969186782837, -0.96109938621521, 0.06243821233510971, -0.4794705699991796, 0.4387418933101799, -9.449104638775351, 9362.0, 30146.0, 35388.0, 9362.0, 8.390083312988281, 0.024034742265939713, 0.0909002274274826, -0.11810445785522461, 0.006560028996318579, -0.06176864728331566, 0.9957725405693054, -0.05787042900919914, -0.030637741088867188, 1.493408203125, 1.28173828125, 0.0802001953125, 1.48974609375, 1.48974609375, 10.0, 1.4109753370285034, 1.5, 1.4109753370285034
14492, 0.528773307800293, -0.3142675757408142, 1.2138835191726685, 0.012661044485867023, -0.021744592115283012, -1.41365647315979, 0.037100840359926224, -0.06224904581904411, -0.22466842830181122, -0.7810155153274536, -0.9611033201217651, 0.06245132163167, -0.49468731108086683, 0.43936898397438995, -9.450695938187742, 9362.0, 30146.0, 35388.0, 9362.0, 8.390083312988281, -0.020859358832240105, -0.2544229328632355, -0.052376944571733475, 0.00815841555595398, -0.061985328793525696, 0.9976698756217957, -0.05787042900919914, -0.030637741088867188, 1.493408203125, 1.28173828125, 0.0802001953125, 1.48974609375, 1.48974609375, 10.0, 1.4109753370285034, 1.5, 1.4109753370285034
14502, 0.5287675261497498, -0.3126203417778015, 1.2125563621520996, 0.012661044485867023, -0.021744592115283012, -1.41365647315979, 0.037100840359926224, -0.06224904581904411, -0.22466842830181122, -0.7810234427452087, -0.9611228704452515, 0.06245052069425583, -0.4860558935326375, 0.45315074901444063, -9.452793372857714, 9362.0, 30146.0, 35388.0, 9362.0, 8.390083312988281, -0.052530769258737564, 0.21539391577243805, 0.03531626984477043, 0.008254527114331722, -0.06126198545098305, 0.9970463514328003, -0.05787042900919914, -0.030637741088867188, 1.493408203125, 1.28173828125, 0.0802001953125, 1.48974609375, 1.51171875, 10.0, 1.4109753370285034, 1.5, 1.4109753370285034
14512, 0.5276648998260498, -0.31401053071022034, 1.212384819984436, 0.013414156623184681, -0.02300739474594593, -1.4181556701660156, 0.03820895031094551, -0.06403136253356934, -0.22525350749492645, -0.7809942364692688, -0.9611198902130127, 0.06239547207951546, -0.48643081435595115, 0.44326480527928425, -9.460650398160798, 9362.0, 30146.0, 35388.0, 9362.0, 8.390083312988281, 0.09718619287014008, 0.18864384293556213, 0.03744381293654442, 0.007055921945720911, -0.06317552179098129, 0.9952519536018372, -0.05787042900919914, -0.030637741088867188, 1.493408203125, 1.28173828125, 0.0802001953125, 1.48974609375, 1.51171875, 10.0, 1.4109753370285034, 1.5, 1.4109753370285034
14522, 0.527790904045105, -0.31632712483406067, 1.2132306098937988, 0.013414156623184681, -0.02300739474594593, -1.4181556701660156, 0.03820895031094551, -0.06403136253356934, -0.22525350749492645, -0.7810154557228088, -0.9611027240753174, 0.06240592151880264, -0.48476541667565537, 0.43858362886098234, -9.46255074757727, 9362.0, 30146.0, 35388.0, 9362.0, 8.390083312988281, 0.11164648085832596, -0.20099923014640808, -0.28683018684387207, 0.007055921945720911, -0.06317552179098129, 0.9952519536018372, -0.05787042900919914, -0.030637741088867188, 1.493408203125, 1.28173828125, 0.0802001953125, 1.48681640625, 1.51171875, 10.0, 1.4109753370285034, 1.5, 1.4109753370285034
14532, 0.5286891460418701, -0.31588029861450195, 1.2122819423675537, 0.014189439825713634, -0.024305783212184906, -1.4226692914962769, 0.039321452379226685, -0.06580773741006851, -0.22608625888824463, -0.7810046076774597, -0.9610913395881653, 0.062443457543849945, -0.49110358704594753, 0.4382111791461796, -9.453132767903178, 9362.0, 30146.0, 35388.0, 9362.0, 8.390083312988281, 0.10211046040058136, -0.005610326305031776, 0.06556610763072968, 0.007055921945720911, -0.06317552179098129, 0.9952519536018372, -0.05787042900919914, -0.030637741088867188, 1.493408203125, 1.28173828125, 0.0802001953125, 1.48681640625, 1.33447265625, 10.0, 1.4109753370285034, 1.5, 1.4109753370285034
14542, 0.5298393964767456, -0.3157953917980194, 1.213415503501892, 0.014189439825713634, -0.024305783212184906, -1.4226692914962769, 0.039321452379226685, -0.06580773741006851, -0.22608625888824463, -0.7810192704200745, -0.9611340165138245, 0.06246373429894447, -0.4854647272786776, 0.45300727393245666, -9.444746879491744, 9362.0, 30146.0, 35388.0, 9362.0, 8.390083312988281, -0.1565486639738083, -0.33042094111442566, -0.1908544898033142, 0.008171189576387405, -0.06221194937825203, 0.9963409900665283, -0.05787042900919914, -0.030637741088867188, 1.493408203125, 1.28173828125, 0.0802001953125, 1.491943359375, 1.33447265625, 10.0, 1.4109753370285034, 1.5, 1.4109753370285034
14552, 0.5281030535697937, -0.3146798312664032, 1.213347315788269, 0.014189439825713634, -0.024305783212184906, -1.4226692914962769, 0.039321452379226685, -0.06580773741006851, -0.22608625888824463, -0.781020998954773, -0.9611117839813232, 0.06245510280132294, -0.48710233647056606, 0.4492446119794238, -9.451507487361846, 9362.0, 30146.0, 35388.0, 9362.0, 8.390083312988281, 0.0031975836027413607, -0.23878781497478485, 0.048546068370342255, 0.008333951234817505, -0.06276776641607285, 0.9979184865951538, -0.05787042900919914, -0.030637741088867188, 1.493408203125, 1.28173828125, 0.0802001953125, 1.491943359375, 1.477294921875, 10.0, 1.4109753370285034, 1.5, 1.4109753370285034
14562, 0.5276648998260498, -0.31200936436653137, 1.213303804397583, 0.014189439825713634, -0.024305783212184906, -1.4226692914962769, 0.039321452379226685, -0.06580773741006851, -0.22608625888824463, -0.7810186147689819, -0.9611034989356995, 0.06241784989833832, -0.48876372811391694, 0.44643130255494157, -9.45461267484429, 9362.0, 30146.0, 35388.0, 9362.0, 8.390083312988281, -0.04740641266107559, -0.24555812776088715, -0.07737064361572266, 0.008333951234817505, -0.06276776641607285, 0.9979184865951538, -0.05787042900919914, -0.030637741088867188, 1.493408203125, 1.28173828125, 0.0802001953125, 1.491943359375, 1.423828125, 10.0, 1.4109753370285034, 1.5, 1.4109753370285034
14572, 0.5272120833396912, -0.31170254945755005, 1.2136896848678589, 0.015806885436177254, -0.02700938656926155, -1.4317368268966675, 0.04154603183269501, -0.06937159597873688, -0.227169930934906, -0.7810141444206238, -0.9611015915870667, 0.06242316961288452, -0.48611424007905624, 0.4489580749628601, -9.45794297199651, 9362.0, 30146.0, 35388.0, 9362.0, 8.390083312988281, -0.07933668047189713, 0.09972117096185684, 0.011337358504533768, 0.008333951234817505, -0.06276776641607285, 0.9979184865951538, -0.05787042900919914, -0.030637741088867188, 1.493408203125, 1.28173828125, 0.0802001953125, 1.491943359375, 1.423828125, 10.0, 1.4109753370285034, 1.5, 1.4109753370285034
14582, 0.5262908339500427, -0.3122890591621399, 1.2139482498168945, 0.015806885436177254, -0.02700938656926155, -1.4317368268966675, 0.04154603183269501, -0.06937159597873688, -0.227169930934906, -0.7810176014900208, -0.961096465587616, 0.06240727752447128, -0.4762040230966961, 0.4297942682475764, -9.456750243178382, 9362.0, 30146.0, 35388.0, 9362.0, 8.390083312988281, -0.10929263383150101, -0.15499860048294067, -0.27635034918785095, 0.008333951234817505, -0.06276776641607285, 0.9979184865951538, -0.05787042900919914, -0.030637741088867188, 1.493408203125, 1.525634765625, 0.248626708984375, 1.491943359375, 1.423828125, 10.0, 1.4109753370285034, 1.5, 1.4109753370285034
14602, 0.5264543294906616, -0.31102362275123596, 1.2122981548309326, 0.01664883829653263, -0.028414592146873474, -1.4362850189208984, 0.04265011101961136, -0.07114876806735992, -0.22757218778133392, -0.7810248136520386, -0.9611156582832336, 0.06245110556483269, -0.484345273784255, 0.4446288019186966, -9.452941199591168, 9362.0, 30146.0, 35388.0, 9362.0, 8.390083312988281, 0.0035210875794291496, -0.1512392908334732, -0.1800461709499359, 0.006863306742161512, -0.062126923352479935, 0.999243438243866, -0.06892620027065277, -0.04855918884277344, 1.491943359375, 1.525634765625, 0.248626708984375, 1.48974609375, 1.423828125, 10.0, 1.4109753370285034, 1.5, 1.4109753370285034
14612, 0.5259588360786438, -0.31183767318725586, 1.2119060754776, 0.01664883829653263, -0.028414592146873474, -1.4362850189208984, 0.04265011101961136, -0.07114876806735992, -0.22757218778133392, -0.7810183167457581, -0.9611119031906128, 0.06243613734841347, -0.487610599343244, 0.4381278072251007, -9.454383416149458, 9362.0, 30146.0, 35388.0, 9362.0, 8.390083312988281, 0.12986980378627777, 0.06155204772949219, 0.02804654650390148, 0.007372051943093538, -0.06417852640151978, 0.9982823133468628, -0.06892620027065277, -0.04855918884277344, 1.491943359375, 1.525634765625, 0.248626708984375, 1.48974609375, 1.58056640625, 10.0, 1.4109753370285034, 1.5, 1.4109753370285034
14622, 0.5267993211746216, -0.31248739361763, 1.2119879722595215, 0.01664883829653263, -0.028414592146873474, -1.4362850189208984, 0.04265011101961136, -0.07114876806735992, -0.22757218778133392, -0.781005322933197, -0.9610981941223145, 0.06242779642343521, -0.4875547498264445, 0.4309092752382071, -9.454692554792413, 9362.0, 30146.0, 35388.0, 9362.0, 8.390083312988281, 0.0471356101334095, -0.09682230651378632, -0.1428070068359375, 0.0064246440306305885, -0.0653214231133461, 0.9975227117538452, -0.06892620027065277, -0.04855918884277344, 1.491943359375, 1.525634765625, 0.248626708984375, 1.48974609375, 1.540283203125, 10.0, 1.4109753370285034, 1.5, 1.4109753370285034
14632, 0.5268598794937134, -0.3120765686035156, 1.2112396955490112, 0.01664883829653263, -0.028414592146873474, -1.4362850189208984, 0.04265011101961136, -0.07114876806735992, -0.22757218778133392, -0.7810323238372803, -0.9611172676086426, 0.062430039048194885, -0.4831865778275847, 0.4358366220286598, -9.468279122062523, 9362.0, 30146.0, 35388.0, 9362.0, 8.390083312988281, -0.10175041854381561, 0.18559513986110687, 0.3930426239967346, 0.0067656561732292175, -0.062444671988487244, 0.9984325766563416, -0.06892620027065277, -0.04855918884277344, 1.491943359375, 1.525634765625, 0.248626708984375, 1.48974609375, 1.55712890625, 10.0, 1.4109753370285034, 1.5, 1.4109753370285034
14642, 0.5266534686088562, -0.3141604959964752, 1.2134780883789062, 0.01664883829653263, -0.028414592146873474, -1.4362850189208984, 0.04265011101961136, -0.07114876806735992, -0.22757218778133392, -0.781028151512146, -0.9611301422119141, 0.062439266592264175, -0.48892455072450586, 0.44389099333409376, -9.455923819300622, 9362.0, 30146.0, 35388.0, 9362.0, 8.390083312988281, -0.07324729859828949, -0.2414914071559906, -0.09138091653585434, 0.008027792908251286, -0.06354151666164398, 0.9973781108856201, -0.06892620027065277, -0.04855918884277344, 1.491943359375, 1.525634765625, 0.248626708984375, 1.48974609375, 1.55712890625, 10.0, 1.4109753370285034, 1.5, 1.4109753370285034
14652, 0.5265628695487976, -0.31424054503440857, 1.2130335569381714, 0.01664883829653263, -0.028414592146873474, -1.4362850189208984, 0.04265011101961136, -0.07114876806735992, -0.22757218778133392, -0.7810250520706177, -0.961121141910553, 0.06241871416568756, -0.48511907260547144, 0.4439908111732507, -9.455999131131893, 9362.0, 30146.0, 35388.0, 9362.0, 8.390083312988281, 0.07391196489334106, 0.33231019973754883, -0.021907957270741463, 0.008027792908251286, -0.06354151666164398, 0.9973781108856201, -0.06892620027065277, -0.04855918884277344, 1.491943359375, 1.525634765625, 0.248626708984375, 1.48974609375, 1.564453125, 10.0, 1.4109753370285034, 1.5, 1.4109753370285034
14662, 0.5267848372459412, -0.31697675585746765, 1.2130454778671265, 0.01664883829653263, -0.028414592146873474, -1.4362850189208984, 0.04265011101961136, -0.07114876806735992, -0.22757218778133392, -0.7810115218162537, -0.9611132144927979, 0.062431417405605316, -0.48953194350748397, 0.4408498098358109, -9.453138880896388, 9362.0, 30146.0, 35388.0, 9362.0, 8.390083312988281, 0.12607631087303162, -0.05978105589747429, 0.09982194751501083, 0.00654858211055398, -0.06282372772693634, 0.9979889988899231, -0.06892620027065277, -0.04855918884277344, 1.491943359375, 1.4208984375, 0.063079833984375, 1.48974609375, 1.564453125, 10.0, 1.4109753370285034, 1.5, 1.4109753370285034
14672, 0.5276194214820862, -0.31753382086753845, 1.2130286693572998, 0.01664883829653263, -0.028414592146873474, -1.4362850189208984, 0.04265011101961136, -0.07114876806735992, -0.22757218778133392, -0.781017541885376, -0.9611078500747681, 0.0624147467315197, -0.4871476032580602, 0.43372850149117426, -9.451399487699538, 9362.0, 30146.0, 35388.0, 9362.0, 8.390083312988281, -0.006687145680189133, 0.36359885334968567, 0.0723833441734314, 0.00654858211055398, -0.06282372772693634, 0.9979889988899231, -0.06892620027065277, -0.04855918884277344, 1.491943359375, 1.4208984375, 0.063079833984375, 1.48974609375, 1.564453125, 10.0, 1.4109753370285034, 1.5, 1.4109753370285034
14682, 0.5276153087615967, -0.32015037536621094, 1.2136940956115723, 0.01664883829653263, -0.028414592146873474, -1.4362850189208984, 0.04265011101961136, -0.07114876806735992, -0.22757218778133392, -0.7810211181640625, -0.9611100554466248, 0.062414735555648804, -0.4889620089447904, 0.44483605871133136, -9.457414124190434, 9362.0, 30146.0, 35388.0, 9362.0, 8.390083312988281, 0.021512286737561226, -0.3646697700023651, -0.12868286669254303, 0.00654858211055398, -0.06282372772693634, 0.9979889988899231, -0.06892620027065277, -0.04855918884277344, 1.491943359375, 1.3447265625, 0.0158538818359375, 1.48974609375, 1.564453125, 10.0, 1.4109753370285034, 1.5, 1.4109753370285034
14692, 0.5270318388938904, -0.31869664788246155, 1.2133924961090088, 0.01664883829653263, -0.028414592146873474, -1.4362850189208984, 0.04265011101961136, -0.07114876806735992, -0.22757218778133392, -0.7810347080230713, -0.9611262679100037, 0.06243031471967697, -0.48357266139420807, 0.4448434008930917, -9.460799437679789, 9362.0, 30146.0, 35388.0, 9362.0, 8.390083312988281, 0.021512286737561226, -0.3646697700023651, -0.12868286669254303, 0.00654858211055398, -0.06282372772693634, 0.9979889988899231, -0.04432925209403038, -0.09335899353027344, 1.48828125, 1.39892578125, 0.0390167236328125, 1.48974609375, 1.564453125, 10.0, 1.4109753370285034, 1.5, 1.4109753370285034
14702, 0.526129961013794, -0.3190898895263672, 1.2148696184158325, 0.01664883829653263, -0.028414592146873474, -1.4362850189208984, 0.04265011101961136, -0.07114876806735992, -0.22757218778133392, -0.7810199856758118, -0.9611209034919739, 0.0624268613755703, -0.4821034949953256, 0.43919969372919354, -9.452966970670413, 9362.0, 30146.0, 35388.0, 9362.0, 8.390083312988281, -0.040164221078157425, 0.03345104306936264, 0.00417408486828208, 0.00691977608948946, -0.061658430844545364, 0.9981579780578613, -0.04432925209403038, -0.09335899353027344, 1.48828125, 1.39892578125, 0.0390167236328125, 1.48974609375, 1.564453125, 10.0, 1.4109753370285034, 1.5, 1.4109753370285034
14712, 0.52660071849823, -0.3184328079223633, 1.2135800123214722, 0.01664883829653263, -0.028414592146873474, -1.4362850189208984, 0.04265011101961136, -0.07114876806735992, -0.22757218778133392, -0.7810174226760864, -0.9611104130744934, 0.06241994351148605, -0.4826238429732201, 0.438916414395095, -9.458744116836908, 9362.0, 30146.0, 35388.0, 9362.0, 8.390083312988281, -0.008221853524446487, -0.32587289810180664, -0.3762868642807007, 0.00691977608948946, -0.061658430844545364, 0.9981579780578613, -0.04432925209403038, -0.09335899353027344, 1.48828125, 1.1865234375, 0.4651947021484375, 1.48974609375, 1.564453125, 10.0, 1.4109753370285034, 1.5, 1.4109753370285034
