timeTick, roll, pitch, yaw, stateX, stateY, stateZ, stateVX, stateVY, stateVZ, otX0, otY0, otZ0, otRoll0, otPitch0, otYaw0, left wing, pitch motor, yaw motor, right wing, voltage, roll rate, pitch rate, yaw rate, A_x, A_y, A_z, current, i_raw, v_raw, airflow_voltage, airflow_speed, pot_Pitch, voltage_nKF, kFFx, volt_KF_vel, kP, volt_KF_pos
32645, -0.8235892057418823, -6.682287693023682, 2.4652984142303467, 0, 0, 0, 0, 0, 0, -0.7815214395523071, -0.9533253908157349, 0.062169503420591354, -0.5266375540285047, 0.607431092888902, -6.098347173008819, 0, 0, 0, 0, 0, 0, 0, 0, 0, 0, 0, 0, 0, 0, 0, 0, 0, 0, 0, 0, 0, 0
32655, -0.8244144320487976, -6.682647228240967, 2.46516752243042, -0.0032064984552562237, -0.0005371469887904823, -13.812263488769531, -0.05753423646092415, -0.009639529511332512, -0.8870202898979187, -0.7815221548080444, -0.9533211588859558, 0.06214982271194458, -0.5274302227018732, 0.6072074682398352, -6.09233106457463, 9362.0, 30146.0, 35388.0, 9362.0, 0, -0.16461238265037537, -0.00694677047431469, 0.09795167297124863, 0.00733382161706686, -0.06699283421039581, 0.9988429546356201, 0, 0, 0, 0, 0, 0, 0, 0, 0, 0, 0
32665, -0.8259079456329346, -6.68276834487915, 2.466050863265991, -0.0037251829635351896, -0.0006240464863367379, -13.821137428283691, -0.04620268568396568, -0.007740176282823086, -0.8877986073493958, -0.7814962267875671, -0.953338623046875, 0.062182411551475525, -0.5130783682857691, 0.5950907334201077, -6.100684866777935, 9362.0, 30146.0, 35388.0, 9362.0, 0, 0.15208125114440918, -0.2039584070444107, -0.05112862214446068, 0.009109987877309322, -0.06620939075946808, 0.9995958209037781, 0, 0, 0, 1.53515625, 0.2692413330078125, 0, 1.3212890625, 10.0, 1.4148616790771484, 1.5, 1.4148616790771484
32675, -0.8268537521362305, -6.681244373321533, 2.4662868976593018, -0.004130531568080187, -0.0006919354200363159, -13.830018997192383, -0.03486704081296921, -0.005837551783770323, -0.888542115688324, -0.7815306782722473, -0.9533259272575378, 0.06217120587825775, -0.528015676224213, 0.6088778565211328, -6.091595186066876, 9362.0, 30146.0, 35388.0, 9362.0, 0, -0.006308244075626135, 0.04226057231426239, -0.2342238575220108, 0.007656595204025507, -0.06332708150148392, 0.9974502921104431, 0, 0, 0, 1.5029296875, 0.201446533203125, 1.4853515625, 1.08251953125, 10.0, 1.4145292043685913, 1.5, 1.4145292043685913
32685, -0.8278243541717529, -6.680093288421631, 2.464738607406616, -0.0044226087629795074, -0.0007408024393953383, -13.838909149169922, -0.023548375815153122, -0.003936144057661295, -0.8894091844558716, -0.7815106511116028, -0.9533184766769409, 0.06218978390097618, -0.5223738569278051, 0.6025758726761126, -6.093939356007652, 9362.0, 30146.0, 35388.0, 9362.0, 0, 0.00393649423494935, -0.00801836047321558, -0.21936509013175964, 0.006402864120900631, -0.06549868732690811, 0.9958333969116211, 0, 0, 0, 1.575439453125, 0.3596649169921875, 1.4853515625, 1.30224609375, 10.0, 1.4149725437164307, 1.5, 1.4149725437164307
32695, -0.8276539444923401, -6.6803364753723145, 2.4636073112487793, -0.004601620137691498, -0.0007706676842644811, -13.847808837890625, -0.01225388702005148, -0.0020371226128190756, -0.890466570854187, -0.7815139889717102, -0.9533092379570007, 0.06219908967614174, -0.5252818799836776, 0.6084919518806942, -6.090171728349102, 9362.0, 30146.0, 35388.0, 9362.0, 0, 0.06430432200431824, -0.030826175585389137, -0.07040585577487946, 0.009223785251379013, -0.06356356292963028, 0.995464026927948, 0, 0, 0, 1.525634765625, 0.248626708984375, 1.48828125, 1.324951171875, 10.0, 1.4150468111038208, 1.5, 1.4150468111038208
32705, -0.8271616697311401, -6.6809492111206055, 2.462405204772949, -0.004667728673666716, -0.0007815526332706213, -13.856719017028809, -0.000967786181718111, -0.00014010415179654956, -0.8916002511978149, -0.7815292477607727, -0.9533281922340393, 0.062175486236810684, -0.5302248605011506, 0.6053625144324712, -6.086972100426554, 9362.0, 30146.0, 35388.0, 9362.0, 0, 0.04375578090548515, -0.2007664293050766, 0.1028028130531311, 0.010023540817201138, -0.06393180042505264, 0.9980036616325378, 0, 0, 0, 1.527099609375, 0.2517852783203125, 1.48828125, 1.4208984375, 10.0, 1.4155369997024536, 1.5, 1.4155369997024536
32715, -0.8277729749679565, -6.680261135101318, 2.462249994277954, -0.00462085148319602, -0.0007734525133855641, -13.865639686584473, 0.010343263857066631, 0.0017601102590560913, -0.8925288319587708, -0.7814888954162598, -0.9533320069313049, 0.06215837225317955, -0.5203173909136055, 0.6073343973045837, -6.090711344740932, 9362.0, 30146.0, 35388.0, 9362.0, 0, -0.02999831922352314, 0.10536646097898483, 0.25523966550827026, 0.006379431113600731, -0.06455077230930328, 0.9980388283729553, 0, 0, 0, 1.162353515625, 0.637847900390625, 1.4912109375, 1.474365234375, 10.0, 1.415910005569458, 1.5, 1.415910005569458
32725, -0.8277304768562317, -6.6799092292785645, 2.4631223678588867, -0.004460832569748163, -0.0007463392103090882, -13.874568939208984, 0.021660469472408295, 0.0036627266090363264, -0.893393874168396, -0.7815118432044983, -0.9533159136772156, 0.06218477711081505, -0.5196104467572157, 0.6152451179115417, -6.101836274016501, 9362.0, 30146.0, 35388.0, 9362.0, 0, -0.02683994360268116, 0.19174505770206451, -0.21471644937992096, 0.007182857487350702, -0.06482765823602676, 0.9972999691963196, 0, 0, 0, 1.51318359375, 0.2224273681640625, 1.4912109375, 1.1513671875, 10.0, 1.4156066179275513, 1.5, 1.4156066179275513
32735, -0.8283186554908752, -6.6812663078308105, 2.461695671081543, -0.004187676124274731, -0.0007002045749686658, -13.88350772857666, 0.032970841974020004, 0.0055639129132032394, -0.8943126201629639, -0.7815012335777283, -0.9533249139785767, 0.06220098212361336, -0.5219741164035997, 0.6132120038057849, -6.091308120553989, 9362.0, 30146.0, 35388.0, 9362.0, 0, -0.15545201301574707, -0.12783585488796234, 0.02999255806207657, 0.009111718274652958, -0.0653027594089508, 0.9994359016418457, 0, 0, 0, 1.388671875, 0.03033447265625, 1.487548828125, 1.5439453125, 10.0, 1.414980411529541, 1.5, 1.414980411529541
32745, -0.828462541103363, -6.68147087097168, 2.4616241455078125, -0.0038013416342437267, -0.0006350434268824756, -13.892455101013184, 0.044296059757471085, 0.007468299008905888, -0.8951234817504883, -0.7815228700637817, -0.9533237218856812, 0.062186114490032196, -0.5172977114003819, 0.6079352666718307, -6.096170776526826, 9362.0, 30146.0, 35388.0, 9362.0, 8.390083312988281, 0.23421531915664673, -0.24060219526290894, 0.2401629388332367, 0.008139857091009617, -0.06563657522201538, 0.9995539784431458, -0.06363607943058014, -0.08439826965332031, 1.489013671875, 1.215087890625, 0.3043060302734375, 1.487548828125, 1.5087890625, 10.0, 1.4155077934265137, 1.5, 1.4155077934265137
32755, -0.8276940584182739, -6.6798319816589355, 2.462163209915161, -0.003301708260551095, -0.0005508296308107674, -13.901410102844238, 0.05563062056899071, 0.009374558925628662, -0.8958567976951599, -0.7814999222755432, -0.9533193111419678, 0.06212542951107025, -0.5232733803366021, 0.5780616263503191, -6.101421468989043, 9362.0, 30146.0, 35388.0, 9362.0, 8.390083312988281, 0.03928714618086815, -0.1159801259636879, -0.0697057917714119, 0.0065696956589818, -0.06615550071001053, 0.9991950988769531, -0.06363607943058014, -0.08439826965332031, 1.489013671875, 1.45166015625, 0.107452392578125, 1.487548828125, 1.1865234375, 10.0, 1.4156057834625244, 1.5, 1.4156057834625244
32765, -0.8271273374557495, -6.678884029388428, 2.461549997329712, -0.002688739448785782, -0.00044755928684026003, -13.910372734069824, 0.06696317344903946, 0.011279377155005932, -0.8965839743614197, -0.7815119624137878, -0.9533029794692993, 0.0621621198952198, -0.5239465187472313, 0.6011859151757051, -6.093603346010391, 9362.0, 30146.0, 35388.0, 9362.0, 8.390083312988281, -0.03447509929537773, -0.10724300146102905, 0.2014624923467636, 0.006283203139901161, -0.06442911177873611, 0.9973999261856079, -0.06363607943058014, -0.08439826965332031, 1.489013671875, 1.519775390625, 0.236236572265625, 1.487548828125, 1.28466796875, 10.0, 1.4153542518615723, 1.5, 1.4153542518615723
32775, -0.8272375464439392, -6.678920745849609, 2.4632484912872314, -0.001962546957656741, -0.00032526234281249344, -13.919342994689941, 0.07827524840831757, 0.013180341571569443, -0.8974729776382446, -0.7814890742301941, -0.9533187747001648, 0.06211492046713829, -0.5305270472420464, 0.5811634661356493, -6.092453846021218, 9362.0, 30146.0, 35388.0, 9362.0, 8.390083312988281, -0.12345638126134872, -0.14877267181873322, 0.056827619671821594, 0.010292274877429008, -0.06395135074853897, 0.9992783665657043, -0.06363607943058014, -0.08439826965332031, 1.489013671875, 1.285400390625, 0.0730438232421875, 1.4912109375, 1.55126953125, 10.0, 1.4156030416488647, 1.5, 1.4156030416488647
32785, -0.8273735046386719, -6.677886486053467, 2.4643805027008057, -0.0011231808457523584, -0.0001839442556956783, -13.928321838378906, 0.08959794789552689, 0.015083502046763897, -0.8982707262039185, -0.7815255522727966, -0.953318178653717, 0.062130238860845566, -0.526970935213231, 0.595588569358199, -6.094900046360472, 9362.0, 30146.0, 35388.0, 9362.0, 8.390083312988281, 0.09720848500728607, 0.2175406515598297, 0.13677535951137543, 0.009321054443717003, -0.06600409746170044, 0.9991806149482727, -0.06363607943058014, -0.08439826965332031, 1.489013671875, 1.54248046875, 0.28521728515625, 1.4912109375, 1.5791015625, 10.0, 1.4154764413833618, 1.5, 1.4154764413833618
32795, -0.8270639777183533, -6.680295467376709, 2.4660699367523193, -0.00017057242803275585, -2.3588581825606525e-05, -13.937308311462402, 0.10092365741729736, 0.016987964510917664, -0.8990271091461182, -0.7815068364143372, -0.9533087015151978, 0.06212896108627319, -0.5259294243927528, 0.5986269506686881, -6.100929009007619, 9362.0, 30146.0, 35388.0, 9362.0, 8.390083312988281, -0.06065209582448006, 0.3254692256450653, 0.1342279314994812, 0.007986662909388542, -0.06437398493289948, 0.9993283748626709, -0.06363607943058014, -0.08439826965332031, 1.489013671875, 1.540283203125, 0.280364990234375, 1.487548828125, 1.568115234375, 10.0, 1.4156924486160278, 1.5, 1.4156924486160278
32805, -0.8266357183456421, -6.684540271759033, 2.466374635696411, 0.000895320437848568, 0.00015581278421450406, -13.94630241394043, 0.11225482821464539, 0.01889236830174923, -0.8997725248336792, -0.7815439701080322, -0.9532924890518188, 0.06208440661430359, -0.5024083407209695, 0.6112513186629656, -6.121677697016818, 9362.0, 30146.0, 35388.0, 9362.0, 8.390083312988281, 0.12249070405960083, -0.11964009702205658, 0.015356604941189289, 0.009200634434819221, -0.0668952614068985, 0.9972212910652161, -0.06363607943058014, -0.08439826965332031, 1.489013671875, 1.530029296875, 0.2581329345703125, 1.487548828125, 1.543212890625, 10.0, 1.415151596069336, 1.5, 1.415151596069336
32815, -0.8262635469436646, -6.6841230392456055, 2.4668989181518555, 0.0020744940266013145, 0.00035424510133452713, -13.955304145812988, 0.12357984483242035, 0.02079419419169426, -0.9006330370903015, -0.7815443277359009, -0.9533012509346008, 0.062113359570503235, -0.5154451043841874, 0.6111793641212273, -6.119362571286667, 9362.0, 30146.0, 35388.0, 9362.0, 8.390083312988281, 0.025348231196403503, -0.14721307158470154, -0.1085696816444397, 0.009278264828026295, -0.06512407213449478, 0.9968808889389038, -0.06363607943058014, -0.08439826965332031, 1.489013671875, 1.36083984375, 0.016387939453125, 1.491943359375, 1.4853515625, 10.0, 1.414510726928711, 1.5, 1.414510726928711
32825, -0.8271413445472717, -6.682963848114014, 2.4662985801696777, 0.003366843331605196, 0.0005716810119338334, -13.964315414428711, 0.13489007949829102, 0.022692875936627388, -0.9016148447990417, -0.7815635800361633, -0.95330810546875, 0.062089256942272186, -0.5019651879353959, 0.6123837117912387, -6.122473307913123, 9362.0, 30146.0, 35388.0, 9362.0, 8.390083312988281, 0.09031473845243454, -0.11041071265935898, -0.04403688386082649, 0.007442553527653217, -0.06460463255643845, 0.9962707757949829, -0.06363607943058014, -0.08439826965332031, 1.489013671875, 1.39013671875, 0.0314483642578125, 1.491943359375, 1.452392578125, 10.0, 1.4137331247329712, 1.5, 1.4137331247329712
32835, -0.826091468334198, -6.6813459396362305, 2.465893030166626, 0.004772257525473833, 0.0008081055711954832, -13.973337173461914, 0.14619280397891998, 0.024591954424977303, -0.9026433229446411, -0.7815550565719604, -0.9532905220985413, 0.062086157500743866, -0.5115414643799319, 0.6075696559886978, -6.129153964129242, 9362.0, 30146.0, 35388.0, 9362.0, 8.390083312988281, 0.04040360823273659, 0.45405951142311096, -0.043505094945430756, 0.008713304996490479, -0.06571310758590698, 0.996238112449646, -0.06363607943058014, -0.08439826965332031, 1.489013671875, 1.25830078125, 0.137664794921875, 1.48681640625, 1.269287109375, 10.0, 1.4140517711639404, 1.5, 1.4140517711639404
32845, -0.8251785039901733, -6.6844987869262695, 2.4656124114990234, 0.006290655583143234, 0.0010635060025379062, -13.982369422912598, 0.15748679637908936, 0.026488058269023895, -0.9037240743637085, -0.7815627455711365, -0.9533098936080933, 0.06207629665732384, -0.5116272666195981, 0.6148712974705575, -6.119545709561203, 9362.0, 30146.0, 35388.0, 9362.0, 8.390083312988281, 0.13538913428783417, 0.2249719798564911, 0.20681194961071014, 0.006128491368144751, -0.0689755454659462, 0.9955893158912659, -0.0893884226679802, -0.2098369598388672, 1.478759765625, 1.250244140625, 0.162445068359375, 1.48681640625, 1.398193359375, 10.0, 1.414341688156128, 1.5, 1.414341688156128
32855, -0.8242472410202026, -6.686985492706299, 2.46777606010437, 0.007922036573290825, 0.0013378632720559835, -13.991412162780762, 0.1687893271446228, 0.028383804485201836, -0.904778003692627, -0.7815802693367004, -0.9532882571220398, 0.062012240290641785, -0.5186501299243428, 0.5985225295397925, -6.110813477376941, 9362.0, 30146.0, 35388.0, 9362.0, 8.390083312988281, 0.08888653665781021, -0.3689621686935425, -0.11910497397184372, 0.007200694642961025, -0.06855106353759766, 0.9980899095535278, -0.0893884226679802, -0.2098369598388672, 1.478759765625, 1.42236328125, 0.0649566650390625, 1.48681640625, 1.53369140625, 10.0, 1.4140108823776245, 1.5, 1.4140108823776245
32865, -0.8234151601791382, -6.685856819152832, 2.4678444862365723, 0.009666507132351398, 0.001631180290132761, -14.00046443939209, 0.18010485172271729, 0.0302796121686697, -0.9057575464248657, -0.781591534614563, -0.953278124332428, 0.061953309923410416, -0.5356550071474133, 0.6280393362365828, -6.1301462109084515, 9362.0, 30146.0, 35388.0, 9362.0, 8.390083312988281, -0.22610166668891907, -0.14966121315956116, -0.1369459480047226, 0.008992521092295647, -0.06490740180015564, 0.9988752007484436, -0.0893884226679802, -0.2098369598388672, 1.478759765625, 1.3564453125, 0.0156707763671875, 1.48681640625, 1.354248046875, 10.0, 1.414400339126587, 1.5, 1.414400339126587
32875, -0.8234730958938599, -6.684983253479004, 2.4663546085357666, 0.011524260975420475, 0.001943470910191536, -14.009525299072266, 0.19144590198993683, 0.032178208231925964, -0.9065017104148865, -0.7815991640090942, -0.953277587890625, 0.06195541471242905, -0.5305150162514275, 0.6201939059019139, -6.118154228459321, 9362.0, 30146.0, 35388.0, 9362.0, 8.390083312988281, -0.05889761075377464, -0.19955389201641083, 0.02771179750561714, 0.007957220077514648, -0.06300144642591476, 0.9957243204116821, -0.0893884226679802, -0.2098369598388672, 1.478759765625, 1.566650390625, 0.3395233154296875, 1.48974609375, 1.51171875, 10.0, 1.4137687683105469, 1.5, 1.4137687683105469
32885, -0.8232300877571106, -6.685000419616699, 2.4673120975494385, 0.013495265506207943, 0.002274720696732402, -14.018595695495605, 0.20275500416755676, 0.0340719148516655, -0.9075074791908264, -0.78159499168396, -0.9532737731933594, 0.06194542720913887, -0.5318427132713119, 0.6128292020211177, -6.116688154579777, 9362.0, 30146.0, 35388.0, 9362.0, 8.390083312988281, 0.1575298011302948, 0.1690233200788498, -0.09818089008331299, 0.008097573183476925, -0.062464646995067596, 0.9941269755363464, -0.0893884226679802, -0.2098369598388672, 1.478759765625, 1.49267578125, 0.1811065673828125, 1.48974609375, 1.22314453125, 10.0, 1.4136548042297363, 1.5, 1.4136548042297363
32895, -0.8226781487464905, -6.685815334320068, 2.4660472869873047, 0.01557922177016735, 0.002624883083626628, -14.027676582336426, 0.21403630077838898, 0.03596031293272972, -0.9087525606155396, -0.7816025614738464, -0.9532676339149475, 0.061969708651304245, -0.5283055468844524, 0.6135897975421472, -6.118171874000402, 9362.0, 30146.0, 35388.0, 9362.0, 8.390083312988281, 0.03746012970805168, -0.2965640723705292, 0.07949226349592209, 0.00834605935961008, -0.06256445497274399, 0.9961411952972412, -0.0893884226679802, -0.2098369598388672, 1.478759765625, 1.50439453125, 0.2044219970703125, 1.49267578125, 1.528564453125, 10.0, 1.4134533405303955, 1.5, 1.4134533405303955
32905, -0.822496235370636, -6.685082912445068, 2.4649157524108887, 0.01777610369026661, 0.0029939415398985147, -14.03676986694336, 0.225340336561203, 0.03785114735364914, -0.9098154306411743, -0.7816037535667419, -0.9532652497291565, 0.061962444335222244, -0.537101347078335, 0.6165776164324654, -6.110977024501315, 9362.0, 30146.0, 35388.0, 9362.0, 8.390083312988281, -0.12802259624004364, -0.026394380256533623, 0.07119793444871902, 0.00669330358505249, -0.06620301306247711, 0.9988857507705688, -0.0893884226679802, -0.2098369598388672, 1.478759765625, 1.487548828125, 0.1712188720703125, 1.49267578125, 1.49560546875, 10.0, 1.4124222993850708, 1.5, 1.4124222993850708
32915, -0.8231236338615417, -6.686141014099121, 2.4646120071411133, 0.0200861394405365, 0.0033819254022091627, -14.045872688293457, 0.2366669923067093, 0.03974556922912598, -0.9106730222702026, -0.7816289067268372, -0.9532917737960815, 0.06201769784092903, -0.5310496070786052, 0.595413952199749, -6.0850977679806535, 9362.0, 30146.0, 35388.0, 9362.0, 8.390083312988281, 0.016584070399403572, -0.028587706387043, 0.11240555346012115, 0.006696376018226147, -0.06617287546396255, 1.0008524656295776, -0.0893884226679802, -0.2098369598388672, 1.478759765625, 1.62744140625, 0.483154296875, 1.494140625, 1.543212890625, 10.0, 1.412409782409668, 1.5, 1.412409782409668
32925, -0.8238485455513, -6.687285423278809, 2.4654769897460938, 0.022509600967168808, 0.0037888840306550264, -14.05498218536377, 0.2480252981185913, 0.0416463203728199, -0.911274254322052, -0.7816088795661926, -0.9532651901245117, 0.06194313243031502, -0.5253569362875614, 0.6224482296850908, -6.1144033534575, 9362.0, 30146.0, 35388.0, 9362.0, 8.390083312988281, -0.11651578545570374, 0.26209965348243713, 0.1044650673866272, 0.006891719531267881, -0.0657869353890419, 0.9978858232498169, -0.0893884226679802, -0.2098369598388672, 1.478759765625, 1.54248046875, 0.28521728515625, 1.494140625, 1.517578125, 10.0, 1.4115601778030396, 1.5, 1.4115601778030396
32935, -0.8236511945724487, -6.689027309417725, 2.4663872718811035, 0.025046516209840775, 0.004214834421873093, -14.064099311828613, 0.25935766100883484, 0.04354390501976013, -0.9121142625808716, -0.78162682056427, -0.9532966613769531, 0.0619966946542263, -0.527355776179482, 0.5850851512896043, -6.078347340007417, 9362.0, 30146.0, 35388.0, 9362.0, 8.390083312988281, 0.12750111520290375, -0.05569346994161606, 0.19110609591007233, 0.008373620919883251, -0.06603973358869553, 1.000006914138794, -0.0893884226679802, -0.2098369598388672, 1.478759765625, 1.474365234375, 0.14654541015625, 1.489013671875, 1.405517578125, 10.0, 1.4119781255722046, 1.5, 1.4119781255722046
32945, -0.823126494884491, -6.689215183258057, 2.4676051139831543, 0.027696818113327026, 0.004659768659621477, -14.073224067687988, 0.27070268988609314, 0.04544315114617348, -0.9128708243370056, -0.7816072106361389, -0.9532762169837952, 0.06196562200784683, -0.52709444577526, 0.6134113716173601, -6.120501713775928, 9362.0, 30146.0, 35388.0, 9362.0, 8.390083312988281, 0.01058204472064972, -0.07386323064565659, 0.15470600128173828, 0.006319556385278702, -0.06285492330789566, 0.9983550906181335, -0.07779479771852493, -0.28151702880859375, 1.472900390625, 1.47509765625, 0.147857666015625, 1.489013671875, 1.314697265625, 10.0, 1.4123138189315796, 1.5, 1.4123138189315796
32955, -0.8235995173454285, -6.688117504119873, 2.468165636062622, 0.0304605420678854, 0.0051236869767308235, -14.082356452941895, 0.28204214572906494, 0.04734064266085625, -0.9136779308319092, -0.7815839052200317, -0.9532772898674011, 0.06191952899098396, -0.522007695766209, 0.6023777304608302, -6.121865928411989, 9362.0, 30146.0, 35388.0, 9362.0, 8.390083312988281, -0.10712696611881256, 0.07600215077400208, 0.42411676049232483, 0.007247936446219683, -0.0642421618103981, 0.9985501170158386, -0.07779479771852493, -0.28151702880859375, 1.472900390625, 1.565185546875, 0.336090087890625, 1.48974609375, 1.11181640625, 10.0, 1.4125674962997437, 1.5, 1.4125674962997437
32965, -0.8236888647079468, -6.6876749992370605, 2.4704623222351074, 0.03333763778209686, 0.005606582388281822, -14.091497421264648, 0.29337725043296814, 0.049238912761211395, -0.9145057797431946, -0.781639814376831, -0.9532930254936218, 0.06199680641293526, -0.5299024897253684, 0.5854174137837731, -6.077648878028001, 9362.0, 30146.0, 35388.0, 9362.0, 8.390083312988281, -0.10712696611881256, 0.07600215077400208, 0.42411676049232483, 0.008343398571014404, -0.06491134315729141, 0.9972512722015381, -0.07779479771852493, -0.28151702880859375, 1.472900390625, 1.310302734375, 0.036285400390625, 1.48974609375, 1.1865234375, 10.0, 1.4130748510360718, 1.5, 1.4130748510360718
32975, -0.8229897618293762, -6.688395977020264, 2.4705252647399902, 0.03333763778209686, 0.005606582388281822, -14.091497421264648, 0.29337725043296814, 0.049238912761211395, -0.9145057797431946, -0.7816027402877808, -0.9532797932624817, 0.06195487082004547, -0.5289548628802618, 0.618228753451973, -6.1229567347437746, 9362.0, 30146.0, 35388.0, 9362.0, 8.390083312988281, -0.10712696611881256, 0.07600215077400208, 0.42411676049232483, 0.008937305770814419, -0.06515131145715714, 0.9974733591079712, -0.07779479771852493, -0.28151702880859375, 1.472900390625, 1.310302734375, 0.036285400390625, 1.48974609375, 1.1865234375, 10.0, 1.4134232997894287, 1.5, 1.4134232997894287
32985, -0.8218170404434204, -6.690832614898682, 2.470489263534546, 0.03333763778209686, 0.005606582388281822, -14.091497421264648, 0.29337725043296814, 0.049238912761211395, -0.9145057797431946, -0.7816019058227539, -0.953259289264679, 0.06197144091129303, -0.5311191025984973, 0.6234407518473972, -6.110039668041657, 9362.0, 30146.0, 35388.0, 9362.0, 8.390083312988281, -0.10712696611881256, 0.07600215077400208, 0.42411676049232483, 0.008327868767082691, -0.06555899977684021, 0.9972721338272095, -0.07779479771852493, -0.28151702880859375, 1.472900390625, 1.310302734375, 0.036285400390625, 1.48974609375, 1.1865234375, 10.0, 1.413636565208435, 1.5, 1.413636565208435
32995, -0.8218663334846497, -6.693172931671143, 2.471853494644165, 0.03333763778209686, 0.005606582388281822, -14.091497421264648, 0.29337725043296814, 0.049238912761211395, -0.9145057797431946, -0.7816498875617981, -0.9532838463783264, 0.06199881434440613, -0.525501316127393, 0.5916064490391193, -6.09004092869114, 9362.0, 30146.0, 35388.0, 9362.0, 8.390083312988281, -0.10712696611881256, 0.07600215077400208, 0.42411676049232483, 0.006254882551729679, -0.06553176045417786, 0.9994034171104431, -0.07779479771852493, -0.28151702880859375, 1.472900390625, 1.310302734375, 0.036285400390625, 1.48974609375, 1.472900390625, 10.0, 1.4139971733093262, 1.5, 1.4139971733093262
33005, -0.8221501111984253, -6.695437908172607, 2.469576597213745, 0.03333763778209686, 0.005606582388281822, -14.091497421264648, 0.29337725043296814, 0.049238912761211395, -0.9145057797431946, -0.7816100716590881, -0.9532677531242371, 0.06195811554789543, -0.532218612945078, 0.6145319779330123, -6.110551755070789, 9362.0, 30146.0, 35388.0, 9362.0, 8.390083312988281, -0.10712696611881256, 0.07600215077400208, 0.42411676049232483, 0.006430381443351507, -0.06621624529361725, 0.9974777698516846, -0.07779479771852493, -0.28151702880859375, 1.472900390625, 1.310302734375, 0.036285400390625, 1.48974609375, 1.521240234375, 10.0, 1.4143565893173218, 1.5, 1.4143565893173218
33015, -0.8204930424690247, -6.696053504943848, 2.4702439308166504, 0.03333763778209686, 0.005606582388281822, -14.091497421264648, 0.29337725043296814, 0.049238912761211395, -0.9145057797431946, -0.7816049456596375, -0.9532627463340759, 0.061961829662323, -0.5282085464197213, 0.6185639614597278, -6.130744757100628, 9362.0, 30146.0, 35388.0, 9362.0, 8.390083312988281, -0.10712696611881256, 0.07600215077400208, 0.42411676049232483, 0.006430381443351507, -0.06621624529361725, 0.9974777698516846, -0.07779479771852493, -0.28151702880859375, 1.472900390625, 1.310302734375, 0.036285400390625, 1.48974609375, 1.521240234375, 10.0, 1.4147194623947144, 1.5, 1.4147194623947144
33025, -0.820725679397583, -6.69282865524292, 2.468186616897583, 0.05297989770770073, 0.008902134373784065, -14.146527290344238, 0.36138463020324707, 0.06060800701379776, -0.9198433756828308, -0.7816231846809387, -0.9532903432846069, 0.06200410798192024, -0.5305128235188413, 0.5914466739402826, -6.07959014000738, 9362.0, 30146.0, 35388.0, 9362.0, 8.390083312988281, -0.10712696611881256, 0.07600215077400208, 0.42411676049232483, 0.006430381443351507, -0.06621624529361725, 0.9974777698516846, -0.07779479771852493, -0.28151702880859375, 1.472900390625, 1.310302734375, 0.036285400390625, 1.48974609375, 1.534423828125, 10.0, 1.4146487712860107, 1.5, 1.4146487712860107
33035, -0.8200864195823669, -6.694662094116211, 2.4684560298919678, 0.05297989770770073, 0.008902134373784065, -14.146527290344238, 0.36138463020324707, 0.06060800701379776, -0.9198433756828308, -0.7816089987754822, -0.9532697796821594, 0.061956554651260376, -0.5330828458443387, 0.6152346654190524, -6.115539229559532, 9362.0, 30146.0, 35388.0, 9362.0, 8.390083312988281, -0.10712696611881256, 0.07600215077400208, 0.42411676049232483, 0.006430381443351507, -0.06621624529361725, 0.9974777698516846, -0.07779479771852493, -0.28151702880859375, 1.472900390625, 1.36669921875, 0.01806640625, 1.48974609375, 1.510986328125, 10.0, 1.4151055812835693, 1.5, 1.4151055812835693
33045, -0.8199426531791687, -6.693737030029297, 2.467776298522949, 0.05297989770770073, 0.008902134373784065, -14.146527290344238, 0.36138463020324707, 0.06060800701379776, -0.9198433756828308, -0.7815966010093689, -0.9532718658447266, 0.06197432428598404, -0.5313442319891385, 0.6216662798771893, -6.121640079820018, 9362.0, 30146.0, 35388.0, 9362.0, 8.390083312988281, -0.10712696611881256, 0.07600215077400208, 0.42411676049232483, 0.006430381443351507, -0.06621624529361725, 0.9974777698516846, -0.08300625532865524, -0.030637741088867188, 1.493408203125, 1.17919921875, 0.513763427734375, 1.48974609375, 1.528564453125, 10.0, 1.4151055812835693, 1.5, 1.4151055812835693
33055, -0.8199406266212463, -6.692649841308594, 2.468844413757324, 0.05297989770770073, 0.008902134373784065, -14.146527290344238, 0.36138463020324707, 0.06060800701379776, -0.9198433756828308, -0.7816301584243774, -0.9532905220985413, 0.06200537458062172, -0.5262223775595133, 0.594063704636028, -6.081459935596067, 9362.0, 30146.0, 35388.0, 9362.0, 8.390083312988281, -0.10712696611881256, 0.07600215077400208, 0.42411676049232483, 0.006430381443351507, -0.06621624529361725, 0.9974777698516846, -0.08300625532865524, -0.030637741088867188, 1.493408203125, 1.17919921875, 0.513763427734375, 1.48974609375, 1.52783203125, 10.0, 1.4155950546264648, 1.5, 1.4155950546264648
33065, -0.8195285797119141, -6.693718433380127, 2.4673280715942383, 0.06834147125482559, 0.0114776361733675, -14.183399200439453, 0.4067167043685913, 0.06816970556974411, -0.9235525131225586, -0.7816107273101807, -0.9532595872879028, 0.06196855381131172, -0.528592435488652, 0.6134932099522814, -6.12147461110278, 9362.0, 30146.0, 35388.0, 9362.0, 8.390083312988281, -0.10712696611881256, 0.07600215077400208, 0.42411676049232483, 0.006430381443351507, -0.06621624529361725, 0.9974777698516846, -0.08300625532865524, -0.030637741088867188, 1.493408203125, 1.17919921875, 0.513763427734375, 1.48974609375, 1.49853515625, 10.0, 1.4151238203048706, 1.5, 1.4151238203048706
33075, -0.8184376955032349, -6.69477653503418, 2.467214822769165, 0.06834147125482559, 0.0114776361733675, -14.183399200439453, 0.4067167043685913, 0.06816970556974411, -0.9235525131225586, -0.781607449054718, -0.9532806873321533, 0.06195451319217682, -0.5384739791020969, 0.6184498150311413, -6.112092780308942, 9362.0, 30146.0, 35388.0, 9362.0, 8.390083312988281, -0.10712696611881256, 0.07600215077400208, 0.42411676049232483, 0.006745956372469664, -0.06521647423505783, 0.9990074634552002, -0.08300625532865524, -0.030637741088867188, 1.493408203125, 1.17919921875, 0.513763427734375, 1.4912109375, 1.49853515625, 10.0, 1.414825201034546, 1.5, 1.414825201034546
33085, -0.8181895017623901, -6.696216583251953, 2.467548370361328, 0.06834147125482559, 0.0114776361733675, -14.183399200439453, 0.4067167043685913, 0.06816970556974411, -0.9235525131225586, -0.7815802097320557, -0.9532811641693115, 0.06194232031702995, -0.5217331924422941, 0.6052653171276745, -6.122397699392194, 9362.0, 30146.0, 35388.0, 9362.0, 8.390083312988281, 0.25691238045692444, 0.17409950494766235, -0.10573788732290268, 0.007679214235395193, -0.06430651247501373, 0.9973428249359131, -0.08300625532865524, -0.030637741088867188, 1.493408203125, 1.215087890625, 0.3043060302734375, 1.4912109375, 1.49853515625, 10.0, 1.414825201034546, 1.5, 1.414825201034546
33095, -0.8164350390434265, -6.697564601898193, 2.4666805267333984, 0.06834147125482559, 0.0114776361733675, -14.183399200439453, 0.4067167043685913, 0.06816970556974411, -0.9235525131225586, -0.7815988659858704, -0.9532766342163086, 0.061977699398994446, -0.529257185445085, 0.6219878357746893, -6.12037001981599, 9362.0, 30146.0, 35388.0, 9362.0, 8.390083312988281, 0.25691238045692444, 0.17409950494766235, -0.10573788732290268, 0.006714357994496822, -0.06558534502983093, 0.9963597059249878, -0.08300625532865524, -0.030637741088867188, 1.493408203125, 1.215087890625, 0.3043060302734375, 1.4912109375, 1.49853515625, 10.0, 1.415096640586853, 1.5, 1.415096640586853
33105, -0.8169375061988831, -6.696658611297607, 2.464627981185913, 0.08551720529794693, 0.014355496503412724, -14.220412254333496, 0.45206788182258606, 0.07571759819984436, -0.9272286295890808, -0.7816042900085449, -0.9532645344734192, 0.06196843832731247, -0.5384491399332875, 0.6141202108892969, -6.117558431215533, 9362.0, 30146.0, 35388.0, 9362.0, 8.390083312988281, 0.19551992416381836, -0.29918479919433594, 0.05116724967956543, 0.006714357994496822, -0.06558534502983093, 0.9963597059249878, -0.08300625532865524, -0.030637741088867188, 1.493408203125, 1.215087890625, 0.3043060302734375, 1.4912109375, 1.51904296875, 10.0, 1.415096640586853, 1.5, 1.415096640586853
33115, -0.8163326978683472, -6.693975448608398, 2.4657351970672607, 0.08551720529794693, 0.014355496503412724, -14.220412254333496, 0.45206788182258606, 0.07571759819984436, -0.9272286295890808, -0.7816227078437805, -0.9532793164253235, 0.061942487955093384, -0.5320586286820917, 0.6174355835553342, -6.117708448983863, 9362.0, 30146.0, 35388.0, 9362.0, 8.390083312988281, 0.19551992416381836, -0.29918479919433594, 0.05116724967956543, 0.007745102979242802, -0.06452920287847519, 0.9971119165420532, -0.08300625532865524, -0.030637741088867188, 1.493408203125, 1.215087890625, 0.3043060302734375, 1.489013671875, 1.51904296875, 10.0, 1.4139069318771362, 1.5, 1.4139069318771362
33125, -0.8163090348243713, -6.6948561668396, 2.466541051864624, 0.08551720529794693, 0.014355496503412724, -14.220412254333496, 0.45206788182258606, 0.07571759819984436, -0.9272286295890808, -0.7816125154495239, -0.9532796740531921, 0.061973635107278824, -0.5375200333345892, 0.6168192926671168, -6.118909887891509, 9362.0, 30146.0, 35388.0, 9362.0, 8.390083312988281, 0.19551992416381836, -0.29918479919433594, 0.05116724967956543, 0.0074653709307312965, -0.06495639681816101, 0.9986003041267395, -0.08300625532865524, -0.030637741088867188, 1.493408203125, 1.215087890625, 0.3043060302734375, 1.489013671875, 1.51904296875, 10.0, 1.4142481088638306, 1.5, 1.4142481088638306
33135, -0.8173653483390808, -6.694972991943359, 2.4651119709014893, 0.08551720529794693, 0.014355496503412724, -14.220412254333496, 0.45206788182258606, 0.07571759819984436, -0.9272286295890808, -0.7816043496131897, -0.9532718658447266, 0.06196335703134537, -0.5245689209325368, 0.6135858712801223, -6.126246292678877, 9362.0, 30146.0, 35388.0, 9362.0, 8.390083312988281, -0.11040763556957245, 0.021653911098837852, 0.23397977650165558, 0.0074653709307312965, -0.06495639681816101, 0.9986003041267395, -0.08300625532865524, -0.030637741088867188, 1.493408203125, 1.215087890625, 0.3043060302734375, 1.491943359375, 1.5322265625, 10.0, 1.4142481088638306, 1.5, 1.4142481088638306
33155, -0.8167169094085693, -6.696436882019043, 2.4671316146850586, 0.08551720529794693, 0.014355496503412724, -14.220412254333496, 0.45206788182258606, 0.07571759819984436, -0.9272286295890808, -0.7816187739372253, -0.9532777070999146, 0.06196727603673935, -0.531956700433766, 0.6195849477936974, -6.123107718893576, 9362.0, 30146.0, 35388.0, 9362.0, 8.390083312988281, -0.11040763556957245, 0.021653911098837852, 0.23397977650165558, 0.008545787073671818, -0.06434369087219238, 1.0010771751403809, -0.08154705166816711, -0.07543754577636719, 1.48974609375, 1.215087890625, 0.3043060302734375, 1.491943359375, 1.53662109375, 10.0, 1.4141299724578857, 1.5, 1.4141299724578857
33165, -0.8179887533187866, -6.696103572845459, 2.465918779373169, 0.08551720529794693, 0.014355496503412724, -14.220412254333496, 0.45206788182258606, 0.07571759819984436, -0.9272286295890808, -0.7816213369369507, -0.9532782435417175, 0.06196592375636101, -0.5345815622040249, 0.6115899626043131, -6.114352263309581, 9362.0, 30146.0, 35388.0, 9362.0, 8.390083312988281, -0.11040763556957245, 0.021653911098837852, 0.23397977650165558, 0.006590249482542276, -0.06508248299360275, 0.9988400936126709, -0.08154705166816711, -0.07543754577636719, 1.48974609375, 1.215087890625, 0.3043060302734375, 1.491943359375, 1.53662109375, 10.0, 1.4142507314682007, 1.5, 1.4142507314682007
33175, -0.8169162273406982, -6.6978631019592285, 2.467038631439209, 0.08551720529794693, 0.014355496503412724, -14.220412254333496, 0.45206788182258606, 0.07571759819984436, -0.9272286295890808, -0.781610906124115, -0.9532691240310669, 0.06197752058506012, -0.5314765445505691, 0.6245743657271703, -6.120102357662304, 9362.0, 30146.0, 35388.0, 9362.0, 8.390083312988281, 0.1754278838634491, -0.25298187136650085, -0.06193074956536293, 0.006590249482542276, -0.06508248299360275, 0.9988400936126709, -0.08154705166816711, -0.07543754577636719, 1.48974609375, 1.215087890625, 0.3043060302734375, 1.491943359375, 1.380615234375, 10.0, 1.4142507314682007, 1.5, 1.4142507314682007
33185, -0.816352903842926, -6.695650577545166, 2.467188835144043, 0.1253109872341156, 0.02101610228419304, -14.294880867004395, 0.5428310036659241, 0.09080857783555984, -0.9340898394584656, -0.7816126346588135, -0.9532708525657654, 0.06197747588157654, -0.5259513649315811, 0.6154353849662471, -6.128624661131492, 9362.0, 30146.0, 35388.0, 9362.0, 8.390083312988281, 0.1754278838634491, -0.25298187136650085, -0.06193074956536293, 0.0085590910166502, -0.06728935986757278, 0.9995153546333313, -0.08154705166816711, -0.07543754577636719, 1.48974609375, 1.215087890625, 0.3043060302734375, 1.491943359375, 1.51318359375, 10.0, 1.4144117832183838, 1.5, 1.4144117832183838
33205, -0.8163433074951172, -6.6956071853637695, 2.4685373306274414, 0.13639476895332336, 0.022870030254125595, -14.313577651977539, 0.5655563473701477, 0.09458617866039276, -0.9355043768882751, -0.781610906124115, -0.953273594379425, 0.06197134405374527, -0.5252822600648159, 0.6227308388644133, -6.125975420815679, 9362.0, 30146.0, 35388.0, 9362.0, 8.390083312988281, 0.028531450778245926, 0.18536658585071564, -0.18928325176239014, 0.008440002799034119, -0.06597760319709778, 0.9980785846710205, -0.08154705166816711, -0.07543754577636719, 1.48974609375, 1.215087890625, 0.3043060302734375, 1.491943359375, 1.51318359375, 10.0, 1.414382815361023, 1.5, 1.414382815361023
33215, -0.8160455822944641, -6.69380521774292, 2.470559597015381, 0.13639476895332336, 0.022870030254125595, -14.313577651977539, 0.5655563473701477, 0.09458617866039276, -0.9355043768882751, -0.7816144227981567, -0.9532762169837952, 0.06196051836013794, -0.5256470035945754, 0.6186967301349853, -6.11985368765, 9362.0, 30146.0, 35388.0, 9362.0, 8.390083312988281, -0.2817113995552063, -0.18700101971626282, -0.10192904621362686, 0.008440002799034119, -0.06597760319709778, 0.9980785846710205, -0.08154705166816711, -0.07543754577636719, 1.48974609375, 1.215087890625, 0.3043060302734375, 1.48828125, 1.51318359375, 10.0, 1.414382815361023, 1.5, 1.414382815361023
33225, -0.8173776865005493, -6.692417621612549, 2.470229387283325, 0.13639476895332336, 0.022870030254125595, -14.313577651977539, 0.5655563473701477, 0.09458617866039276, -0.9355043768882751, -0.7816355228424072, -0.9532874822616577, 0.06203516572713852, -0.5279149620897383, 0.5791272068088631, -6.080667629286058, 9362.0, 30146.0, 35388.0, 9362.0, 8.390083312988281, -0.026459692046046257, 0.2059459686279297, -0.0838879719376564, 0.008440002799034119, -0.06597760319709778, 0.9980785846710205, -0.08154705166816711, -0.07543754577636719, 1.48974609375, 1.450927734375, 0.1063690185546875, 1.48828125, 1.51318359375, 10.0, 1.414286732673645, 1.5, 1.414286732673645
33235, -0.8170689940452576, -6.692851543426514, 2.4686801433563232, 0.13639476895332336, 0.022870030254125595, -14.313577651977539, 0.5655563473701477, 0.09458617866039276, -0.9355043768882751, -0.7816158533096313, -0.9532697200775146, 0.06196116656064987, -0.5323935234045085, 0.6213357838126967, -6.116724221121259, 9362.0, 30146.0, 35388.0, 9362.0, 8.390083312988281, -0.026459692046046257, 0.2059459686279297, -0.0838879719376564, 0.006528213620185852, -0.06660894304513931, 0.9968640804290771, -0.08154705166816711, -0.07543754577636719, 1.48974609375, 1.365966796875, 0.017791748046875, 1.48828125, 1.51318359375, 10.0, 1.414201259613037, 1.5, 1.414201259613037
33245, -0.8171230554580688, -6.692931652069092, 2.470655918121338, 0.15992401540279388, 0.026804277673363686, -14.351070404052734, 0.6108817458152771, 0.10212433338165283, -0.9392901659011841, -0.7816071510314941, -0.953283965587616, 0.06198543310165405, -0.5363700265644128, 0.608709365735848, -6.118873354277323, 9362.0, 30146.0, 35388.0, 9362.0, 8.390083312988281, -0.08517288416624069, 0.3071587085723877, 0.25385579466819763, 0.006528213620185852, -0.06660894304513931, 0.9968640804290771, -0.07565288990736008, -0.1291980743408203, 1.4853515625, 1.365966796875, 0.017791748046875, 1.48828125, 1.43115234375, 10.0, 1.414201259613037, 1.5, 1.414201259613037
33255, -0.8178631067276001, -6.693996429443359, 2.4722585678100586, 0.15992401540279388, 0.026804277673363686, -14.351070404052734, 0.6108817458152771, 0.10212433338165283, -0.9392901659011841, -0.7815790772438049, -0.9532877802848816, 0.061951711773872375, -0.5266532569096329, 0.6085686361913929, -6.118757154142467, 9362.0, 30146.0, 35388.0, 9362.0, 8.390083312988281, -0.08517288416624069, 0.3071587085723877, 0.25385579466819763, 0.008390945382416248, -0.06696951389312744, 0.9980500340461731, -0.07565288990736008, -0.1291980743408203, 1.4853515625, 1.365966796875, 0.017791748046875, 1.48828125, 1.43115234375, 10.0, 1.4141020774841309, 1.5, 1.4141020774841309
33265, -0.8169869780540466, -6.693582057952881, 2.4709537029266357, 0.17236827313899994, 0.028884487226605415, -14.369874954223633, 0.6335486769676208, 0.10589754581451416, -0.9411377310752869, -0.7815865874290466, -0.9532769918441772, 0.06196323037147522, -0.5291423694508147, 0.6076322207362921, -6.12731801885279, 9362.0, 30146.0, 35388.0, 9362.0, 8.390083312988281, -0.08517288416624069, 0.3071587085723877, 0.25385579466819763, 0.009685225784778595, -0.06679226458072662, 0.997267484664917, -0.07565288990736008, -0.1291980743408203, 1.4853515625, 1.365966796875, 0.017791748046875, 1.48828125, 1.52783203125, 10.0, 1.413291096687317, 1.5, 1.413291096687317
33275, -0.8175734877586365, -6.692255020141602, 2.4720022678375244, 0.17236827313899994, 0.028884487226605415, -14.369874954223633, 0.6335486769676208, 0.10589754581451416, -0.9411377310752869, -0.7815912365913391, -0.953271746635437, 0.06198453530669212, -0.5251857414438529, 0.613397115189656, -6.115192268233188, 9362.0, 30146.0, 35388.0, 9362.0, 8.390083312988281, -0.02441932074725628, 0.2729054391384125, 0.2848220765590668, 0.009685225784778595, -0.06679226458072662, 0.997267484664917, -0.07565288990736008, -0.1291980743408203, 1.4853515625, 1.365966796875, 0.017791748046875, 1.48828125, 1.52783203125, 10.0, 1.41355562210083, 1.5, 1.41355562210083
33285, -0.8175306916236877, -6.695044040679932, 2.4732789993286133, 0.17236827313899994, 0.028884487226605415, -14.369874954223633, 0.6335486769676208, 0.10589754581451416, -0.9411377310752869, -0.7816095352172852, -0.9532566666603088, 0.061992160975933075, -0.5323486469262357, 0.6166829143833468, -6.109650920037703, 9362.0, 30146.0, 35388.0, 9362.0, 8.390083312988281, -0.02441932074725628, 0.2729054391384125, 0.2848220765590668, 0.00677745183929801, -0.06436749547719955, 0.9972193837165833, -0.07565288990736008, -0.1291980743408203, 1.4853515625, 1.3505859375, 0.0153045654296875, 1.48828125, 1.52783203125, 10.0, 1.4138424396514893, 1.5, 1.4138424396514893
33295, -0.8175101280212402, -6.694645404815674, 2.4738059043884277, 0.17236827313899994, 0.028884487226605415, -14.369874954223633, 0.6335486769676208, 0.10589754581451416, -0.9411377310752869, -0.7815821170806885, -0.9532825350761414, 0.06196782737970352, -0.5182347959374229, 0.5951103752035465, -6.120532000955823, 9362.0, 30146.0, 35388.0, 9362.0, 8.390083312988281, -0.02441932074725628, 0.2729054391384125, 0.2848220765590668, 0.008215195499360561, -0.06529664993286133, 0.9976992011070251, -0.07565288990736008, -0.1291980743408203, 1.4853515625, 1.3505859375, 0.0153045654296875, 1.48828125, 1.52783203125, 10.0, 1.4141006469726562, 1.5, 1.4141006469726562
33305, -0.8187256455421448, -6.692740440368652, 2.4766738414764404, 0.17236827313899994, 0.028884487226605415, -14.369874954223633, 0.6335486769676208, 0.10589754581451416, -0.9411377310752869, -0.7816089987754822, -0.9532780647277832, 0.06200386583805084, -0.5278915217009832, 0.6088201147534562, -6.123934582582609, 9362.0, 30146.0, 35388.0, 9362.0, 8.390083312988281, -0.02441932074725628, 0.2729054391384125, 0.2848220765590668, 0.008215195499360561, -0.06529664993286133, 0.9976992011070251, -0.07565288990736008, -0.1291980743408203, 1.4853515625, 1.3505859375, 0.0153045654296875, 1.48828125, 1.52783203125, 10.0, 1.4143927097320557, 1.5, 1.4143927097320557
33315, -0.820022463798523, -6.692244052886963, 2.4754419326782227, 0.17236827313899994, 0.028884487226605415, -14.369874954223633, 0.6335486769676208, 0.10589754581451416, -0.9411377310752869, -0.7816105484962463, -0.9532806873321533, 0.061977773904800415, -0.5267632935487859, 0.6193732929338012, -6.117788211337621, 9362.0, 30146.0, 35388.0, 9362.0, 8.390083312988281, -0.02441932074725628, 0.2729054391384125, 0.2848220765590668, 0.008215195499360561, -0.06529664993286133, 0.9976992011070251, -0.07565288990736008, -0.1291980743408203, 1.4853515625, 1.3505859375, 0.0153045654296875, 1.48828125, 1.52783203125, 10.0, 1.4147623777389526, 1.5, 1.4147623777389526
33325, -0.8200662732124329, -6.694814205169678, 2.475468158721924, 0.17236827313899994, 0.028884487226605415, -14.369874954223633, 0.6335486769676208, 0.10589754581451416, -0.9411377310752869, -0.7816092371940613, -0.9532678723335266, 0.0619686096906662, -0.5338174106349964, 0.6080045345647989, -6.123729817625953, 9362.0, 30146.0, 35388.0, 9362.0, 8.390083312988281, -0.02441932074725628, 0.2729054391384125, 0.2848220765590668, 0.008215195499360561, -0.06529664993286133, 0.9976992011070251, -0.07565288990736008, -0.1291980743408203, 1.4853515625, 1.423095703125, 0.06591796875, 1.48828125, 1.52783203125, 10.0, 1.415068507194519, 1.5, 1.415068507194519
33335, -0.8199608325958252, -6.694974422454834, 2.476233959197998, 0.17236827313899994, 0.028884487226605415, -14.369874954223633, 0.6335486769676208, 0.10589754581451416, -0.9411377310752869, -0.7816020846366882, -0.9532697200775146, 0.06198091059923172, -0.5335276077403105, 0.6194201435709488, -6.123400447866481, 9362.0, 30146.0, 35388.0, 9362.0, 8.390083312988281, -0.02441932074725628, 0.2729054391384125, 0.2848220765590668, 0.008215195499360561, -0.06529664993286133, 0.9976992011070251, -0.07565288990736008, -0.1291980743408203, 1.4853515625, 1.388671875, 0.03033447265625, 1.48828125, 1.447265625, 10.0, 1.4153389930725098, 1.5, 1.4153389930725098
33345, -0.8200895190238953, -6.6971049308776855, 2.477634906768799, 0.17236827313899994, 0.028884487226605415, -14.369874954223633, 0.6335486769676208, 0.10589754581451416, -0.9411377310752869, -0.7816110253334045, -0.9532579779624939, 0.06200355663895607, -0.5298135788313038, 0.6204327402063825, -6.12256238252535, 9362.0, 30146.0, 35388.0, 9362.0, 8.390083312988281, -0.02441932074725628, 0.2729054391384125, 0.2848220765590668, 0.008215195499360561, -0.06529664993286133, 0.9976992011070251, -0.06586259603500366, 0.08584022521972656, 1.5029296875, 1.33154296875, 0.0198516845703125, 1.48828125, 1.487548828125, 10.0, 1.4153389930725098, 1.5, 1.4153389930725098
33355, -0.820769727230072, -6.696523666381836, 2.4773478507995605, 0.17236827313899994, 0.028884487226605415, -14.369874954223633, 0.6335486769676208, 0.10589754581451416, -0.9411377310752869, -0.7816099524497986, -0.9532881379127502, 0.06197706237435341, -0.5318728473974514, 0.6144382563718693, -6.111465191239415, 9362.0, 30146.0, 35388.0, 9362.0, 8.390083312988281, -0.13763344287872314, 0.25241273641586304, 0.021070048213005066, 0.008215195499360561, -0.06529664993286133, 0.9976992011070251, -0.06586259603500366, 0.08584022521972656, 1.5029296875, 1.33154296875, 0.0198516845703125, 1.487548828125, 1.487548828125, 10.0, 1.4150173664093018, 1.5, 1.4150173664093018
33365, -0.8206424117088318, -6.696510314941406, 2.4759767055511475, 0.17236827313899994, 0.028884487226605415, -14.369874954223633, 0.6335486769676208, 0.10589754581451416, -0.9411377310752869, -0.7816096544265747, -0.9532623887062073, 0.061967771500349045, -0.5367130642144965, 0.6155057325889004, -6.114984560239554, 9362.0, 30146.0, 35388.0, 9362.0, 8.390083312988281, -0.13763344287872314, 0.25241273641586304, 0.021070048213005066, 0.008215195499360561, -0.06529664993286133, 0.9976992011070251, -0.06586259603500366, 0.08584022521972656, 1.5029296875, 1.201904296875, 0.373077392578125, 1.487548828125, 1.530029296875, 10.0, 1.4152857065200806, 1.5, 1.4152857065200806
33375, -0.8214908838272095, -6.697049140930176, 2.4763216972351074, 0.17236827313899994, 0.028884487226605415, -14.369874954223633, 0.6335486769676208, 0.10589754581451416, -0.9411377310752869, -0.7816160917282104, -0.9532579183578491, 0.06197505444288254, -0.5346061582761266, 0.6167903780755353, -6.114514038030001, 9362.0, 30146.0, 35388.0, 9362.0, 8.390083312988281, -0.13763344287872314, 0.25241273641586304, 0.021070048213005066, 0.008215195499360561, -0.06529664993286133, 0.9976992011070251, -0.06586259603500366, 0.08584022521972656, 1.5029296875, 1.19677734375, 0.40228271484375, 1.487548828125, 1.55859375, 10.0, 1.4155000448226929, 1.5, 1.4155000448226929
33385, -0.8219360709190369, -6.697703838348389, 2.4759175777435303, 0.2565532922744751, 0.04295199364423752, -14.483488082885742, 0.7695772647857666, 0.12858445942401886, -0.9522038102149963, -0.7816051244735718, -0.9532570242881775, 0.061975348740816116, -0.5329429856919481, 0.6125339067150435, -6.125167418660842, 9362.0, 30146.0, 35388.0, 9362.0, 8.390083312988281, -0.13763344287872314, 0.25241273641586304, 0.021070048213005066, 0.008215195499360561, -0.06529664993286133, 0.9976992011070251, -0.06586259603500366, 0.08584022521972656, 1.5029296875, 1.19677734375, 0.40228271484375, 1.487548828125, 1.55859375, 10.0, 1.4153136014938354, 1.5, 1.4153136014938354
33395, -0.8229160904884338, -6.698001384735107, 2.476269006729126, 0.2565532922744751, 0.04295199364423752, -14.483488082885742, 0.7695772647857666, 0.12858445942401886, -0.9522038102149963, -0.7816058397293091, -0.9532685279846191, 0.06196533143520355, -0.5397270366619025, 0.6092928016556698, -6.117371785695352, 9362.0, 30146.0, 35388.0, 9362.0, 8.390083312988281, -0.13763344287872314, 0.25241273641586304, 0.021070048213005066, 0.008215195499360561, -0.06529664993286133, 0.9976992011070251, -0.06586259603500366, 0.08584022521972656, 1.5029296875, 1.19677734375, 0.40228271484375, 1.489013671875, 1.5146484375, 10.0, 1.414878010749817, 1.5, 1.414878010749817
33405, -0.8229248523712158, -6.700456619262695, 2.4786577224731445, 0.2721717655658722, 0.04556162282824516, -14.502549171447754, 0.7922797799110413, 0.1323811262845993, -0.9538679122924805, -0.7816119194030762, -0.953276515007019, 0.06195817142724991, -0.5349399318876052, 0.6144741461641843, -6.116674760491828, 9362.0, 30146.0, 35388.0, 9362.0, 8.390083312988281, 0.10740970820188522, -0.0669071227312088, 0.07611966878175735, 0.008215195499360561, -0.06529664993286133, 0.9976992011070251, -0.06586259603500366, 0.08584022521972656, 1.5029296875, 1.19677734375, 0.40228271484375, 1.489013671875, 1.5146484375, 10.0, 1.4137592315673828, 1.5, 1.4137592315673828
33415, -0.8229463696479797, -6.700542449951172, 2.479001760482788, 0.2721717655658722, 0.04556162282824516, -14.502549171447754, 0.7922797799110413, 0.1323811262845993, -0.9538679122924805, -0.7816052436828613, -0.9532654285430908, 0.06198015809059143, -0.5371389700880075, 0.6181615126714917, -6.1171543563700475, 9362.0, 30146.0, 35388.0, 9362.0, 8.390083312988281, 0.14232847094535828, 0.21522505581378937, 0.07063499093055725, 0.008215195499360561, -0.06529664993286133, 0.9976992011070251, -0.06586259603500366, 0.08584022521972656, 1.5029296875, 1.19677734375, 0.40228271484375, 1.489013671875, 1.5146484375, 10.0, 1.4133307933807373, 1.5, 1.4133307933807373
33425, -0.822529137134552, -6.700785160064697, 2.479442834854126, 0.2882443964481354, 0.04824722558259964, -14.52164363861084, 0.8149786591529846, 0.13617853820323944, -0.9556376934051514, -0.7816168665885925, -0.9532698392868042, 0.06196265667676926, -0.5363095639882909, 0.6160061652086313, -6.114095075387712, 9362.0, 30146.0, 35388.0, 9362.0, 8.390083312988281, 0.14232847094535828, 0.21522505581378937, 0.07063499093055725, 0.007343251723796129, -0.06398406624794006, 0.9994309544563293, -0.06586259603500366, 0.08584022521972656, 1.5029296875, 1.19677734375, 0.40228271484375, 1.489013671875, 1.5146484375, 10.0, 1.4129060506820679, 1.5, 1.4129060506820679
33435, -0.8225768208503723, -6.700859069824219, 2.480494737625122, 0.2882443964481354, 0.04824722558259964, -14.52164363861084, 0.8149786591529846, 0.13617853820323944, -0.9556376934051514, -0.7816053628921509, -0.9532748460769653, 0.06196798011660576, -0.5300772330905342, 0.6139030977025755, -6.113187707686628, 9362.0, 30146.0, 35388.0, 9362.0, 8.390083312988281, -0.06441085040569305, -0.15589450299739838, 0.08629314601421356, 0.007343251723796129, -0.06398406624794006, 0.9994309544563293, -0.06586259603500366, 0.08584022521972656, 1.5029296875, 1.19677734375, 0.40228271484375, 1.489013671875, 1.5146484375, 10.0, 1.4124341011047363, 1.5, 1.4124341011047363
33445, -0.8229745626449585, -6.701091766357422, 2.4808716773986816, 0.2882443964481354, 0.04824722558259964, -14.52164363861084, 0.8149786591529846, 0.13617853820323944, -0.9556376934051514, -0.7815986275672913, -0.9532813429832458, 0.061969731003046036, -0.5265954919586904, 0.6192586146041492, -6.111767919595239, 9362.0, 30146.0, 35388.0, 9362.0, 8.390083312988281, -0.18866199254989624, 0.09406858682632446, 0.3190039396286011, 0.007343251723796129, -0.06398406624794006, 0.9994309544563293, -0.06586259603500366, 0.08584022521972656, 1.5029296875, 1.19677734375, 0.40228271484375, 1.489013671875, 1.5146484375, 10.0, 1.4124341011047363, 1.5, 1.4124341011047363
33455, -0.8239424824714661, -6.700530052185059, 2.482729911804199, 0.2882443964481354, 0.04824722558259964, -14.52164363861084, 0.8149786591529846, 0.13617853820323944, -0.9556376934051514, -0.7815929651260376, -0.9532672166824341, 0.06195465102791786, -0.5324912478878561, 0.6128699345837276, -6.102790009169592, 9362.0, 30146.0, 35388.0, 9362.0, 8.390083312988281, -0.011237469501793385, -0.06752971559762955, 0.05356728285551071, 0.007343251723796129, -0.06398406624794006, 0.9994309544563293, -0.06586259603500366, 0.08584022521972656, 1.5029296875, 1.19677734375, 0.40228271484375, 1.489013671875, 1.5146484375, 10.0, 1.4130809307098389, 1.5, 1.4130809307098389
33465, -0.8238843679428101, -6.701292514801025, 2.482121467590332, 0.3217523396015167, 0.053846392780542374, -14.559931755065918, 0.8603931665420532, 0.14377829432487488, -0.9590505361557007, -0.7816017270088196, -0.9532634019851685, 0.06196027994155884, -0.5327507494932344, 0.6201804767006251, -6.121220302071067, 9362.0, 30146.0, 35388.0, 9362.0, 8.390083312988281, 0.014108315110206604, 0.04216954484581947, -0.1911533772945404, 0.007343251723796129, -0.06398406624794006, 0.9994309544563293, -0.06586259603500366, 0.08584022521972656, 1.5029296875, 1.19677734375, 0.40228271484375, 1.489013671875, 1.519775390625, 10.0, 1.4130809307098389, 1.5, 1.4130809307098389
33475, -0.8231821060180664, -6.702212810516357, 2.4812569618225098, 0.3217523396015167, 0.053846392780542374, -14.559931755065918, 0.8603931665420532, 0.14377829432487488, -0.9590505361557007, -0.781618058681488, -0.9532806277275085, 0.06196318939328194, -0.5228978854067186, 0.6173885424866796, -6.114686811215798, 9362.0, 30146.0, 35388.0, 9362.0, 8.390083312988281, 0.1533484309911728, -0.22623981535434723, -0.3465993404388428, 0.007343251723796129, -0.06398406624794006, 0.9994309544563293, -0.06586259603500366, 0.08584022521972656, 1.5029296875, 1.19677734375, 0.40228271484375, 1.489013671875, 1.519775390625, 10.0, 1.4129031896591187, 1.5, 1.4129031896591187
33485, -0.8228674530982971, -6.700218677520752, 2.478851795196533, 0.33918753266334534, 0.056760020554065704, -14.579127311706543, 0.8831236958503723, 0.14758282899856567, -0.9605861306190491, -0.7816174626350403, -0.953265368938446, 0.06195753812789917, -0.5284832773628405, 0.6061258352276866, -6.122520993148038, 9362.0, 30146.0, 35388.0, 9362.0, 8.390083312988281, 0.1533484309911728, -0.22623981535434723, -0.3465993404388428, 0.009562930092215538, -0.06533782184123993, 0.9967871904373169, -0.06586259603500366, 0.08584022521972656, 1.5029296875, 1.19677734375, 0.40228271484375, 1.489013671875, 1.477294921875, 10.0, 1.4122439622879028, 1.5, 1.4122439622879028
33495, -0.8220130801200867, -6.701674461364746, 2.477989673614502, 0.33918753266334534, 0.056760020554065704, -14.579127311706543, 0.8831236958503723, 0.14758282899856567, -0.9605861306190491, -0.7816143035888672, -0.9532783627510071, 0.0619639977812767, -0.534966782012534, 0.6078721673988525, -6.118951209789987, 9362.0, 30146.0, 35388.0, 9362.0, 8.390083312988281, 0.1533484309911728, -0.22623981535434723, -0.3465993404388428, 0.008863196708261967, -0.06544549763202667, 0.9991251230239868, -0.06586259603500366, 0.08584022521972656, 1.5029296875, 1.19677734375, 0.40228271484375, 1.494140625, 1.477294921875, 10.0, 1.4121302366256714, 1.5, 1.4121302366256714
33505, -0.8219122290611267, -6.703980445861816, 2.476321220397949, 0.3570769131183624, 0.05974962189793587, -14.598357200622559, 0.9058212041854858, 0.15137730538845062, -0.9623829126358032, -0.7816020846366882, -0.9532713890075684, 0.06196696683764458, -0.5234999246120058, 0.6117409175404305, -6.110721964953077, 9362.0, 30146.0, 35388.0, 9362.0, 8.390083312988281, -0.09781128168106079, -0.11160292476415634, -0.017692819237709045, 0.008863196708261967, -0.06544549763202667, 0.9991251230239868, -0.06586259603500366, 0.08584022521972656, 1.5029296875, 1.19677734375, 0.40228271484375, 1.494140625, 1.418701171875, 10.0, 1.4121302366256714, 1.5, 1.4121302366256714
33515, -0.8227846026420593, -6.7045416831970215, 2.475710868835449, 0.3570769131183624, 0.05974962189793587, -14.598357200622559, 0.9058212041854858, 0.15137730538845062, -0.9623829126358032, -0.781586229801178, -0.9532957673072815, 0.06194553151726723, -0.5273896127756394, 0.6036296061207054, -6.114588565394539, 9362.0, 30146.0, 35388.0, 9362.0, 8.390083312988281, 0.02881651185452938, 0.2533513307571411, -0.2048214226961136, 0.008863196708261967, -0.06544549763202667, 0.9991251230239868, -0.06586259603500366, 0.08584022521972656, 1.5029296875, 1.19677734375, 0.40228271484375, 1.48828125, 1.5322265625, 10.0, 1.4121302366256714, 1.5, 1.4121302366256714
33525, -0.8219749331474304, -6.7063164710998535, 2.4745523929595947, 0.37542054057121277, 0.0628151223063469, -14.617622375488281, 0.9285324811935425, 0.15517152845859528, -0.9641603827476501, -0.7815954685211182, -0.9532649517059326, 0.06197720021009445, -0.531158121278878, 0.6183762948737126, -6.122417811231146, 9362.0, 30146.0, 35388.0, 9362.0, 8.390083312988281, 0.010510839521884918, 0.10855881124734879, -0.41191813349723816, 0.008863196708261967, -0.06544549763202667, 0.9991251230239868, -0.06586259603500366, 0.08584022521972656, 1.5029296875, 1.19677734375, 0.40228271484375, 1.48828125, 1.5322265625, 10.0, 1.409392237663269, 1.5, 1.409392237663269
33535, -0.8224487900733948, -6.706332683563232, 2.4716060161590576, 0.37542054057121277, 0.0628151223063469, -14.617622375488281, 0.9285324811935425, 0.15517152845859528, -0.9641603827476501, -0.7815958857536316, -0.953268826007843, 0.06197774037718773, -0.5313985546829756, 0.6126108964066646, -6.12264912105906, 9362.0, 30146.0, 35388.0, 9362.0, 8.390083312988281, 0.13014626502990723, -0.05247219651937485, -0.1459348350763321, 0.008863196708261967, -0.06544549763202667, 0.9991251230239868, -0.06586259603500366, 0.08584022521972656, 1.5029296875, 1.19677734375, 0.40228271484375, 1.4912109375, 1.502197265625, 10.0, 1.409392237663269, 1.5, 1.409392237663269
33555, -0.8235470652580261, -6.705267429351807, 2.4684031009674072, 0.39421868324279785, 0.06595653295516968, -14.636920928955078, 0.9512736201286316, 0.15896768867969513, -0.9657472968101501, -0.7816010117530823, -0.9532787203788757, 0.06196722388267517, -0.5343877346088417, 0.6150642811504667, -6.122089543456804, 9362.0, 30146.0, 35388.0, 9362.0, 8.390083312988281, -0.1521708369255066, -0.012859441339969635, -0.13083359599113464, 0.007918229326605797, -0.06774041801691055, 0.9976335763931274, -0.06395334005355835, -0.10231781005859375, 1.487548828125, 1.19677734375, 0.40228271484375, 1.486083984375, 1.42529296875, 10.0, 1.409392237663269, 1.5, 1.409392237663269
33565, -0.8250784873962402, -6.704453945159912, 2.4671823978424072, 0.39421868324279785, 0.06595653295516968, -14.636920928955078, 0.9512736201286316, 0.15896768867969513, -0.9657472968101501, -0.7816269993782043, -0.9532920122146606, 0.0620066374540329, -0.5296984124984777, 0.5874197885839294, -6.0833559203589065, 9362.0, 30146.0, 35388.0, 9362.0, 8.390083312988281, 0.11878041177988052, 0.08925628662109375, 0.12011050432920456, 0.007918229326605797, -0.06774041801691055, 0.9976335763931274, -0.06395334005355835, -0.10231781005859375, 1.487548828125, 1.19677734375, 0.40228271484375, 1.486083984375, 1.42529296875, 10.0, 1.4081529378890991, 1.5, 1.4081529378890991
