timeTick, roll, pitch, yaw, stateX, stateY, stateZ, stateVX, stateVY, stateVZ, otX0, otY0, otZ0, otRoll0, otPitch0, otYaw0, left wing, pitch motor, yaw motor, right wing, voltage, roll rate, pitch rate, yaw rate, A_x, A_y, A_z, current, i_raw, v_raw, airflow_voltage, airflow_speed, pot_Pitch, voltage_nKF, kFFx, volt_KF_vel, kP, volt_KF_pos
18826, 1.3466479778289795, -4.363348484039307, -3.745985984802246, 0, 0, 0, 0, 0, 0, -0.7843387722969055, -0.9530336260795593, 0.06474129855632782, -0.45021204721031294, 0.5205386585687677, -0.38616416517519303, 0, 0, 0, 0, 0, 0, 0, 0, 0, 0, 0, 0, 0, 0, 0, 0, 0, 0, 0, 0, 0, 0
18836, 1.3447926044464111, -4.363816738128662, -3.7475132942199707, -0.00014952408673707396, 5.7182915043085814e-05, -1.7081903219223022, -0.00020136938837822527, 7.814214040990919e-05, -0.19891004264354706, -0.7843431234359741, -0.953037679195404, 0.0647350400686264, -0.44955874543039726, 0.5132524256268312, -0.3908298758441762, 9362.0, 30146.0, 35388.0, 9362.0, 0, -0.10012027621269226, 0.0037098687607795, -0.135611429810524, 0, 0, 0, 0, 0, 0, 0, 0, 0, 0, 0, 0, 0, 0
18846, 1.3440574407577515, -4.363812446594238, -3.747328758239746, -0.00011512746277730912, 4.406517109600827e-05, -1.7101819515228271, 0.0070807067677378654, -0.0027016678359359503, -0.19940629601478577, -0.7843350172042847, -0.9530278444290161, 0.06475409120321274, -0.4529642372714582, 0.5180267029359698, -0.3929236015667139, 9362.0, 30146.0, 35388.0, 9362.0, 0, 0.24218977987766266, -0.05652269348502159, -0.06857063621282578, 0.012110699899494648, -0.06586286425590515, 0.9985702633857727, 0, 0, 0, 1.41064453125, 0.0509490966796875, 0, 1.311767578125, 10.0, 1.4176156520843506, 1.5, 1.4176156520843506
18856, 1.3443471193313599, -4.3646392822265625, -3.7474143505096436, -7.885784725658596e-06, 3.1465970096178353e-06, -1.7121782302856445, 0.014367617666721344, -0.005482057109475136, -0.19983868300914764, -0.7843549847602844, -0.9530273675918579, 0.0647490993142128, -0.450993415277023, 0.5238879890334545, -0.39050645022953206, 9362.0, 30146.0, 35388.0, 9362.0, 0, -0.143172025680542, -0.026036949828267097, 0.03029273822903633, 0.012580577284097672, -0.0661894753575325, 0.9990381002426147, 0, 0, 0, 1.365966796875, 0.017791748046875, 1.48828125, 0.9814453125, 10.0, 1.4160138368606567, 1.5, 1.4160138368606567
18866, 1.344724416732788, -4.363676071166992, -3.74817156791687, 0.00017222452152054757, -6.557606684509665e-05, -1.7141789197921753, 0.021654417738318443, -0.008262572810053825, -0.2002905309200287, -0.784349799156189, -0.9530357718467712, 0.06474766880273819, -0.45376549584136877, 0.5151954105672019, -0.3948842308827146, 9362.0, 30146.0, 35388.0, 9362.0, 0, 0.07555460929870605, 0.2707713842391968, 0.09798430651426315, 0.014059217646718025, -0.06615789979696274, 0.9981755614280701, 0, 0, 0, 1.6201171875, 0.4653778076171875, 1.48828125, 1.53076171875, 10.0, 1.4146873950958252, 1.5, 1.4146873950958252
18876, 1.3435062170028687, -4.363532066345215, -3.7474734783172607, 0.0004251654027029872, -0.000162096053827554, -1.7161844968795776, 0.028933806344866753, -0.011041334830224514, -0.20081952214241028, -0.7843474745750427, -0.9530397057533264, 0.06475453078746796, -0.4515525879721493, 0.5162126131911009, -0.3929959632916316, 9362.0, 30146.0, 35388.0, 9362.0, 0, 0.0962740033864975, -0.28135937452316284, -0.2884730398654938, 0.013192776590585709, -0.06512192636728287, 0.996755838394165, 0, 0, 0, 1.6083984375, 0.437225341796875, 1.493408203125, 1.036376953125, 10.0, 1.4152220487594604, 1.5, 1.4152220487594604
18886, 1.3444830179214478, -4.3627610206604, -3.7474918365478516, 0.0007508688140660524, -0.0002863809058908373, -1.7181957960128784, 0.03620688244700432, -0.013815639540553093, -0.20143163204193115, -0.7843586802482605, -0.9530372619628906, 0.06473294645547867, -0.4551669603465967, 0.5232754020227333, -0.3895212514062195, 9362.0, 30146.0, 35388.0, 9362.0, 0, -0.1957019716501236, -0.1567937135696411, -0.00023987489112187177, 0.014264773577451706, -0.06368492543697357, 0.997116208076477, 0, 0, 0, 1.124267578125, 0.9879302978515625, 1.493408203125, 1.031982421875, 10.0, 1.4151958227157593, 1.5, 1.4151958227157593
18896, 1.3437702655792236, -4.363755702972412, -3.7494056224823, 0.0011493222555145621, -0.0004384267667774111, -1.7202128171920776, 0.04348370432853699, -0.016593776643276215, -0.20197324454784393, -0.7843531370162964, -0.9530282616615295, 0.06476102024316788, -0.4523281339925877, 0.5239753298228607, -0.3966927569969558, 9362.0, 30146.0, 35388.0, 9362.0, 0, 0.010895886458456516, 0.16962243616580963, -0.18185243010520935, 0.012959320098161697, -0.06292268633842468, 1.0001672506332397, 0, 0, 0, 1.52197265625, 0.2408599853515625, 1.49267578125, 1.38720703125, 10.0, 1.414291501045227, 1.5, 1.414291501045227
18906, 1.345546007156372, -4.3635663986206055, -3.74922776222229, 0.0016206682194024324, -0.0006182939396239817, -1.7222336530685425, 0.050785500556230545, -0.019379645586013794, -0.2022041231393814, -0.7843437194824219, -0.9530370831489563, 0.06475719809532166, -0.4494833755837599, 0.5257581598288823, -0.38520832740611344, 9362.0, 30146.0, 35388.0, 9362.0, 0, -0.11555308848619461, -0.5629086494445801, -0.279910683631897, 0.01320201437920332, -0.06498510390520096, 1.0005004405975342, 0, 0, 0, 1.71826171875, 0.7178955078125, 1.49267578125, 1.464111328125, 10.0, 1.4135950803756714, 1.5, 1.4135950803756714
18916, 1.344147801399231, -4.361954689025879, -3.7495903968811035, 0.002164966892451048, -0.0008260108297690749, -1.7242577075958252, 0.0580742284655571, -0.022163771092891693, -0.20260272920131683, -0.7843445539474487, -0.9530349373817444, 0.06473137438297272, -0.45308060798081173, 0.5130051631671222, -0.3941553963120988, 9362.0, 30146.0, 35388.0, 9362.0, 0, 0.025649819523096085, -0.04578413441777229, 0.14616523683071136, 0.012186547741293907, -0.06496070325374603, 0.9962567687034607, 0, 0, 0, 1.546875, 0.2949676513671875, 1.494140625, 1.2626953125, 10.0, 1.4143706560134888, 1.5, 1.4143706560134888
18926, 1.343785047531128, -4.360263347625732, -3.7502129077911377, 0.0027819927781820297, -0.001061500166542828, -1.7262877225875854, 0.06533094495534897, -0.024934185668826103, -0.20339557528495789, -0.7843534350395203, -0.9530344009399414, 0.06472571194171906, -0.4517833555351932, 0.52221581266474, -0.3947474362987482, 9362.0, 30146.0, 35388.0, 9362.0, 8.132232666015625, -0.18592527508735657, 0.2727581560611725, -0.0067122941836714745, 0.013358996249735355, -0.0650535449385643, 0.9954829812049866, 0, 0, 0, 1.171875, 0.5655364990234375, 1.494140625, 1.645751953125, 10.0, 1.4139069318771362, 1.5, 1.4139069318771362
18936, 1.3429840803146362, -4.361447334289551, -3.74959397315979, 0.003471606643870473, -0.0013247034512460232, -1.7283251285552979, 0.0725918784737587, -0.027706405147910118, -0.2040940374135971, -0.7843317985534668, -0.9530255198478699, 0.06473203748464584, -0.45269927472957133, 0.5107888244705521, -0.3959764328123387, 9362.0, 30146.0, 35388.0, 9362.0, 8.132232666015625, -0.00713435560464859, 0.29417943954467773, 0.3344084620475769, 0.013384249061346054, -0.06548096984624863, 0.9958253502845764, -0.0738007053732872, 0.023120880126953125, 1.497802734375, 1.0107421875, 2.7494049072265625, 1.4912109375, 1.59814453125, 10.0, 1.4136426448822021, 1.5, 1.4136426448822021
18946, 1.3418816328048706, -4.361771583557129, -3.7492570877075195, 0.004233831074088812, -0.001615618821233511, -1.7303696870803833, 0.07985302060842514, -0.030476627871394157, -0.20481806993484497, -0.7843359708786011, -0.9530278444290161, 0.06474535167217255, -0.4456417461510583, 0.5149490168330999, -0.39567244992428285, 9362.0, 30146.0, 35388.0, 9362.0, 8.132232666015625, -0.11041779071092606, -0.12037145346403122, -0.4554506838321686, 0.013129308819770813, -0.06474363803863525, 0.9954041838645935, -0.0738007053732872, 0.023120880126953125, 1.497802734375, 1.424560546875, 0.0678253173828125, 1.4912109375, 1.54833984375, 10.0, 1.4128645658493042, 1.5, 1.4128645658493042
18956, 1.3409963846206665, -4.364582538604736, -3.7486732006073, 0.005068670958280563, -0.0019342271843925118, -1.7324215173721313, 0.08711494505405426, -0.03324497491121292, -0.20554105937480927, -0.7843312621116638, -0.9530392289161682, 0.06474389135837555, -0.44916932542746085, 0.5168254526002727, -0.3916632303234938, 9362.0, 30146.0, 35388.0, 9362.0, 8.132232666015625, 0.011311359703540802, -0.3893503248691559, -0.3391902446746826, 0.012636936269700527, -0.06551048159599304, 0.9969927668571472, -0.0738007053732872, 0.023120880126953125, 1.497802734375, 1.1806640625, 0.5037689208984375, 1.490478515625, 1.587890625, 10.0, 1.41336989402771, 1.5, 1.41336989402771
18966, 1.3407607078552246, -4.3619890213012695, -3.751948595046997, 0.005976216867566109, -0.002280536340549588, -1.7344796657562256, 0.09439407289028168, -0.0360172875225544, -0.20609673857688904, -0.7843474745750427, -0.9530401825904846, 0.06472958624362946, -0.4573822346457413, 0.5179171512029939, -0.38978290823370865, 9362.0, 30146.0, 35388.0, 9362.0, 8.132232666015625, -0.03634726256132126, -0.18554700911045074, -0.09807243943214417, 0.012856293469667435, -0.06342878192663193, 0.9986335635185242, -0.0738007053732872, 0.023120880126953125, 1.497802734375, 1.55126953125, 0.304718017578125, 1.490478515625, 1.21728515625, 10.0, 1.414164662361145, 1.5, 1.414164662361145
18976, 1.3402713537216187, -4.359966278076172, -3.7535400390625, 0.006956588011234999, -0.0026545890141278505, -1.7365427017211914, 0.10168012231588364, -0.03879344090819359, -0.20649980008602142, -0.7843841314315796, -0.953047513961792, 0.06466268748044968, -0.460367405234142, 0.5102381901332933, -0.3825893824616517, 9362.0, 30146.0, 35388.0, 9362.0, 8.132232666015625, -0.12538497149944305, 0.13430702686309814, 0.21864309906959534, 0.013167307712137699, -0.06511280685663223, 0.9988098740577698, -0.0738007053732872, 0.023120880126953125, 1.497802734375, 1.377685546875, 0.023040771484375, 1.4912109375, 1.17626953125, 10.0, 1.4146820306777954, 1.5, 1.4146820306777954
18986, 1.3403342962265015, -4.359750270843506, -3.752586841583252, 0.00800979696214199, -0.0030563967302441597, -1.738609790802002, 0.10896173119544983, -0.04156799241900444, -0.20691750943660736, -0.7843494415283203, -0.9530255794525146, 0.06473056972026825, -0.44575913587240573, 0.5177986076412537, -0.3868474606495998, 9362.0, 30146.0, 35388.0, 9362.0, 8.132232666015625, 0.030186425894498825, 0.14611995220184326, 0.29248669743537903, 0.01293617021292448, -0.06509620696306229, 0.998460054397583, -0.0738007053732872, 0.023120880126953125, 1.497802734375, 1.1103515625, 1.1422271728515625, 1.4912109375, 1.58642578125, 10.0, 1.4142873287200928, 1.5, 1.4142873287200928
18996, 1.3395123481750488, -4.360537052154541, -3.7506790161132812, 0.009135773405432701, -0.003485931782051921, -1.7406816482543945, 0.11623355746269226, -0.044338785111904144, -0.2074621617794037, -0.7843384146690369, -0.9530254602432251, 0.06474565714597702, -0.45215111703379907, 0.5233209571116788, -0.38593978906442916, 9362.0, 30146.0, 35388.0, 9362.0, 8.132232666015625, -0.011487999930977821, -0.09670807421207428, -0.04833662137389183, 0.010339001193642616, -0.06210567429661751, 0.9965848326683044, -0.0738007053732872, 0.023120880126953125, 1.497802734375, 1.62890625, 0.4867095947265625, 1.49267578125, 1.60400390625, 10.0, 1.4136098623275757, 1.5, 1.4136098623275757
19006, 1.3402154445648193, -4.359325408935547, -3.749117612838745, 0.01033444982022047, -0.003943157382309437, -1.742759346961975, 0.12350178509950638, -0.04710610583424568, -0.20807574689388275, -0.7843421697616577, -0.9530213475227356, 0.0647336095571518, -0.4467362400237163, 0.5266030783961639, -0.3887680221974579, 9362.0, 30146.0, 35388.0, 9362.0, 8.132232666015625, 0.03598324954509735, -0.008449837565422058, 0.16834129393100739, 0.011320805177092552, -0.06353235989809036, 0.9969120621681213, -0.0738007053732872, 0.023120880126953125, 1.497802734375, 1.6494140625, 0.5372772216796875, 1.49267578125, 1.018798828125, 10.0, 1.4140870571136475, 1.5, 1.4140870571136475
19016, 1.3389984369277954, -4.35710334777832, -3.7516775131225586, 0.01160580012947321, -0.004428061190992594, -1.7448431253433228, 0.13076817989349365, -0.04987496882677078, -0.20868366956710815, -0.7843446135520935, -0.9530302286148071, 0.06474669277667999, -0.4472644222489136, 0.529525663269709, -0.3862155872938341, 9362.0, 30146.0, 35388.0, 9362.0, 8.132232666015625, -0.01070002093911171, 0.3504811227321625, 0.28233927488327026, 0.012972747907042503, -0.06534648686647415, 0.9969467520713806, -0.0738007053732872, 0.023120880126953125, 1.497802734375, 1.286865234375, 0.070281982421875, 1.48388671875, 1.640625, 10.0, 1.4146442413330078, 1.5, 1.4146442413330078
19026, 1.3397035598754883, -4.357843399047852, -3.751790761947632, 0.012949843890964985, -0.004940662067383528, -1.7469323873519897, 0.13804058730602264, -0.05264522135257721, -0.20916137099266052, -0.7843511700630188, -0.9530214071273804, 0.0647292360663414, -0.44717640764211486, 0.5191021345177376, -0.38675457304836125, 9362.0, 30146.0, 35388.0, 9362.0, 8.132232666015625, -0.004857078660279512, -0.2622325122356415, 0.12201827764511108, 0.012844313867390156, -0.06456229835748672, 1.0003173351287842, -0.0738007053732872, 0.023120880126953125, 1.497802734375, 1.52197265625, 0.2408599853515625, 1.48388671875, 1.66845703125, 10.0, 1.4145593643188477, 1.5, 1.4145593643188477
19036, 1.3389724493026733, -4.357578277587891, -3.7512600421905518, 0.014366675168275833, -0.005480993539094925, -1.749025583267212, 0.1453256458044052, -0.05542104318737984, -0.2094854712486267, -0.7843437194824219, -0.9530255198478699, 0.06476244330406189, -0.45105031745073937, 0.5216475868261341, -0.3938147594626728, 9362.0, 30146.0, 35388.0, 9362.0, 8.132232666015625, 0.09311497211456299, 0.10902751237154007, -0.21606604754924774, 0.0141641516238451, -0.064842090010643, 0.9985026717185974, -0.0623205229640007, -0.0037593841552734375, 1.49560546875, 1.16748046875, 0.598236083984375, 1.48974609375, 1.54248046875, 10.0, 1.4141162633895874, 1.5, 1.4141162633895874
19046, 1.3392555713653564, -4.356503486633301, -3.7515225410461426, 0.0158563032746315, -0.006049057003110647, -1.7511227130889893, 0.15259994566440582, -0.05819166824221611, -0.2099492996931076, -0.78435218334198, -0.9530381560325623, 0.06472394615411758, -0.44459041460445864, 0.529780248863716, -0.38871173327914904, 9362.0, 30146.0, 35388.0, 9362.0, 8.132232666015625, 0.08343258500099182, -0.1652277112007141, 0.06596196442842484, 0.015886373817920685, -0.06275343149900436, 0.9992156028747559, -0.0623205229640007, -0.0037593841552734375, 1.49560546875, 1.644287109375, 0.524505615234375, 1.48974609375, 1.60400390625, 10.0, 1.4133533239364624, 1.5, 1.4133533239364624
19056, 1.3385759592056274, -4.355513572692871, -3.7514078617095947, 0.01741870678961277, -0.006644844077527523, -1.7532240152359009, 0.1598806083202362, -0.060965776443481445, -0.2103019505739212, -0.7843767404556274, -0.9530243277549744, 0.06472884118556976, -0.43481337503852374, 0.535079611203372, -0.4183523091550169, 9362.0, 30146.0, 35388.0, 9362.0, 8.132232666015625, -0.13787071406841278, -0.25282153487205505, -0.16173799335956573, 0.01394597627222538, -0.06433390080928802, 0.9979039430618286, -0.0623205229640007, -0.0037593841552734375, 1.49560546875, 1.60546875, 0.43011474609375, 1.493408203125, 1.285400390625, 10.0, 1.4140057563781738, 1.5, 1.4140057563781738
19066, 1.3384778499603271, -4.354884624481201, -3.7515764236450195, 0.019053824245929718, -0.007268334273248911, -1.755329966545105, 0.16714301705360413, -0.06373229622840881, -0.21087820827960968, -0.7843940258026123, -0.9530269503593445, 0.0646824985742569, -0.43569883291714845, 0.5292727274692481, -0.41395935217088836, 9362.0, 30146.0, 35388.0, 9362.0, 8.132232666015625, -0.05518936365842819, -0.08806019276380539, -0.011473146267235279, 0.01326073706150055, -0.06477432698011398, 0.9972447752952576, -0.0623205229640007, -0.0037593841552734375, 1.49560546875, 1.45751953125, 0.117095947265625, 1.493408203125, 1.63037109375, 10.0, 1.4145513772964478, 1.5, 1.4145513772964478
19076, 1.337402582168579, -4.355517864227295, -3.7528839111328125, 0.020761558786034584, -0.007919487543404102, -1.7574416399002075, 0.1744038313627243, -0.06649857014417648, -0.21146062016487122, -0.7843459248542786, -0.9530259966850281, 0.06474143266677856, -0.45343471748970576, 0.5162861304371233, -0.39604414069971383, 9362.0, 30146.0, 35388.0, 9362.0, 8.132232666015625, -0.020839717239141464, 0.15936443209648132, -0.13488653302192688, 0.013072418048977852, -0.06531859934329987, 0.9976187944412231, -0.0623205229640007, -0.0037593841552734375, 1.49560546875, 1.5498046875, 0.3014678955078125, 1.49267578125, 1.30224609375, 10.0, 1.413035273551941, 1.5, 1.413035273551941
19086, 1.3367993831634521, -4.352303981781006, -3.7551023960113525, 0.02254195138812065, -0.008598312735557556, -1.7595585584640503, 0.1816748082637787, -0.06926680356264114, -0.21192139387130737, -0.7843809127807617, -0.9530378580093384, 0.06470407545566559, -0.4396667987539761, 0.5278738350997116, -0.4126321614789044, 9362.0, 30146.0, 35388.0, 9362.0, 8.132232666015625, 0.11809254437685013, -0.0016161970561370254, -0.5977616906166077, 0.013766728341579437, -0.06410570442676544, 0.999520480632782, -0.0623205229640007, -0.0037593841552734375, 1.49560546875, 1.220947265625, 0.2765960693359375, 1.49267578125, 1.29052734375, 10.0, 1.413884162902832, 1.5, 1.413884162902832
19096, 1.337174415588379, -4.355435848236084, -3.7569875717163086, 0.024395037442445755, -0.009304818697273731, -1.7616798877716064, 0.18894228339195251, -0.07203465700149536, -0.2123553603887558, -0.7843551635742188, -0.9530404806137085, 0.06471972912549973, -0.44907629063807675, 0.5183551361872958, -0.3917400165044254, 9362.0, 30146.0, 35388.0, 9362.0, 8.132232666015625, 0.029747439548373222, 0.20233964920043945, -0.04382355138659477, 0.011436393484473228, -0.06525960564613342, 0.9979410171508789, -0.0623205229640007, -0.0037593841552734375, 1.49560546875, 1.359375, 0.0160980224609375, 1.493408203125, 1.635498046875, 10.0, 1.4128963947296143, 1.5, 1.4128963947296143
19106, 1.337119460105896, -4.356690883636475, -3.758380651473999, 0.026320775970816612, -0.010038991458714008, -1.7638062238693237, 0.1962052881717682, -0.07479999959468842, -0.21291936933994293, -0.7844768762588501, -0.9530424475669861, 0.06456167250871658, -0.46621364640809543, 0.517668706350662, -0.4115400059109951, 9362.0, 30146.0, 35388.0, 9362.0, 8.132232666015625, 0.04954594746232033, 0.24858956038951874, -0.15711610019207, 0.010710540227591991, -0.0655861496925354, 0.9975053668022156, -0.0623205229640007, -0.0037593841552734375, 1.49560546875, 1.6435546875, 0.5228118896484375, 1.493408203125, 1.1748046875, 10.0, 1.4137550592422485, 1.5, 1.4137550592422485
19116, 1.3367400169372559, -4.358304500579834, -3.758317708969116, 0.028319137170910835, -0.01080081146210432, -1.7659385204315186, 0.20346683263778687, -0.07756400108337402, -0.21353206038475037, -0.7844602465629578, -0.9530348181724548, 0.06452225148677826, -0.460391412769985, 0.5312171996325787, -0.4165119572957772, 9362.0, 30146.0, 35388.0, 9362.0, 8.132232666015625, -0.03967931866645813, -0.21120025217533112, -0.07987593859434128, 0.012325653806328773, -0.0650036633014679, 0.9967852234840393, -0.0623205229640007, -0.0037593841552734375, 1.49560546875, 1.5439453125, 0.2884979248046875, 1.4912109375, 1.626708984375, 10.0, 1.4142175912857056, 1.5, 1.4142175912857056
19126, 1.3377879858016968, -4.358970642089844, -3.7600796222686768, 0.030390148982405663, -0.011590277776122093, -1.7680766582489014, 0.21073539555072784, -0.08032940328121185, -0.21408697962760925, -0.7844300270080566, -0.9530156254768372, 0.06460578739643097, -0.44403751835442967, 0.5400848081338268, -0.42020119643824755, 9362.0, 30146.0, 35388.0, 9362.0, 8.132232666015625, -0.09860970824956894, 0.14038877189159393, -0.31591954827308655, 0.010572683066129684, -0.06417323648929596, 0.9983392953872681, -0.0623205229640007, -0.0037593841552734375, 1.49560546875, 0.970458984375, 3.699615478515625, 1.4912109375, 1.409912109375, 10.0, 1.413354516029358, 1.5, 1.413354516029358
19136, 1.3382724523544312, -4.359593391418457, -3.7612407207489014, 0.032533884048461914, -0.012407421134412289, -1.7702198028564453, 0.21801169216632843, -0.08309938758611679, -0.21455122530460358, -0.7844274044036865, -0.9530152082443237, 0.0646156519651413, -0.44490903454218544, 0.5407347941691683, -0.4213998649483707, 9362.0, 30146.0, 35388.0, 9362.0, 8.132232666015625, 0.3010939955711365, -0.2587963938713074, -0.31275975704193115, 0.01197075191885233, -0.0642273873090744, 0.9989666938781738, -0.04509206488728523, 0.13064002990722656, 1.506591796875, 1.48095703125, 0.1587677001953125, 1.48974609375, 1.330078125, 10.0, 1.414209246635437, 1.5, 1.414209246635437
19146, 1.337954044342041, -4.35946798324585, -3.7630579471588135, 0.03475041687488556, -0.013252281583845615, -1.772367238998413, 0.22529515624046326, -0.08587286621332169, -0.21493151783943176, -0.7845287322998047, -0.9530372619628906, 0.06446430087089539, -0.4673840316802875, 0.5116830718046685, -0.3951901013668814, 9362.0, 30146.0, 35388.0, 9362.0, 8.132232666015625, -0.05407524108886719, -0.0600750707089901, -0.0060422844253480434, 0.012454465962946415, -0.06359202414751053, 0.9988769888877869, -0.04509206488728523, 0.13064002990722656, 1.506591796875, 1.559326171875, 0.32293701171875, 1.48974609375, 1.11767578125, 10.0, 1.4143096208572388, 1.5, 1.4143096208572388
19156, 1.3391749858856201, -4.356675624847412, -3.7645440101623535, 0.037039726972579956, -0.014124853536486626, -1.7745192050933838, 0.23256699740886688, -0.08864166587591171, -0.21546432375907898, -0.7845569252967834, -0.9529967308044434, 0.06447407603263855, -0.4564137188733685, 0.4975036172415628, -0.4028706471210282, 9362.0, 30146.0, 35388.0, 9362.0, 8.132232666015625, 0.18890215456485748, 0.05067954212427139, 0.04759930446743965, 0.013210300356149673, -0.06403874605894089, 0.9976747035980225, -0.04509206488728523, 0.13064002990722656, 1.506591796875, 1.1982421875, 0.3938140869140625, 1.489013671875, 0.9931640625, 10.0, 1.4147865772247314, 1.5, 1.4147865772247314
19436, 1.3372124433517456, -4.367578983306885, -3.772169828414917, 0.1138034462928772, -0.04338701441884041, -1.8275772333145142, 0.4071151316165924, -0.15520717203617096, -0.2273237258195877, -0.7845282554626465, -0.95302814245224, 0.06445897370576859, -0.4705171972701477, 0.5110604984400311, -0.3980701078286861, 9362.0, 30146.0, 35388.0, 9362.0, 8.132232666015625, 0.02794729359447956, -0.25335708260536194, -0.20330828428268433, 0.01159130223095417, -0.0657898336648941, 0.9975365400314331, -0.08208071440458298, -0.03959846496582031, 1.49267578125, 1.435546875, 0.0829315185546875, 1.4912109375, 1.641357421875, 10.0, 1.4121538400650024, 1.5, 1.4121538400650024
19606, 1.3354920148849487, -4.360969543457031, -3.7830238342285156, 0.21536611020565033, -0.08209364116191864, -1.8763692378997803, 0.5601747035980225, -0.21343284845352173, -0.23665672540664673, -0.7845258116722107, -0.953024685382843, 0.06449677050113678, -0.4703525812823041, 0.5109882186472419, -0.3996454026746895, 9362.0, 30146.0, 35388.0, 9362.0, 8.132232666015625, 0.014693583361804485, -0.15423861145973206, 0.013504067435860634, 0.01159130223095417, -0.0657898336648941, 0.9975365400314331, -0.0820486843585968, -0.07543754577636719, 1.48974609375, 0.970458984375, 3.699615478515625, 1.494140625, 1.051025390625, 10.0, 1.4112162590026855, 1.5, 1.4112162590026855
19626, 1.3367431163787842, -4.356253623962402, -3.786726236343384, 0.22671514749526978, -0.08641766756772995, -1.8811122179031372, 0.5747339129447937, -0.2189725637435913, -0.23757816851139069, -0.7844727039337158, -0.9530288577079773, 0.06452561914920807, -0.4849006546911668, 0.5036755707224074, -0.36992884087685207, 9362.0, 30146.0, 35388.0, 9362.0, 8.132232666015625, 0.008858046494424343, -0.061953771859407425, 0.13988004624843597, 0.01159130223095417, -0.0657898336648941, 0.9975365400314331, -0.0820486843585968, -0.07543754577636719, 1.48974609375, 0.970458984375, 3.699615478515625, 1.48828125, 1.051025390625, 10.0, 1.41266667842865, 1.5, 1.41266667842865
19726, 1.3349517583847046, -4.359567165374756, -3.7843189239501953, 0.287824422121048, -0.10970062762498856, -1.9050811529159546, 0.647465169429779, -0.24668800830841064, -0.2416590005159378, -0.7844859957695007, -0.953018069267273, 0.0645132064819336, -0.48887276895168935, 0.5008706931486699, -0.3687982125325017, 9362.0, 30146.0, 35388.0, 9362.0, 8.132232666015625, -0.07775997370481491, -0.08490131050348282, 0.2963450849056244, 0.01159130223095417, -0.0657898336648941, 0.9975365400314331, -0.0820486843585968, -0.07543754577636719, 1.48974609375, 1.17333984375, 0.554962158203125, 1.494873046875, 1.60986328125, 10.0, 1.4124897718429565, 1.5, 1.4124897718429565
19966, 1.336241602897644, -4.363400936126709, -3.794088363647461, 0.46416178345680237, -0.17688952386379242, -1.9645963907241821, 0.8220592141151428, -0.31322580575942993, -0.2541826665401459, -0.7845163345336914, -0.953020453453064, 0.06446601450443268, -0.4657026158783533, 0.5121082864921505, -0.4075568621336083, 9362.0, 30146.0, 35388.0, 9362.0, 8.132232666015625, -0.06335751712322235, -0.07987122982740402, 0.1706964522600174, 0.0132683664560318, -0.0652773380279541, 0.9981651902198792, -0.06131850928068161, -0.10231781005859375, 1.487548828125, 1.25244140625, 0.155426025390625, 1.491943359375, 1.71533203125, 10.0, 1.4149425029754639, 1.5, 1.4149425029754639
20156, 1.337450623512268, -4.377541542053223, -3.787874221801758, 0.5956700444221497, -0.22699084877967834, -2.0032567977905273, 0.9314166903495789, -0.3547947406768799, -0.26131805777549744, -0.7845106720924377, -0.953026294708252, 0.06446587294340134, -0.47026042007703095, 0.5140513297361906, -0.4043864183990227, 9362.0, 30146.0, 35388.0, 9362.0, 8.132232666015625, -0.10681357234716415, -0.04044236242771149, 0.09982985258102417, 0.014161952771246433, -0.06345245987176895, 1.0001822710037231, -0.07740700989961624, -0.12023735046386719, 1.486083984375, 1.16162109375, 0.643707275390625, 1.493408203125, 1.32568359375, 10.0, 1.4156684875488281, 1.5, 1.4156684875488281
20316, 1.3346530199050903, -4.376760959625244, -3.781977653503418, 0.7858335971832275, -0.29941311478614807, -2.053621768951416, 1.0702972412109375, -0.40751728415489197, -0.26893535256385803, -0.7844864726066589, -0.9530246257781982, 0.06450863927602768, -0.4888291219425461, 0.5099338557592148, -0.39015624526527304, 9362.0, 30146.0, 35388.0, 9362.0, 8.132232666015625, -0.06323167681694031, 0.1163000762462616, -0.023126838728785515, 0.014161952771246433, -0.06345245987176895, 1.0001822710037231, -0.06864544749259949, -0.04855918884277344, 1.491943359375, 1.071533203125, 1.656829833984375, 1.491943359375, 1.5234375, 10.0, 1.4152706861495972, 1.5, 1.4152706861495972
20326, 1.3341467380523682, -4.378225803375244, -3.781513214111328, 0.7858335971832275, -0.29941311478614807, -2.053621768951416, 1.0702972412109375, -0.40751728415489197, -0.26893535256385803, -0.7845228314399719, -0.9530211687088013, 0.0644705593585968, -0.4710032347328201, 0.5188962187241088, -0.415980632429688, 9362.0, 30146.0, 35388.0, 9362.0, 8.132232666015625, 0.005480396095663309, -0.019405851140618324, 0.2662125825881958, 0.014161952771246433, -0.06345245987176895, 1.0001822710037231, -0.06864544749259949, -0.04855918884277344, 1.491943359375, 1.071533203125, 1.656829833984375, 1.491943359375, 1.25244140625, 10.0, 1.4152706861495972, 1.5, 1.4152706861495972
20376, 1.3353217840194702, -4.377491474151611, -3.781540870666504, 0.8625460863113403, -0.32861828804016113, -2.072545289993286, 1.1214762926101685, -0.4269162714481354, -0.27187544107437134, -0.7845159769058228, -0.9530176520347595, 0.06445638090372086, -0.4679487513093185, 0.5269865349793292, -0.4251748011501454, 9362.0, 30146.0, 35388.0, 9362.0, 8.132232666015625, -0.13168595731258392, 0.22294725477695465, -0.2966870665550232, 0.014161952771246433, -0.06345245987176895, 1.0001822710037231, -0.06864544749259949, -0.04855918884277344, 1.491943359375, 1.027587890625, 2.4080963134765625, 1.491943359375, 1.6376953125, 10.0, 1.4130196571350098, 1.5, 1.4130196571350098
20386, 1.3351781368255615, -4.377842426300049, -3.7834126949310303, 0.8737973570823669, -0.3329012989997864, -2.0752668380737305, 1.1287769079208374, -0.42968451976776123, -0.2724289894104004, -0.7845121622085571, -0.9530201554298401, 0.06446821242570877, -0.47182914962180306, 0.516708930509111, -0.4102815400820679, 9362.0, 30146.0, 35388.0, 9362.0, 8.132232666015625, -0.1350526362657547, 0.08120116591453552, 0.24558180570602417, 0.014161952771246433, -0.06345245987176895, 1.0001822710037231, -0.06864544749259949, -0.04855918884277344, 1.491943359375, 1.281005859375, 0.0816650390625, 1.491943359375, 0.9755859375, 10.0, 1.412393569946289, 1.5, 1.412393569946289
20396, 1.3345699310302734, -4.377447605133057, -3.7846853733062744, 0.8851216435432434, -0.3372119963169098, -2.077993631362915, 1.136080265045166, -0.43245357275009155, -0.2729511559009552, -0.7844710350036621, -0.9530215859413147, 0.06451649963855743, -0.48611870366209664, 0.5087664952785929, -0.38398400154623297, 9362.0, 30146.0, 35388.0, 9362.0, 8.132232666015625, 0.006845714524388313, -0.16120363771915436, -0.0004877463507000357, 0.014161952771246433, -0.06345245987176895, 1.0001822710037231, -0.06864544749259949, -0.04855918884277344, 1.491943359375, 1.517578125, 0.231689453125, 1.49267578125, 0.9755859375, 10.0, 1.4131115674972534, 1.5, 1.4131115674972534
20506, 1.3312649726867676, -4.378465175628662, -3.7924063205718994, 1.0023808479309082, -0.3818398416042328, -2.1055586338043213, 1.2091444730758667, -0.4601031541824341, -0.278128981590271, -0.7844842076301575, -0.95302814245224, 0.06451641023159027, -0.4872683443599831, 0.5138373674955119, -0.3906479599139727, 9362.0, 30146.0, 35388.0, 9362.0, 8.132232666015625, 0.04933826997876167, -0.0022766035981476307, 0.03225978463888168, 0.014161952771246433, -0.06345245987176895, 1.0001822710037231, -0.05034015700221062, 0.09480094909667969, 1.503662109375, 1.229736328125, 0.23822021484375, 1.4912109375, 1.669921875, 10.0, 1.415184497833252, 1.5, 1.415184497833252
20636, 1.3361408710479736, -4.380247116088867, -3.7904200553894043, 1.1788243055343628, -0.44896653294563293, -2.1449687480926514, 1.3114893436431885, -0.49887654185295105, -0.2846532166004181, -0.7844984531402588, -0.9530236721038818, 0.06450473517179489, -0.4880440820108169, 0.5136808079152217, -0.3880049752967753, 9362.0, 30146.0, 35388.0, 9362.0, 8.132232666015625, 0.029958020895719528, 0.2704096734523773, -0.14024600386619568, 0.014161952771246433, -0.06345245987176895, 1.0001822710037231, -0.06759066879749298, -0.03959846496582031, 1.49267578125, 1.468505859375, 0.13604736328125, 1.4970703125, 1.189453125, 10.0, 1.41238272190094, 1.5, 1.41238272190094
20646, 1.3349522352218628, -4.37955904006958, -3.79076886177063, 1.1788243055343628, -0.44896653294563293, -2.1449687480926514, 1.3114893436431885, -0.49887654185295105, -0.2846532166004181, -0.7845340371131897, -0.95302814245224, 0.06447422504425049, -0.47520319222236107, 0.5217834978645612, -0.4099770204297619, 9362.0, 30146.0, 35388.0, 9362.0, 8.132232666015625, -0.018802911043167114, 0.13029447197914124, 0.057793088257312775, 0.014161952771246433, -0.06345245987176895, 1.0001822710037231, -0.06759066879749298, -0.03959846496582031, 1.49267578125, 1.27880859375, 0.086212158203125, 1.4970703125, 1.189453125, 10.0, 1.4114468097686768, 1.5, 1.4114468097686768
20656, 1.3348820209503174, -4.381139278411865, -3.79243540763855, 1.2052003145217896, -0.45899954438209534, -2.150670289993286, 1.3261181116104126, -0.5044240951538086, -0.28548991680145264, -0.7844990491867065, -0.9530368447303772, 0.0644986554980278, -0.48607941165165225, 0.5139880848711869, -0.3807966133204377, 9362.0, 30146.0, 35388.0, 9362.0, 8.132232666015625, -0.01579323783516884, -0.27616265416145325, 0.09116501361131668, 0.014161952771246433, -0.06345245987176895, 1.0001822710037231, -0.06759066879749298, -0.03959846496582031, 1.49267578125, 1.449462890625, 0.103973388671875, 1.490478515625, 1.080322265625, 10.0, 1.4104127883911133, 1.5, 1.4104127883911133
20666, 1.3358954191207886, -4.382689952850342, -3.791339159011841, 1.2184981107711792, -0.46405765414237976, -2.15352725982666, 1.3334367275238037, -0.5071977376937866, -0.28588053584098816, -0.7844811081886292, -0.9530372023582458, 0.06452254951000214, -0.49074978123271157, 0.5082224480329387, -0.3752090021757565, 9362.0, 30146.0, 35388.0, 9362.0, 8.132232666015625, -0.017281485721468925, 0.2443094253540039, -0.13980545103549957, 0.014161952771246433, -0.06345245987176895, 1.0001822710037231, -0.06759066879749298, -0.03959846496582031, 1.49267578125, 1.141845703125, 0.81378173828125, 1.490478515625, 1.634765625, 10.0, 1.4090088605880737, 1.5, 1.4090088605880737
20676, 1.3361515998840332, -4.384300231933594, -3.7904820442199707, 1.2318689823150635, -0.46914348006248474, -2.156388759613037, 1.3407469987869263, -0.5099688172340393, -0.2864187955856323, -0.7845264077186584, -0.9530287384986877, 0.06445663422346115, -0.46922402742630065, 0.523060054336014, -0.4130453493759507, 9362.0, 30146.0, 35388.0, 9362.0, 8.132232666015625, 0.10689201951026917, 0.15617211163043976, -0.044896822422742844, 0.014161952771246433, -0.06345245987176895, 1.0001822710037231, -0.06759066879749298, -0.03959846496582031, 1.49267578125, 1.530029296875, 0.2581329345703125, 1.490478515625, 1.478759765625, 10.0, 1.4089305400848389, 1.5, 1.4089305400848389
20696, 1.3373104333877563, -4.384995937347412, -3.7923696041107178, 1.2318689823150635, -0.46914348006248474, -2.156388759613037, 1.3407469987869263, -0.5099688172340393, -0.2864187955856323, -0.7844855785369873, -0.95302814245224, 0.06451655179262161, -0.4872999147049794, 0.5050769918255753, -0.37339377077764907, 9362.0, 30146.0, 35388.0, 9362.0, 8.132232666015625, 0.09079296141862869, -0.3428123891353607, -0.47408849000930786, 0.014161952771246433, -0.06345245987176895, 1.0001822710037231, -0.06759066879749298, -0.03959846496582031, 1.49267578125, 1.1015625, 1.2475738525390625, 1.490478515625, 1.29052734375, 10.0, 1.410672664642334, 1.5, 1.410672664642334
20946, 1.3361380100250244, -4.379114151000977, -3.7966573238372803, 1.6205369234085083, -0.6169483661651611, -2.235529661178589, 1.5382251739501953, -0.5848875641822815, -0.2996421158313751, -0.7845258116722107, -0.9530282020568848, 0.06447584927082062, -0.4804406279615315, 0.5194856217950132, -0.4075472234214385, 9362.0, 30146.0, 35388.0, 9362.0, 8.132232666015625, -0.14702385663986206, 0.07976768910884857, -0.310907244682312, 0.014161952771246433, -0.06345245987176895, 1.0001822710037231, -0.05925671383738518, -0.030637741088867188, 1.493408203125, 0.998291015625, 3.022247314453125, 1.4912109375, 1.201171875, 10.0, 1.4129835367202759, 1.5, 1.4129835367202759
21056, 1.3402458429336548, -4.383747100830078, -3.8055827617645264, 1.7300039529800415, -0.6585705280303955, -2.2566134929656982, 1.58942449092865, -0.6043311953544617, -0.3025473952293396, -0.7844856977462769, -0.953039824962616, 0.06450201570987701, -0.4941172369712044, 0.5084455064516078, -0.3758063094337301, 9362.0, 30146.0, 35388.0, 9362.0, 8.132232666015625, 0.01455604936927557, 0.09778378903865814, -0.2584661543369293, 0.0133917685598135, -0.06293614208698273, 0.9972199201583862, -0.0670546144247055, -0.01271820068359375, 1.494873046875, 1.245849609375, 0.1771087646484375, 1.491943359375, 1.392333984375, 10.0, 1.4147316217422485, 1.5, 1.4147316217422485
21116, 1.339178442955017, -4.384730339050293, -3.8044660091400146, 1.8594982624053955, -0.707807183265686, -2.2809743881225586, 1.6479578018188477, -0.626592218875885, -0.3062646687030792, -0.7845292687416077, -0.9530348181724548, 0.06446974724531174, -0.4746073725878801, 0.5218411471224726, -0.4102977058708957, 9362.0, 30146.0, 35388.0, 9362.0, 8.132232666015625, -0.11508163064718246, 0.1672951877117157, 0.10561683028936386, 0.0133917685598135, -0.06293614208698273, 0.9972199201583862, -0.0670546144247055, -0.01271820068359375, 1.494873046875, 1.112548828125, 1.1168670654296875, 1.491943359375, 1.5205078125, 10.0, 1.4135099649429321, 1.5, 1.4135099649429321
21256, 1.3375300168991089, -4.377154350280762, -3.812565803527832, 2.132540702819824, -0.8116239309310913, -2.3305466175079346, 1.764972448348999, -0.6710888147354126, -0.3141076862812042, -0.7845140099525452, -0.953038215637207, 0.06446752697229385, -0.4780752663552715, 0.517309256025186, -0.40076944101444467, 9362.0, 30146.0, 35388.0, 9362.0, 8.132232666015625, -0.11382494121789932, 0.3003518283367157, 0.029962893575429916, 0.0133917685598135, -0.06293614208698273, 0.9972199201583862, -0.06009626388549805, -0.18295860290527344, 1.48095703125, 1.5732421875, 0.354736328125, 1.491943359375, 1.34912109375, 10.0, 1.4087632894515991, 1.5, 1.4087632894515991
21266, 1.3373502492904663, -4.377115249633789, -3.811323404312134, 2.1502270698547363, -0.8183487057685852, -2.3336892127990723, 1.7722904682159424, -0.6738716959953308, -0.31439560651779175, -0.7845296263694763, -0.9530397653579712, 0.06447651237249374, -0.4761664042956676, 0.5206618369501257, -0.40250489022704167, 9362.0, 30146.0, 35388.0, 9362.0, 8.132232666015625, -0.18248946964740753, 0.35422614216804504, -0.10332277417182922, 0.0133917685598135, -0.06293614208698273, 0.9972199201583862, -0.06009626388549805, -0.18295860290527344, 1.48095703125, 1.31396484375, 0.0325469970703125, 1.491943359375, 1.189453125, 10.0, 1.4072034358978271, 1.5, 1.4072034358978271
21276, 1.3366700410842896, -4.3792405128479, -3.8134827613830566, 2.1679866313934326, -0.825101375579834, -2.336834192276001, 1.7796149253845215, -0.6766571998596191, -0.3145996332168579, -0.7845268249511719, -0.9530295729637146, 0.06448950618505478, -0.4725627622859288, 0.5201556058338213, -0.4045350604271451, 9362.0, 30146.0, 35388.0, 9362.0, 8.132232666015625, -0.07734622061252594, 0.01660999096930027, -0.25993385910987854, 0.014167167246341705, -0.06520691514015198, 1.0012168884277344, -0.06009626388549805, -0.18295860290527344, 1.48095703125, 1.21142578125, 0.3224945068359375, 1.491943359375, 1.039306640625, 10.0, 1.4061048030853271, 1.5, 1.4061048030853271
21286, 1.3350986242294312, -4.379664421081543, -3.8140974044799805, 2.185819387435913, -0.8318818807601929, -2.3399815559387207, 1.7869383096694946, -0.6794400215148926, -0.31486445665359497, -0.7844759821891785, -0.9530375003814697, 0.06453651189804077, -0.48759099974741327, 0.5058961238808308, -0.3761505733400098, 9362.0, 30146.0, 35388.0, 9362.0, 8.132232666015625, 0.11805304139852524, -0.17327548563480377, 0.15038996934890747, 0.014167167246341705, -0.06520691514015198, 1.0012168884277344, -0.06009626388549805, -0.18295860290527344, 1.48095703125, 1.51318359375, 0.2224273681640625, 1.491943359375, 1.53662109375, 10.0, 1.4065245389938354, 1.5, 1.4065245389938354
21296, 1.336374282836914, -4.380847454071045, -3.8141589164733887, 2.2037253379821777, -0.8386901617050171, -2.343132734298706, 1.7942428588867188, -0.6822126507759094, -0.3153932988643646, -0.7844745516777039, -0.9530270099639893, 0.06451692432165146, -0.49110924214533114, 0.509412015437789, -0.3721676277541708, 9362.0, 30146.0, 35388.0, 9362.0, 8.132232666015625, -0.24611695110797882, 0.3455858528614044, 0.1674039214849472, 0.012274363078176975, -0.06614624708890915, 0.9954585433006287, -0.06009626388549805, -0.18295860290527344, 1.48095703125, 1.275146484375, 0.09429931640625, 1.49560546875, 1.540283203125, 10.0, 1.405587911605835, 1.5, 1.405587911605835
21696, 1.3365267515182495, -4.380345344543457, -3.8230953216552734, 2.9798221588134766, -1.1337591409683228, -2.4734437465667725, 2.0862503051757812, -0.7931182384490967, -0.3359750211238861, -0.7844948768615723, -0.9530296325683594, 0.06453286856412888, -0.4892069324968399, 0.5112202251320639, -0.3748916842232639, 9362.0, 30146.0, 35388.0, 9362.0, 8.132232666015625, -0.17848627269268036, 0.14393402636051178, 0.10467057675123215, 0.013187635689973831, -0.06628882139921188, 0.9994941353797913, -0.06039244681596756, -0.11127853393554688, 1.48681640625, 1.159423828125, 0.66131591796875, 1.494140625, 1.043701171875, 10.0, 1.3982025384902954, 1.5, 1.3982025384902954
21706, 1.33621346950531, -4.379471302032471, -3.824080467224121, 3.0007212162017822, -1.1417042016983032, -2.476806402206421, 2.093552350997925, -0.7958934903144836, -0.3365415632724762, -0.7845235466957092, -0.9530258774757385, 0.06450392305850983, -0.4736027525570847, 0.5092481568368328, -0.4007792696362999, 9362.0, 30146.0, 35388.0, 9362.0, 8.132232666015625, 0.18584834039211273, -0.11284958571195602, 0.30150410532951355, 0.013187635689973831, -0.06628882139921188, 0.9994941353797913, -0.06039244681596756, -0.11127853393554688, 1.48681640625, 1.56591796875, 0.337738037109375, 1.494140625, 1.36376953125, 10.0, 1.3984085321426392, 1.5, 1.3984085321426392
21746, 1.3351953029632568, -4.381591320037842, -3.819211483001709, 3.042738437652588, -1.1576776504516602, -2.4835472106933594, 2.1081671714782715, -0.8014464974403381, -0.337551474571228, -0.7845357656478882, -0.9530325531959534, 0.06449490785598755, -0.4708939705610659, 0.5203545235066258, -0.39893183720894043, 9362.0, 30146.0, 35388.0, 9362.0, 8.132232666015625, 0.054251279681921005, -0.06495898962020874, -0.02039136178791523, 0.012976543046534061, -0.06236797198653221, 0.9982736110687256, -0.06740536540746689, 0.03208160400390625, 1.49853515625, 1.1279296875, 0.9498291015625, 1.494873046875, 1.5615234375, 10.0, 1.400118112564087, 1.5, 1.400118112564087
21766, 1.3361109495162964, -4.380688667297363, -3.8191640377044678, 3.127650260925293, -1.189957618713379, -2.4970850944519043, 2.137439012527466, -0.812562108039856, -0.3390384614467621, -0.7845168709754944, -0.9530254006385803, 0.06448838859796524, -0.4711196659110005, 0.5142194164077125, -0.40772218433596097, 9362.0, 30146.0, 35388.0, 9362.0, 8.132232666015625, 0.1541224867105484, 0.3594515323638916, 0.10523448884487152, 0.012976543046534061, -0.06236797198653221, 0.9982736110687256, -0.06740536540746689, 0.03208160400390625, 1.49853515625, 1.1279296875, 0.9498291015625, 1.493408203125, 1.405517578125, 10.0, 1.3999415636062622, 1.5, 1.3999415636062622
21816, 1.3385447263717651, -4.385737419128418, -3.8167245388031006, 3.213732957839966, -1.2226824760437012, -2.5106754302978516, 2.166693925857544, -0.823673665523529, -0.34074658155441284, -0.7845327258110046, -0.9530296921730042, 0.06449171900749207, -0.4726897878710252, 0.511394250234531, -0.4015093994906923, 9362.0, 30146.0, 35388.0, 9362.0, 8.132232666015625, 0.14037582278251648, 0.18329420685768127, -0.02588038146495819, 0.012976543046534061, -0.06236797198653221, 0.9982736110687256, -0.06740536540746689, 0.03208160400390625, 1.49853515625, 0.967529296875, 3.776611328125, 1.493408203125, 1.55859375, 10.0, 1.4003952741622925, 1.5, 1.4003952741622925
21826, 1.3385347127914429, -4.3871989250183105, -3.81705904006958, 3.213732957839966, -1.2226824760437012, -2.5106754302978516, 2.166693925857544, -0.823673665523529, -0.34074658155441284, -0.7844910621643066, -0.9530289769172668, 0.06451477855443954, -0.4851867835529205, 0.511029796608625, -0.3691224058612414, 9362.0, 30146.0, 35388.0, 9362.0, 8.132232666015625, 0.08076681196689606, 0.1552603542804718, 0.013132994994521141, 0.012976543046534061, -0.06236797198653221, 0.9982736110687256, -0.06740536540746689, 0.03208160400390625, 1.49853515625, 1.06494140625, 1.7574920654296875, 1.493408203125, 1.53369140625, 10.0, 1.400291085243225, 1.5, 1.400291085243225
21836, 1.3395887613296509, -4.388672828674316, -3.81752347946167, 3.2790629863739014, -1.2475178241729736, -2.5209197998046875, 2.1886537075042725, -0.8320164084434509, -0.34216052293777466, -0.7845205664634705, -0.9530291557312012, 0.06450091302394867, -0.4735335916821063, 0.5099808090322426, -0.40357457866876423, 9362.0, 30146.0, 35388.0, 9362.0, 8.132232666015625, 0.10344021767377853, 0.1162652000784874, -0.3272058069705963, 0.012976543046534061, -0.06236797198653221, 0.9982736110687256, -0.06273799389600754, -0.11127853393554688, 1.48681640625, 1.092041015625, 1.3689117431640625, 1.493408203125, 1.594482421875, 10.0, 1.400895595550537, 1.5, 1.400895595550537
21926, 1.3406130075454712, -4.380537986755371, -3.829472541809082, 3.479003667831421, -1.3235265016555786, -2.5519258975982666, 2.254450798034668, -0.8570666313171387, -0.34691086411476135, -0.7844728827476501, -0.9530354738235474, 0.06451655924320221, -0.48834256035227297, 0.5139145963737235, -0.3684097497937966, 9362.0, 30146.0, 35388.0, 9362.0, 8.112398147583008, -0.05777554586529732, -0.023695440962910652, 0.01891654171049595, 0.012976543046534061, -0.06236797198653221, 0.9982736110687256, -0.06273799389600754, -0.11127853393554688, 1.48681640625, 1.18359375, 0.4842071533203125, 1.491943359375, 1.25537109375, 10.0, 1.402321219444275, 1.5, 1.402321219444275
21976, 1.3392359018325806, -4.380073070526123, -3.8284912109375, 3.5242390632629395, -1.3407236337661743, -2.5588719844818115, 2.2690811157226562, -0.8626432418823242, -0.347714364528656, -0.7845269441604614, -0.9530260562896729, 0.06449024379253387, -0.4743039264819695, 0.5191269531032674, -0.39858338152557954, 9362.0, 30146.0, 35388.0, 9362.0, 8.112398147583008, -0.10225293785333633, -0.5107761025428772, -0.39008572697639465, 0.012976543046534061, -0.06236797198653221, 0.9982736110687256, -0.06013571470975876, -0.030637741088867188, 1.493408203125, 0.99755859375, 3.038909912109375, 1.487548828125, 1.32275390625, 10.0, 1.4001139402389526, 1.5, 1.4001139402389526
22006, 1.3406625986099243, -4.374015808105469, -3.8336312770843506, 3.661700963973999, -1.3929842710494995, -2.5798051357269287, 2.3129355907440186, -0.8793630003929138, -0.3502788543701172, -0.784518837928772, -0.9530282020568848, 0.06449387967586517, -0.4692651618454355, 0.518940020272197, -0.40143523091334415, 9362.0, 30146.0, 35388.0, 9362.0, 8.112398147583008, 0.014190902933478355, -0.12484848499298096, -0.22305743396282196, 0.012976543046534061, -0.06236797198653221, 0.9982736110687256, -0.06013571470975876, -0.030637741088867188, 1.493408203125, 0.99755859375, 3.038909912109375, 1.491943359375, 0.976318359375, 10.0, 1.4005769491195679, 1.5, 1.4005769491195679
22046, 1.34010910987854, -4.371667861938477, -3.835141658782959, 3.754802942276001, -1.4283818006515503, -2.593843460083008, 2.34213924407959, -0.8905133605003357, -0.35189148783683777, -0.7844817638397217, -0.9530335068702698, 0.06452634930610657, -0.48831662495736156, 0.504411920943113, -0.36681287661057554, 9362.0, 30146.0, 35388.0, 9362.0, 8.112398147583008, 0.08635418117046356, -0.10367819666862488, -0.011601853184401989, 0.012976543046534061, -0.06236797198653221, 0.9982736110687256, -0.061278317123651505, -0.04855918884277344, 1.491943359375, 1.001220703125, 2.9564666748046875, 1.491943359375, 1.50732421875, 10.0, 1.3997682332992554, 1.5, 1.3997682332992554
22066, 1.3420318365097046, -4.371273994445801, -3.834791898727417, 3.7782607078552246, -1.4373008012771606, -2.597365140914917, 2.3494272232055664, -0.8932957649230957, -0.35244303941726685, -0.7845274209976196, -0.9530311822891235, 0.06450638175010681, -0.4730477981816297, 0.5173294384851772, -0.4038941708991038, 9362.0, 30146.0, 35388.0, 9362.0, 8.112398147583008, -0.13132306933403015, 0.022435985505580902, 0.3461630940437317, 0.01256678905338049, -0.06289419531822205, 0.9983757734298706, -0.061278317123651505, -0.04855918884277344, 1.491943359375, 1.001220703125, 2.9564666748046875, 1.493408203125, 1.021728515625, 10.0, 1.4007083177566528, 1.5, 1.4007083177566528
22076, 1.3421214818954468, -4.369019031524658, -3.8350391387939453, 3.7782607078552246, -1.4373008012771606, -2.597365140914917, 2.3494272232055664, -0.8932957649230957, -0.35244303941726685, -0.7844893932342529, -0.9530279636383057, 0.06452685594558716, -0.48982412328607877, 0.512668131180618, -0.372123823239882, 9362.0, 30146.0, 35388.0, 9362.0, 8.112398147583008, -0.12821009755134583, 0.06916651129722595, -0.14648202061653137, 0.01256678905338049, -0.06289419531822205, 0.9983757734298706, -0.061278317123651505, -0.04855918884277344, 1.491943359375, 0.97119140625, 3.6805572509765625, 1.493408203125, 1.554931640625, 10.0, 1.4000730514526367, 1.5, 1.4000730514526367
22086, 1.3423182964324951, -4.36752462387085, -3.835137367248535, 3.849071502685547, -1.4642250537872314, -2.6079609394073486, 2.371286392211914, -0.9016527533531189, -0.3540562689304352, -0.7845258116722107, -0.9530323147773743, 0.06448913365602493, -0.47102001187559406, 0.5151834975464737, -0.3992848003515885, 9362.0, 30146.0, 35388.0, 9362.0, 8.112398147583008, -0.03666406497359276, -0.0034569052513688803, 0.2367420196533203, 0.01256678905338049, -0.06289419531822205, 0.9983757734298706, -0.061278317123651505, -0.04855918884277344, 1.491943359375, 1.408447265625, 0.0485382080078125, 1.493408203125, 1.064208984375, 10.0, 1.4009281396865845, 1.5, 1.4009281396865845
22096, 1.3429368734359741, -4.368143558502197, -3.834063768386841, 3.8728208541870117, -1.4732555150985718, -2.611504554748535, 2.3785619735717773, -0.9044362902641296, -0.3546693027019501, -0.7845273613929749, -0.9530253410339355, 0.0644950419664383, -0.47214595928812386, 0.5194406634990401, -0.4023069974104286, 9362.0, 30146.0, 35388.0, 9362.0, 8.112398147583008, -0.013501578941941261, 0.017436927184462547, 0.04107408970594406, 0.01256678905338049, -0.06289419531822205, 0.9983757734298706, -0.061278317123651505, -0.04855918884277344, 1.491943359375, 1.5673828125, 0.3411102294921875, 1.494140625, 1.064208984375, 10.0, 1.4017528295516968, 1.5, 1.4017528295516968
22106, 1.3418723344802856, -4.366176605224609, -3.8351407051086426, 3.8966429233551025, -1.4823137521743774, -2.6150543689727783, 2.385838270187378, -0.907221257686615, -0.355284720659256, -0.7845175862312317, -0.9530312418937683, 0.06450338661670685, -0.4753923087101495, 0.5167005996727596, -0.4079894204527776, 9362.0, 30146.0, 35388.0, 9362.0, 8.112398147583008, 0.11853700131177902, 0.13413508236408234, -0.4499579071998596, 0.01256678905338049, -0.06289419531822205, 0.9983757734298706, -0.061278317123651505, -0.04855918884277344, 1.491943359375, 1.29638671875, 0.0542755126953125, 1.494140625, 1.002685546875, 10.0, 1.4021698236465454, 1.5, 1.4021698236465454
22166, 1.3449002504348755, -4.369575500488281, -3.839757204055786, 4.041104793548584, -1.537248969078064, -2.6364521980285645, 2.4295592308044434, -0.9239556193351746, -0.35813096165657043, -0.784471869468689, -0.95302814245224, 0.06453043967485428, -0.4842882893922209, 0.504918664692525, -0.371922910060511, 9362.0, 30146.0, 35388.0, 9362.0, 8.132232666015625, -0.0672382190823555, -0.29803720116615295, -0.08307139575481415, 0.01256678905338049, -0.06289419531822205, 0.9983757734298706, -0.06562242656946182, -0.12023735046386719, 1.486083984375, 0.97412109375, 3.60498046875, 1.494873046875, 1.541748046875, 10.0, 1.4024163484573364, 1.5, 1.4024163484573364
22196, 1.3452399969100952, -4.367064952850342, -3.8380396366119385, 4.041104793548584, -1.537248969078064, -2.6364521980285645, 2.4295592308044434, -0.9239556193351746, -0.35813096165657043, -0.7844754457473755, -0.9530266523361206, 0.06453897804021835, -0.4854191054682747, 0.5056714358216254, -0.36434555687958436, 9362.0, 30146.0, 35388.0, 9362.0, 8.132232666015625, 0.02981569431722164, 0.12123559415340424, -0.1468115895986557, 0.01256678905338049, -0.06289419531822205, 0.9983757734298706, -0.06562242656946182, -0.12023735046386719, 1.486083984375, 1.449462890625, 0.103973388671875, 1.494873046875, 1.51904296875, 10.0, 1.4024163484573364, 1.5, 1.4024163484573364
22236, 1.3463739156723022, -4.371359825134277, -3.8414390087127686, 4.212959289550781, -1.6026099920272827, -2.661644697189331, 2.4805691242218018, -0.9435046911239624, -0.36149099469184875, -0.7844794392585754, -0.9530288577079773, 0.06452630460262299, -0.49342267657100125, 0.5096468902906963, -0.3678774722251802, 9362.0, 30146.0, 35388.0, 9362.0, 8.132232666015625, -0.1113472431898117, 0.208243727684021, 0.23357102274894714, 0.01256678905338049, -0.06289419531822205, 0.9983757734298706, -0.06562242656946182, -0.12023735046386719, 1.486083984375, 1.5029296875, 0.201446533203125, 1.48974609375, 1.48828125, 10.0, 1.4033281803131104, 1.5, 1.4033281803131104
22246, 1.3470598459243774, -4.371453285217285, -3.8414766788482666, 4.212959289550781, -1.6026099920272827, -2.661644697189331, 2.4805691242218018, -0.9435046911239624, -0.36149099469184875, -0.7845253348350525, -0.9530222415924072, 0.06449003517627716, -0.4725797335849773, 0.5202647242199419, -0.40867606037346405, 9362.0, 30146.0, 35388.0, 9362.0, 8.132232666015625, 0.18858756124973297, -0.3992839455604553, -0.1551460474729538, 0.01256678905338049, -0.06289419531822205, 0.9983757734298706, -0.06562242656946182, -0.12023735046386719, 1.486083984375, 1.5029296875, 0.201446533203125, 1.48974609375, 1.1337890625, 10.0, 1.4039785861968994, 1.5, 1.4039785861968994
22266, 1.3456636667251587, -4.370336055755615, -3.84326434135437, 4.212959289550781, -1.6026099920272827, -2.661644697189331, 2.4805691242218018, -0.9435046911239624, -0.36149099469184875, -0.7844729423522949, -0.9530331492424011, 0.06453365087509155, -0.48628883660036465, 0.510241049400264, -0.36857647869804, 9362.0, 30146.0, 35388.0, 9362.0, 8.132232666015625, -0.09213561564683914, -0.10209017992019653, -0.01234547421336174, 0.01256678905338049, -0.06289419531822205, 0.9983757734298706, -0.06562242656946182, -0.12023735046386719, 1.486083984375, 1.5029296875, 0.201446533203125, 1.48974609375, 1.278076171875, 10.0, 1.4044079780578613, 1.5, 1.4044079780578613
22426, 1.3510314226150513, -4.374634265899658, -3.8529176712036133, 4.697429656982422, -1.7869305610656738, -2.7311980724334717, 2.619123697280884, -0.9967523813247681, -0.3708838224411011, -0.7844716906547546, -0.9530318975448608, 0.06454157084226608, -0.4906162421318963, 0.5096761607626945, -0.3760368427172957, 9362.0, 30146.0, 35388.0, 9362.0, 8.132232666015625, -0.11864163726568222, 0.04066811129450798, 0.0341840535402298, 0.01256678905338049, -0.06289419531822205, 0.9983757734298706, -0.05994033440947533, -0.07543754577636719, 1.48974609375, 0.9580078125, 4.03448486328125, 1.490478515625, 1.515380859375, 10.0, 1.4034764766693115, 1.5, 1.4034764766693115
22556, 1.3520365953445435, -4.3777265548706055, -3.854588031768799, 5.044083595275879, -1.9188756942749023, -2.7798306941986084, 2.714020252227783, -1.033183217048645, -0.37730634212493896, -0.7845260500907898, -0.9530260562896729, 0.06450062990188599, -0.47352980123157695, 0.5165867335271344, -0.401368619186067, 9362.0, 30146.0, 35388.0, 9362.0, 8.132232666015625, 0.10461217910051346, -0.10205712914466858, 0.13674284517765045, 0.01256678905338049, -0.06289419531822205, 0.9983757734298706, -0.06698590517044067, -0.15607833862304688, 1.483154296875, 1.03857421875, 2.2020111083984375, 1.494140625, 1.045166015625, 10.0, 1.4077430963516235, 1.5, 1.4077430963516235
22826, 1.3551496267318726, -4.386661052703857, -3.8683056831359863, 5.687605857849121, -2.163944721221924, -2.8680472373962402, 2.88192081451416, -1.0978665351867676, -0.389279305934906, -0.7844743132591248, -0.953022837638855, 0.06453816592693329, -0.48731944633247815, 0.5087976740207125, -0.36896834257905864, 9362.0, 30146.0, 35388.0, 9362.0, 8.132232666015625, 0.025895634666085243, -0.20027023553848267, -0.3095533549785614, 0.01256678905338049, -0.06289419531822205, 0.9983757734298706, -0.05448964610695839, -0.14711761474609375, 1.48388671875, 1.071533203125, 1.656829833984375, 1.49267578125, 1.613525390625, 10.0, 1.4117510318756104, 1.5, 1.4117510318756104
22836, 1.3544729948043823, -4.386796474456787, -3.868218421936035, 5.687605857849121, -2.163944721221924, -2.8680472373962402, 2.88192081451416, -1.0978665351867676, -0.389279305934906, -0.7844737768173218, -0.9530319571495056, 0.06452291458845139, -0.48829560731131155, 0.5085951701723275, -0.3682865930268098, 9362.0, 30146.0, 35388.0, 9362.0, 8.132232666015625, -0.010868338868021965, 0.1195448487997055, 0.2115870863199234, 0.01256678905338049, -0.06289419531822205, 0.9983757734298706, -0.07128319889307022, -0.03959846496582031, 1.49267578125, 1.005615234375, 2.859588623046875, 1.49267578125, 1.54248046875, 10.0, 1.4118562936782837, 1.5, 1.4118562936782837
22846, 1.353344440460205, -4.38485050201416, -3.867398500442505, 5.861837387084961, -2.2303240299224854, -2.8914856910705566, 2.9258227348327637, -1.1147767305374146, -0.3918225169181824, -0.7845141887664795, -0.95301753282547, 0.06449729949235916, -0.46945515665767945, 0.5226449097840487, -0.40242203798859316, 9362.0, 30146.0, 35388.0, 9362.0, 8.132232666015625, 0.008991939015686512, -0.11143766343593597, -0.10416113585233688, 0.01256678905338049, -0.06289419531822205, 0.9983757734298706, -0.07128319889307022, -0.03959846496582031, 1.49267578125, 1.6259765625, 0.4795989990234375, 1.49267578125, 1.453125, 10.0, 1.4112392663955688, 1.5, 1.4112392663955688
22856, 1.3537181615829468, -4.384200572967529, -3.866914749145508, 5.891132354736328, -2.241485834121704, -2.8954060077667236, 2.933138847351074, -1.1175906658172607, -0.3922490179538727, -0.7844915986061096, -0.9530321359634399, 0.06452806293964386, -0.48456595110233047, 0.505161037231602, -0.3717996520631173, 9362.0, 30146.0, 35388.0, 9362.0, 8.132232666015625, 0.03658701479434967, 0.03490883857011795, -0.16836120188236237, 0.013497493229806423, -0.06471509486436844, 0.9996410608291626, -0.07128319889307022, -0.03959846496582031, 1.49267578125, 1.6259765625, 0.4795989990234375, 1.49267578125, 1.48388671875, 10.0, 1.4111424684524536, 1.5, 1.4111424684524536
22936, 1.35288405418396, -4.383947372436523, -3.8738863468170166, 6.0387043952941895, -2.297717571258545, -2.9150612354278564, 2.9697508811950684, -1.1316686868667603, -0.39408475160598755, -0.784485936164856, -0.9530301690101624, 0.06454020738601685, -0.49044311727727435, 0.5058014579821872, -0.37058362020563707, 9362.0, 30146.0, 35388.0, 9362.0, 8.132232666015625, 0.149359792470932, 0.5477103590965271, -0.1353643238544464, 0.013497493229806423, -0.06471509486436844, 0.9996410608291626, -0.05507764220237732, -0.01271820068359375, 1.494873046875, 1.430419921875, 0.0756378173828125, 1.494140625, 1.67138671875, 10.0, 1.4115043878555298, 1.5, 1.4115043878555298
23196, 1.3513513803482056, -4.394478797912598, -3.878207206726074, 6.930736541748047, -2.6377313137054443, -3.031049966812134, 3.1822006702423096, -1.213226079940796, -0.40655940771102905, -0.7844793796539307, -0.9530168771743774, 0.06453036516904831, -0.49156297411641625, 0.5072781504072168, -0.3783814777612773, 9362.0, 30146.0, 35388.0, 9362.0, 8.132232666015625, -0.14478109776973724, -0.007855169475078583, -3.32344752678182e-05, 0.011948229745030403, -0.06601232290267944, 1.0008503198623657, -0.06375855952501297, -0.06647872924804688, 1.490478515625, 0.873779296875, 6.885955810546875, 1.49560546875, 1.196044921875, 10.0, 1.4099072217941284, 1.5, 1.4099072217941284
23366, 1.3541423082351685, -4.3986897468566895, -3.882220506668091, 7.482302665710449, -2.8480420112609863, -3.100907802581787, 3.3068268299102783, -1.261041283607483, -0.41531726717948914, -0.7845161557197571, -0.9530728459358215, 0.06448673456907272, -0.45743917275891716, 0.5007129461411637, -0.3759576367976595, 9362.0, 30146.0, 35388.0, 9362.0, 8.132232666015625, -0.19770334661006927, -0.13003411889076233, -0.08984823524951935, 0.011948229745030403, -0.06601232290267944, 1.0008503198623657, -0.06216707453131676, -0.05751800537109375, 1.4912109375, 1.36083984375, 0.016387939453125, 1.49560546875, 1.266357421875, 10.0, 1.4042205810546875, 1.5, 1.4042205810546875
