timeTick, roll, pitch, yaw, stateX, stateY, stateZ, stateVX, stateVY, stateVZ, otX0, otY0, otZ0, otRoll0, otPitch0, otYaw0, left wing, pitch motor, yaw motor, right wing, voltage, roll rate, pitch rate, yaw rate, A_x, A_y, A_z, current, i_raw, v_raw, airflow_voltage, airflow_speed, pot_Pitch, voltage_nKF, kFFx, volt_KF_vel, kP, volt_KF_pos
59031, 3.5063908100128174, 2.459717035293579, -8.294219970703125, 0, 0, 0, 0, 0, 0, -0.7943099737167358, -0.9603217244148254, 0.06329616159200668, -0.2107782855413552, 0.7096739560594187, -0.46933635251048716, 0, 0, 0, 0, 0, 0, 0, 0, 0, 0, 0, 0, 0, 0, 0, 0, 0, 0, 0, 0, 0, 0
59041, 3.507997512817383, 2.458325147628784, -8.296548843383789, 0.0008062567794695497, 0.0008558284025639296, -25.41512680053711, 0.03529979661107063, 0.03746967390179634, -0.8837683796882629, -0.7943070530891418, -0.9603250026702881, 0.06326735764741898, -0.21918258110516153, 0.7108503146080238, -0.46820069460363667, 9362.0, 30146.0, 35388.0, 9362.0, 0, 0.2829493582248688, 0.08056872338056564, -0.26555556058883667, 0.01070999912917614, -0.06387496739625931, 0.999369204044342, 0, 0, 0, 0, 0, 0, 0, 0, 0, 0, 0
59051, 3.5096230506896973, 2.4574015140533447, -8.298617362976074, 0.001134161022491753, 0.0012038979912176728, -25.423965454101562, 0.030280832201242447, 0.0321444608271122, -0.8841410279273987, -0.7943032383918762, -0.9603163599967957, 0.06328853219747543, -0.22390317494998452, 0.7160942332475884, -0.4760718981819579, 9362.0, 30146.0, 35388.0, 9362.0, 0, 0.03332412987947464, -0.12296724319458008, -0.2670114040374756, 0.01016094721853733, -0.06189257651567459, 0.9990847706794739, 0, 0, 0, 1.25390625, 0.1508331298828125, 0, 1.497802734375, 10.0, 1.4075485467910767, 1.5, 1.4075485467910767
59061, 3.5107572078704834, 2.456552743911743, -8.298806190490723, 0.0014118843246251345, 0.0014987012837082148, -25.43280792236328, 0.025263654068112373, 0.02681637741625309, -0.8845139741897583, -0.7942959666252136, -0.9603191018104553, 0.063323475420475, -0.2164891478366243, 0.7084666001965161, -0.4692067150766086, 9362.0, 30146.0, 35388.0, 9362.0, 0, 0.1218659058213234, -0.10669570416212082, 0.009221388958394527, 0.010274928994476795, -0.0593985952436924, 1.0011460781097412, 0, 0, 0, 1.53369140625, 0.265960693359375, 1.494873046875, 1.026123046875, 10.0, 1.4076277017593384, 1.5, 1.4076277017593384
59071, 3.5111916065216064, 2.4565823078155518, -8.296480178833008, 0.0016394213307648897, 0.0017401891527697444, -25.441654205322266, 0.020243749022483826, 0.0214812234044075, -0.8848114609718323, -0.7943035364151001, -0.9603197574615479, 0.06328123807907104, -0.22439020292177989, 0.705259536220666, -0.47430705143968704, 9362.0, 30146.0, 35388.0, 9362.0, 0, 0.2160651981830597, 0.17154806852340698, -0.009565864689648151, 0.009887170977890491, -0.05974317342042923, 0.9970749020576477, 0, 0, 0, 1.371826171875, 0.02008056640625, 1.494873046875, 1.4853515625, 10.0, 1.4079610109329224, 1.5, 1.4079610109329224
59081, 3.511016607284546, 2.4559414386749268, -8.295920372009277, 0.0018167636590078473, 0.0019283135188743472, -25.450504302978516, 0.015224947594106197, 0.016143441200256348, -0.885103702545166, -0.794316291809082, -0.9603338241577148, 0.06328778713941574, -0.22290430627983016, 0.7101806824722416, -0.46480362935912434, 9362.0, 30146.0, 35388.0, 9362.0, 0, -0.1709475815296173, 0.034502748399972916, 0.19952499866485596, 0.009069319814443588, -0.06154147908091545, 0.9984050393104553, 0, 0, 0, 1.251708984375, 0.1577606201171875, 1.493408203125, 1.2158203125, 10.0, 1.4084250926971436, 1.5, 1.4084250926971436
59091, 3.5121395587921143, 2.4540903568267822, -8.297723770141602, 0.0019439817406237125, 0.002063122810795903, -25.45935821533203, 0.010218718089163303, 0.01081838272511959, -0.8856431841850281, -0.7943182587623596, -0.9603250622749329, 0.0632920041680336, -0.21971892355891967, 0.7163949179796134, -0.46824520868844643, 9362.0, 30146.0, 35388.0, 9362.0, 0, 0.08030016720294952, -0.06475565582513809, -0.3094898760318756, 0.009154903702437878, -0.060151588171720505, 0.9974558353424072, 0, 0, 0, 1.263427734375, 0.1233062744140625, 1.493408203125, 1.52490234375, 10.0, 1.4090588092803955, 1.5, 1.4090588092803955
59101, 3.511740207672119, 2.454332113265991, -8.297677993774414, 0.0020211103837937117, 0.0021446468308568, -25.468215942382812, 0.005206841044127941, 0.005486593581736088, -0.8860540390014648, -0.7943021059036255, -0.9603173136711121, 0.06329534947872162, -0.21823501569913414, 0.7140287608628171, -0.4675742475952032, 9362.0, 30146.0, 35388.0, 9362.0, 0, 0.15525902807712555, 0.08942463248968124, -0.11525600403547287, 0.008072943426668644, -0.060765720903873444, 0.9975327849388123, 0, 0, 0, 1.46044921875, 0.12200927734375, 1.49267578125, 1.165283203125, 10.0, 1.4084926843643188, 1.5, 1.4084926843643188
59111, 3.5124943256378174, 2.4513282775878906, -8.296698570251465, 0.002048162743449211, 0.0021728728897869587, -25.477079391479492, 0.00020363253133837134, 0.00015863195585552603, -0.886577844619751, -0.7943163514137268, -0.9603209495544434, 0.06329789757728577, -0.21336355776893076, 0.7301508012094757, -0.4829402874506522, 9362.0, 30146.0, 35388.0, 9362.0, 0, -0.026786278933286667, 0.14465995132923126, 0.07753842324018478, 0.008085266686975956, -0.06052231416106224, 0.9972531795501709, 0, 0, 0, 1.32861328125, 0.0214385986328125, 1.49267578125, 1.51904296875, 10.0, 1.409008264541626, 1.5, 1.409008264541626
59121, 3.513401746749878, 2.4502310752868652, -8.298858642578125, 0.002025183755904436, 0.0021478256676346064, -25.48594856262207, -0.004799357615411282, -0.0051681846380233765, -0.8871108293533325, -0.7942947745323181, -0.9603190422058105, 0.0632752925157547, -0.22481608034929193, 0.713157547474907, -0.48034135071587003, 9362.0, 30146.0, 35388.0, 9362.0, 0, 0.32298317551612854, -0.18891283869743347, -0.20536454021930695, 0.010268360376358032, -0.06072893738746643, 0.997617244720459, 0, 0, 0, 1.174072265625, 0.5496826171875, 1.493408203125, 1.405517578125, 10.0, 1.4080907106399536, 1.5, 1.4080907106399536
59131, 3.5134005546569824, 2.453824520111084, -8.300613403320312, 0.0019521983340382576, 0.00206949794664979, -25.494821548461914, -0.009797943755984306, -0.010497142560780048, -0.8876378536224365, -0.7943044900894165, -0.9603185653686523, 0.06328195333480835, -0.2160453062447428, 0.7240853121272721, -0.47950221117776154, 9362.0, 30146.0, 35388.0, 9362.0, 8.370248794555664, 0.11979980021715164, -0.23566167056560516, -0.3292558193206787, 0.009082069620490074, -0.06442058831453323, 0.9976518154144287, -0.054912250488996506, 0.0052013397216796875, 1.496337890625, 1.546875, 0.2949676513671875, 1.493408203125, 1.263427734375, 10.0, 1.407645583152771, 1.5, 1.407645583152771
59141, 3.5140199661254883, 2.455018997192383, -8.302221298217773, 0.0018292209133505821, 0.0019378586439415812, -25.503700256347656, -0.014797677285969257, -0.015830574557185173, -0.8881134986877441, -0.794306218624115, -0.9603119492530823, 0.0632801502943039, -0.21945560444086096, 0.714103338355244, -0.465040998262987, 9362.0, 30146.0, 35388.0, 9362.0, 8.370248794555664, 0.20369106531143188, -0.29184234142303467, 0.11324424296617508, 0.007979131303727627, -0.061442211270332336, 1.0003527402877808, -0.054912250488996506, 0.0052013397216796875, 1.496337890625, 1.54541015625, 0.291656494140625, 1.494873046875, 1.326416015625, 10.0, 1.407675862312317, 1.5, 1.407675862312317
59151, 3.5154755115509033, 2.45426607131958, -8.303532600402832, 0.0016562060918658972, 0.001752880634739995, -25.512582778930664, -0.019805418327450752, -0.02116488665342331, -0.8885545134544373, -0.7943007946014404, -0.9603269696235657, 0.06329462677240372, -0.21965310225945028, 0.7186010848400031, -0.4740274748050739, 9362.0, 30146.0, 35388.0, 9362.0, 8.370248794555664, -0.06157594546675682, 0.11765298992395401, 0.0773630365729332, 0.010601000860333443, -0.060711923986673355, 0.9991666674613953, -0.054912250488996506, 0.0052013397216796875, 1.496337890625, 1.55712890625, 0.31793212890625, 1.494873046875, 1.15869140625, 10.0, 1.4067139625549316, 1.5, 1.4067139625549316
59161, 3.514883279800415, 2.453242301940918, -8.300992965698242, 0.001433056779205799, 0.0015145080396905541, -25.521469116210938, -0.02482457272708416, -0.026509512215852737, -0.8888182044029236, -0.7942889928817749, -0.9603034257888794, 0.06328452378511429, -0.21612461738700695, 0.7133294981454981, -0.4717853183835418, 9362.0, 30146.0, 35388.0, 9362.0, 8.370248794555664, 0.014623518101871014, 0.3174635171890259, 0.17577475309371948, 0.01121595874428749, -0.06180701032280922, 0.9990496635437012, -0.054912250488996506, 0.0052013397216796875, 1.496337890625, 1.568115234375, 0.3428955078125, 1.48828125, 1.532958984375, 10.0, 1.4057204723358154, 1.5, 1.4057204723358154
59171, 3.515219211578369, 2.4501900672912598, -8.30170726776123, 0.001159748760983348, 0.0012227072147652507, -25.530359268188477, -0.029836783185601234, -0.03185087814927101, -0.8891940712928772, -0.7943040728569031, -0.9603329300880432, 0.063291035592556, -0.2148332354794389, 0.7117424635829366, -0.47408555165136146, 9362.0, 30146.0, 35388.0, 9362.0, 8.370248794555664, 0.08976543694734573, 0.09205934405326843, -0.03173830732703209, 0.008122602477669716, -0.06098728999495506, 0.9967265725135803, -0.054912250488996506, 0.0052013397216796875, 1.496337890625, 1.55126953125, 0.304718017578125, 1.48828125, 1.318359375, 10.0, 1.4060481786727905, 1.5, 1.4060481786727905
59181, 3.516091823577881, 2.4490020275115967, -8.301279067993164, 0.0008363341330550611, 0.0008775006863288581, -25.53925323486328, -0.0348462276160717, -0.03719036653637886, -0.8895891904830933, -0.7942875623703003, -0.9603080749511719, 0.06329615414142609, -0.21361356855150937, 0.7168830050978272, -0.4745121375817049, 9362.0, 30146.0, 35388.0, 9362.0, 8.370248794555664, -0.07398251444101334, 0.3290645182132721, 0.05168985202908516, 0.008296720683574677, -0.06012361869215965, 0.9998541474342346, -0.054912250488996506, 0.0052013397216796875, 1.496337890625, 1.55859375, 0.3211212158203125, 1.4912109375, 1.474365234375, 10.0, 1.4053966999053955, 1.5, 1.4053966999053955
59191, 3.5173144340515137, 2.4458160400390625, -8.303494453430176, 0.0004628857714124024, 0.0004789310914929956, -25.54815101623535, -0.039843421429395676, -0.042523596435785294, -0.8901236653327942, -0.7943107485771179, -0.9603177905082703, 0.06331664323806763, -0.2202336362862887, 0.7089129829597312, -0.46762694320221426, 9362.0, 30146.0, 35388.0, 9362.0, 8.370248794555664, 0.09103911370038986, 0.17660106718540192, -0.03463202342391014, 0.00916401855647564, -0.05927020683884621, 0.998782753944397, -0.054912250488996506, 0.0052013397216796875, 1.496337890625, 1.56298828125, 0.3311767578125, 1.4912109375, 1.37548828125, 10.0, 1.4044952392578125, 1.5, 1.4044952392578125
59201, 3.517617702484131, 2.4426400661468506, -8.304800033569336, 3.940699389204383e-05, 2.6947847800329328e-05, -25.55705451965332, -0.044852569699287415, -0.04787285253405571, -0.8903935551643372, -0.7942922711372375, -0.9603180289268494, 0.06329017132520676, -0.2175007547119745, 0.7104141625688101, -0.4677752135753766, 9362.0, 30146.0, 35388.0, 9362.0, 8.370248794555664, 0.03218983858823776, 0.45960018038749695, -0.21936532855033875, 0.011150154285132885, -0.05937601998448372, 0.9975513815879822, -0.054912250488996506, 0.0052013397216796875, 1.496337890625, 1.305908203125, 0.0413360595703125, 1.49267578125, 1.386474609375, 10.0, 1.4037514925003052, 1.5, 1.4037514925003052
59211, 3.517463445663452, 2.440633535385132, -8.305453300476074, -0.00043409818317741156, -0.00047849773545749485, -25.565959930419922, -0.04984860494732857, -0.053216155618429184, -0.8908222913742065, -0.7943114042282104, -0.9603289365768433, 0.06329759955406189, -0.20961302504123405, 0.7199621390611242, -0.47903266990920446, 9362.0, 30146.0, 35388.0, 9362.0, 8.370248794555664, -0.0026619553100317717, 0.31047675013542175, -0.04913436248898506, 0.011058259755373001, -0.06013832241296768, 0.9987337589263916, -0.054912250488996506, 0.0052013397216796875, 1.496337890625, 1.537353515625, 0.27386474609375, 1.49267578125, 1.5029296875, 10.0, 1.404078483581543, 1.5, 1.404078483581543
59221, 3.517585039138794, 2.4387571811676025, -8.30494499206543, -0.0009575202129781246, -0.0010373631957918406, -25.574871063232422, -0.05483589321374893, -0.05855688080191612, -0.8913204669952393, -0.7942845821380615, -0.9603305459022522, 0.06329318881034851, -0.21758642053889962, 0.7126811408111564, -0.4664814174002458, 9362.0, 30146.0, 35388.0, 9362.0, 8.370248794555664, -0.06056634336709976, 0.10747694969177246, -0.06796186417341232, 0.010944920592010021, -0.058768920600414276, 0.9993518590927124, -0.054912250488996506, 0.0052013397216796875, 1.496337890625, 1.5146484375, 0.225494384765625, 1.494873046875, 1.3388671875, 10.0, 1.4043859243392944, 1.5, 1.4043859243392944
59231, 3.518179416656494, 2.4368386268615723, -8.30453872680664, -0.001530828420072794, -0.0016496691387146711, -25.583786010742188, -0.05982571467757225, -0.06390434503555298, -0.8917006850242615, -0.7943038940429688, -0.9603297114372253, 0.06330519169569016, -0.21306874628493916, 0.7215621847789464, -0.4765054485030809, 9362.0, 30146.0, 35388.0, 9362.0, 8.370248794555664, 0.07609358429908752, 0.5150055289268494, 0.04292919114232063, 0.012829788960516453, -0.059337057173252106, 0.9982692003250122, -0.06732618808746338, -0.030637741088867188, 1.493408203125, 1.5556640625, 0.3145904541015625, 1.494873046875, 1.14111328125, 10.0, 1.404396414756775, 1.5, 1.404396414756775
59241, 3.51879620552063, 2.434399127960205, -8.303394317626953, -0.0021540264133363962, -0.0023154611699283123, -25.59270477294922, -0.06481383740901947, -0.0692540854215622, -0.892051637172699, -0.7942931056022644, -0.9603211283683777, 0.06327363103628159, -0.2185090190399045, 0.7110367714461177, -0.4792010940387648, 9362.0, 30146.0, 35388.0, 9362.0, 8.370248794555664, 0.1288696974515915, 0.3288527727127075, 0.01851850375533104, 0.010986731387674809, -0.05960661172866821, 0.9982624053955078, -0.06732618808746338, -0.030637741088867188, 1.493408203125, 1.5263671875, 0.2502899169921875, 1.494873046875, 1.25830078125, 10.0, 1.4047538042068481, 1.5, 1.4047538042068481
59251, 3.519932270050049, 2.4333879947662354, -8.303403854370117, -0.002827069256454706, -0.0030347362626343966, -25.601627349853516, -0.06979464739561081, -0.07460098713636398, -0.8924834132194519, -0.7942970395088196, -0.9603071808815002, 0.06327083706855774, -0.2293971296293341, 0.7165438367900094, -0.47338094328550906, 9362.0, 30146.0, 35388.0, 9362.0, 8.370248794555664, -0.0017372706206515431, -0.4051142632961273, -0.27534356713294983, 0.010187095031142235, -0.062366388738155365, 0.9973891973495483, -0.06732618808746338, -0.030637741088867188, 1.493408203125, 1.56005859375, 0.324493408203125, 1.494873046875, 1.5556640625, 10.0, 1.4051284790039062, 1.5, 1.4051284790039062
59261, 3.520226240158081, 2.4334664344787598, -8.30392837524414, -0.003549890825524926, -0.0038074792828410864, -25.610553741455078, -0.07476968318223953, -0.0799475908279419, -0.8929508924484253, -0.7942986488342285, -0.960318922996521, 0.06329139322042465, -0.22403217513270676, 0.7184447987011708, -0.46994002566904713, 9362.0, 30146.0, 35388.0, 9362.0, 8.370248794555664, -0.18882820010185242, -0.13574042916297913, 0.07922598719596863, 0.008691530674695969, -0.0625508725643158, 0.9978616237640381, -0.06732618808746338, -0.030637741088867188, 1.493408203125, 1.37841796875, 0.023406982421875, 1.4912109375, 1.42822265625, 10.0, 1.4050348997116089, 1.5, 1.4050348997116089
59271, 3.5204508304595947, 2.434087038040161, -8.304890632629395, -0.004322444554418325, -0.004633687436580658, -25.61948585510254, -0.07974113523960114, -0.08529398590326309, -0.8934611678123474, -0.7943052053451538, -0.9603330492973328, 0.06331553310155869, -0.2145189097848771, 0.7110475345736518, -0.4670516986512602, 9362.0, 30146.0, 35388.0, 9362.0, 8.370248794555664, -0.0829862579703331, 0.015620439313352108, -0.35372307896614075, 0.011358345858752728, -0.06249897554516792, 0.9985558986663818, -0.06732618808746338, -0.030637741088867188, 1.493408203125, 1.062744140625, 1.79193115234375, 1.4912109375, 1.55859375, 10.0, 1.4046179056167603, 1.5, 1.4046179056167603
59281, 3.5189402103424072, 2.4353063106536865, -8.306619644165039, -0.005144729744642973, -0.005513378418982029, -25.628421783447266, -0.08471598476171494, -0.09064410626888275, -0.8939100503921509, -0.7942931652069092, -0.9603247046470642, 0.06330660730600357, -0.21621362433494376, 0.7162736073226199, -0.46994221424212734, 9362.0, 30146.0, 35388.0, 9362.0, 8.370248794555664, 0.09982702136039734, 0.040246207267045975, -0.3058970868587494, 0.010763530619442463, -0.06236235797405243, 0.9973474740982056, -0.06732618808746338, -0.030637741088867188, 1.493408203125, 1.550537109375, 0.303131103515625, 1.494873046875, 1.546875, 10.0, 1.404632329940796, 1.5, 1.404632329940796
59291, 3.519793748855591, 2.434467077255249, -8.306342124938965, -0.0060167755000293255, -0.006446578074246645, -25.63736343383789, -0.08969336003065109, -0.09599565714597702, -0.8943345546722412, -0.7943143844604492, -0.9603237509727478, 0.06328906863927841, -0.21343466697118393, 0.7169206826441723, -0.47244314080071487, 9362.0, 30146.0, 35388.0, 9362.0, 8.370248794555664, -0.21962286531925201, -0.0598871111869812, -0.059497348964214325, 0.011097644455730915, -0.059284064918756485, 0.9960599541664124, -0.06732618808746338, -0.030637741088867188, 1.493408203125, 1.22021484375, 0.2799530029296875, 1.494873046875, 1.54541015625, 10.0, 1.4033656120300293, 1.5, 1.4033656120300293
59301, 3.520317792892456, 2.433513879776001, -8.304717063903809, -0.006938560400158167, -0.007433230988681316, -25.64630889892578, -0.09466361999511719, -0.10133492946624756, -0.8949316143989563, -0.7942996621131897, -0.9603238701820374, 0.06329812109470367, -0.2166711566113266, 0.7179167803376743, -0.4695451160221043, 9362.0, 30146.0, 35388.0, 9362.0, 8.370248794555664, 0.06479059904813766, -0.05460570752620697, 0.37135639786720276, 0.011339866556227207, -0.059051647782325745, 0.9981379508972168, -0.06732618808746338, -0.030637741088867188, 1.493408203125, 1.469970703125, 0.1386566162109375, 1.493408203125, 1.55419921875, 10.0, 1.4037193059921265, 1.5, 1.4037193059921265
59311, 3.520111322402954, 2.434002161026001, -8.30661392211914, -0.007910043932497501, -0.008473287336528301, -25.655261993408203, -0.09963294118642807, -0.10667642951011658, -0.8955202102661133, -0.794310450553894, -0.960320234298706, 0.06329333037137985, -0.21765570442491214, 0.7188758676331304, -0.4733648869323356, 9362.0, 30146.0, 35388.0, 9362.0, 8.370248794555664, 0.13282516598701477, 0.14488789439201355, -0.18369828164577484, 0.0109122758731246, -0.06127125397324562, 0.9991466999053955, -0.06732618808746338, -0.030637741088867188, 1.493408203125, 1.305908203125, 0.0413360595703125, 1.493408203125, 1.46044921875, 10.0, 1.4043517112731934, 1.5, 1.4043517112731934
59321, 3.519301176071167, 2.431917428970337, -8.305729866027832, -0.00893124844878912, -0.009566803462803364, -25.66421890258789, -0.10460811853408813, -0.11202657967805862, -0.8959686160087585, -0.7942922711372375, -0.9603086709976196, 0.0633016973733902, -0.2201676791565704, 0.723474407536429, -0.4747891075125777, 9362.0, 30146.0, 35388.0, 9362.0, 8.370248794555664, -0.10436345636844635, 0.12814542651176453, -0.08029496669769287, 0.011182034388184547, -0.060649849474430084, 0.9991766810417175, -0.06732618808746338, -0.030637741088867188, 1.493408203125, 1.127197265625, 0.9573516845703125, 1.493408203125, 1.541015625, 10.0, 1.4035321474075317, 1.5, 1.4035321474075317
59331, 3.519335985183716, 2.4310526847839355, -8.30589771270752, -0.01000223308801651, -0.010713843628764153, -25.673179626464844, -0.10958870500326157, -0.11738143861293793, -0.8963237404823303, -0.7943106889724731, -0.9603135585784912, 0.06330016255378723, -0.21194032206631394, 0.7166938487081609, -0.4763575005545543, 9362.0, 30146.0, 35388.0, 9362.0, 8.370248794555664, -0.03800574317574501, -0.08481316268444061, -0.2801297903060913, 0.010806321166455746, -0.05843145400285721, 0.9985864758491516, -0.0490773506462574, -0.2904777526855469, 1.47216796875, 1.5087890625, 0.21337890625, 1.493408203125, 1.5322265625, 10.0, 1.403843641281128, 1.5, 1.403843641281128
59341, 3.519287109375, 2.4331438541412354, -8.308882713317871, -0.01112300530076027, -0.011914429254829884, -25.682144165039062, -0.11456578969955444, -0.1227356493473053, -0.8966752290725708, -0.7942996025085449, -0.9603222012519836, 0.0632847398519516, -0.2067238671340373, 0.7134345685537085, -0.477807827545905, 9362.0, 30146.0, 35388.0, 9362.0, 8.370248794555664, 0.09870224446058273, -0.155697762966156, -0.33582422137260437, 0.008836762048304081, -0.06222837045788765, 0.9975176453590393, -0.0490773506462574, -0.2904777526855469, 1.47216796875, 1.541748046875, 0.2835540771484375, 1.493408203125, 1.552001953125, 10.0, 1.404175043106079, 1.5, 1.404175043106079
59361, 3.520474433898926, 2.431063175201416, -8.309910774230957, -0.013513743877410889, -0.014476105570793152, -25.70008659362793, -0.12450806796550751, -0.13342930376529694, -0.897635281085968, -0.7943000793457031, -0.9603156447410583, 0.06330026686191559, -0.21573484649202013, 0.7191473654502829, -0.4794615928810973, 9362.0, 30146.0, 35388.0, 9362.0, 8.370248794555664, 0.05551024526357651, 0.0765930563211441, -0.011617472395300865, 0.00940396822988987, -0.06048953905701637, 0.9997073411941528, -0.0490773506462574, -0.2904777526855469, 1.47216796875, 1.510986328125, 0.217864990234375, 1.49267578125, 1.518310546875, 10.0, 1.4045354127883911, 1.5, 1.4045354127883911
59371, 3.5203773975372314, 2.43204402923584, -8.311850547790527, -0.013513743877410889, -0.014476105570793152, -25.70008659362793, -0.12450806796550751, -0.13342930376529694, -0.897635281085968, -0.7943278551101685, -0.9603231549263, 0.06325425952672958, -0.21644417275061514, 0.7173572143276772, -0.4675473117811129, 9362.0, 30146.0, 35388.0, 9362.0, 8.370248794555664, 0.05551024526357651, 0.0765930563211441, -0.011617472395300865, 0.00919067207723856, -0.06026255339384079, 1.0001444816589355, -0.0490773506462574, -0.2904777526855469, 1.47216796875, 1.510986328125, 0.217864990234375, 1.49267578125, 1.518310546875, 10.0, 1.4039850234985352, 1.5, 1.4039850234985352
59381, 3.521898031234741, 2.4288971424102783, -8.313226699829102, -0.013513743877410889, -0.014476105570793152, -25.70008659362793, -0.12450806796550751, -0.13342930376529694, -0.897635281085968, -0.7942864894866943, -0.9602992534637451, 0.06328941136598587, -0.2194822245454287, 0.712743359123948, -0.4685033242689721, 9362.0, 30146.0, 35388.0, 9362.0, 8.370248794555664, 0.07915086299180984, 0.27505213022232056, 0.2657797336578369, 0.009346488863229752, -0.06078755855560303, 0.9988453984260559, -0.0490773506462574, -0.2904777526855469, 1.47216796875, 1.510986328125, 0.217864990234375, 1.493408203125, 1.518310546875, 10.0, 1.4039850234985352, 1.5, 1.4039850234985352
59401, 3.521472215652466, 2.4268922805786133, -8.312148094177246, -0.013513743877410889, -0.014476105570793152, -25.70008659362793, -0.12450806796550751, -0.13342930376529694, -0.897635281085968, -0.7943075895309448, -0.9603153467178345, 0.06325212866067886, -0.22238366113872238, 0.7253547259003028, -0.46810933723219256, 9362.0, 30146.0, 35388.0, 9362.0, 8.370248794555664, -0.13412001729011536, 0.04345826804637909, -0.1712249517440796, 0.007686755619943142, -0.05632675811648369, 0.9982322454452515, -0.0490773506462574, -0.2904777526855469, 1.47216796875, 1.486083984375, 0.16845703125, 1.494873046875, 1.459716796875, 10.0, 1.40519380569458, 1.5, 1.40519380569458
59441, 3.523115873336792, 2.419356346130371, -8.310672760009766, -0.021879974752664566, -0.023445868864655495, -25.754011154174805, -0.154351606965065, -0.16556492447853088, -0.8998437523841858, -0.7942959070205688, -0.9603200554847717, 0.06328633427619934, -0.22030890553245572, 0.7012537186938061, -0.4755768855109646, 9362.0, 30146.0, 35388.0, 9362.0, 8.370248794555664, 0.09571374952793121, -0.02180022932589054, 0.01677129417657852, 0.01145984884351492, -0.058160897344350815, 1.0013186931610107, -0.0490773506462574, -0.2904777526855469, 1.47216796875, 1.486083984375, 0.16845703125, 1.493408203125, 1.546875, 10.0, 1.40519380569458, 1.5, 1.40519380569458
59471, 3.523028612136841, 2.4177963733673096, -8.309405326843262, -0.030218016356229782, -0.032394446432590485, -25.799041748046875, -0.17914684116840363, -0.19236479699611664, -0.9016868472099304, -0.7943016886711121, -0.960303008556366, 0.06326465308666229, -0.22175697448757167, 0.7229698435999978, -0.47661432892497624, 9362.0, 30146.0, 35388.0, 9362.0, 8.370248794555664, 0.1930171400308609, 0.3292864263057709, 0.009955056942999363, 0.009971726685762405, -0.05981232225894928, 0.9996865391731262, -0.0490773506462574, -0.2904777526855469, 1.47216796875, 1.486083984375, 0.16845703125, 1.49267578125, 1.51611328125, 10.0, 1.40519380569458, 1.5, 1.40519380569458
59481, 3.5241153240203857, 2.416727304458618, -8.308854103088379, -0.030218016356229782, -0.032394446432590485, -25.799041748046875, -0.17914684116840363, -0.19236479699611664, -0.9016868472099304, -0.794304370880127, -0.9603314995765686, 0.06328193843364716, -0.2131845420765834, 0.7240450606312265, -0.46803737836977, 9362.0, 30146.0, 35388.0, 9362.0, 8.370248794555664, 0.1930171400308609, 0.3292864263057709, 0.009955056942999363, 0.01070215180516243, -0.05930205434560776, 0.9994986653327942, -0.0490773506462574, -0.2904777526855469, 1.47216796875, 1.486083984375, 0.16845703125, 1.494873046875, 1.355712890625, 10.0, 1.40519380569458, 1.5, 1.40519380569458
59491, 3.524965286254883, 2.414443254470825, -8.308832168579102, -0.030218016356229782, -0.032394446432590485, -25.799041748046875, -0.17914684116840363, -0.19236479699611664, -0.9016868472099304, -0.7943004369735718, -0.9603201746940613, 0.06325077265501022, -0.19901371635822943, 0.7193089962475767, -0.47901306544375977, 9362.0, 30146.0, 35388.0, 9362.0, 8.370248794555664, 0.1930171400308609, 0.3292864263057709, 0.009955056942999363, 0.010727285407483578, -0.05948737636208534, 0.9987787008285522, -0.0490773506462574, -0.2904777526855469, 1.47216796875, 1.486083984375, 0.16845703125, 1.494873046875, 1.453125, 10.0, 1.40519380569458, 1.5, 1.40519380569458
59501, 3.52524471282959, 2.4125871658325195, -8.309836387634277, -0.030218016356229782, -0.032394446432590485, -25.799041748046875, -0.17914684116840363, -0.19236479699611664, -0.9016868472099304, -0.7943151593208313, -0.9603134989738464, 0.06327167898416519, -0.2064661314596758, 0.7185599367801387, -0.4908654703004354, 9362.0, 30146.0, 35388.0, 9362.0, 8.370248794555664, 0.1930171400308609, 0.3292864263057709, 0.009955056942999363, 0.01114588137716055, -0.059350356459617615, 1.0006144046783447, -0.0490773506462574, -0.2904777526855469, 1.47216796875, 1.486083984375, 0.16845703125, 1.491943359375, 1.42236328125, 10.0, 1.40519380569458, 1.5, 1.40519380569458
59511, 3.5264394283294678, 2.409803628921509, -8.30945873260498, -0.030218016356229782, -0.032394446432590485, -25.799041748046875, -0.17914684116840363, -0.19236479699611664, -0.9016868472099304, -0.7943182587623596, -0.9603254795074463, 0.0632701888680458, -0.21398079362958092, 0.7041436242623718, -0.4780873015720187, 9362.0, 30146.0, 35388.0, 9362.0, 8.370248794555664, 0.1930171400308609, 0.3292864263057709, 0.009955056942999363, 0.010231169871985912, -0.0587858222424984, 0.9990842342376709, -0.0490773506462574, -0.2904777526855469, 1.47216796875, 1.486083984375, 0.16845703125, 1.491943359375, 1.311767578125, 10.0, 1.40519380569458, 1.5, 1.40519380569458
59521, 3.5265355110168457, 2.4110140800476074, -8.308841705322266, -0.030218016356229782, -0.032394446432590485, -25.799041748046875, -0.17914684116840363, -0.19236479699611664, -0.9016868472099304, -0.7943124175071716, -0.9603122472763062, 0.0632513090968132, -0.2170621825506869, 0.7184663645938656, -0.4829325757063208, 9362.0, 30146.0, 35388.0, 9362.0, 8.370248794555664, -0.13536235690116882, 0.12508079409599304, -0.03266259655356407, 0.008618646301329136, -0.05909699946641922, 0.998945951461792, -0.0490773506462574, -0.2904777526855469, 1.47216796875, 1.486083984375, 0.16845703125, 1.490478515625, 1.48681640625, 10.0, 1.40519380569458, 1.5, 1.40519380569458
59541, 3.5265798568725586, 2.4143569469451904, -8.309210777282715, -0.030218016356229782, -0.032394446432590485, -25.799041748046875, -0.17914684116840363, -0.19236479699611664, -0.9016868472099304, -0.794318437576294, -0.9603206515312195, 0.06328889727592468, -0.21139539407471897, 0.7176268069889034, -0.47826535908102347, 9362.0, 30146.0, 35388.0, 9362.0, 8.370248794555664, -0.13536235690116882, 0.12508079409599304, -0.03266259655356407, 0.010578189045190811, -0.057997845113277435, 1.0007950067520142, -0.08483219891786575, -0.27255821228027344, 1.4736328125, 1.486083984375, 0.16845703125, 1.496337890625, 1.48681640625, 10.0, 1.4059416055679321, 1.5, 1.4059416055679321
59551, 3.526967763900757, 2.4125356674194336, -8.309329986572266, -0.030218016356229782, -0.032394446432590485, -25.799041748046875, -0.17914684116840363, -0.19236479699611664, -0.9016868472099304, -0.7943160533905029, -0.9603157639503479, 0.06329209357500076, -0.21398757391514814, 0.7090263882913064, -0.4784851288309497, 9362.0, 30146.0, 35388.0, 9362.0, 8.370248794555664, -0.13536235690116882, 0.12508079409599304, -0.03266259655356407, 0.011378180235624313, -0.05826520919799805, 1.000029444694519, -0.08483219891786575, -0.27255821228027344, 1.4736328125, 1.486083984375, 0.16845703125, 1.496337890625, 1.48681640625, 10.0, 1.405940294265747, 1.5, 1.405940294265747
59571, 3.5289952754974365, 2.4110286235809326, -8.309098243713379, -0.050608329474925995, -0.054314710199832916, -25.88937759399414, -0.22864963114261627, -0.24606460332870483, -0.9049436450004578, -0.79432213306427, -0.9603233933448792, 0.06329792737960815, -0.21470305263239664, 0.7206381887315274, -0.4812920323665785, 9362.0, 30146.0, 35388.0, 9362.0, 8.370248794555664, 0.14137636125087738, -0.08721284568309784, -0.022074008360505104, 0.00990078691393137, -0.0607118085026741, 0.9995361566543579, -0.08483219891786575, -0.27255821228027344, 1.4736328125, 1.486083984375, 0.16845703125, 1.496337890625, 1.52783203125, 10.0, 1.406001329421997, 1.5, 1.406001329421997
59581, 3.5292775630950928, 2.4112088680267334, -8.309677124023438, -0.050608329474925995, -0.054314710199832916, -25.88937759399414, -0.22864963114261627, -0.24606460332870483, -0.9049436450004578, -0.7943377494812012, -0.9603210687637329, 0.06326588988304138, -0.21566440753336244, 0.7240824002442707, -0.48761284219373224, 9362.0, 30146.0, 35388.0, 9362.0, 8.370248794555664, -0.11938563734292984, 0.028906773775815964, -0.05573425069451332, 0.009019782766699791, -0.060805387794971466, 0.9997806549072266, -0.08483219891786575, -0.27255821228027344, 1.4736328125, 1.486083984375, 0.16845703125, 1.494873046875, 1.52783203125, 10.0, 1.4058634042739868, 1.5, 1.4058634042739868
59601, 3.5301599502563477, 2.414182424545288, -8.313178062438965, -0.057690300047397614, -0.06193852052092552, -25.916542053222656, -0.24348634481430054, -0.2621942460536957, -0.9059189558029175, -0.7943292260169983, -0.9603183269500732, 0.06327860802412033, -0.21369125317404178, 0.7219211388197948, -0.48005509022740434, 9362.0, 30146.0, 35388.0, 9362.0, 8.370248794555664, 0.24951410293579102, -0.14135128259658813, 0.016637496650218964, 0.010696811601519585, -0.05867503210902214, 0.9976819157600403, -0.08483219891786575, -0.27255821228027344, 1.4736328125, 1.486083984375, 0.16845703125, 1.494873046875, 1.535888671875, 10.0, 1.4055709838867188, 1.5, 1.4055709838867188
59641, 3.531888008117676, 2.4093551635742188, -8.310142517089844, -0.06782534718513489, -0.07285608351230621, -25.95281219482422, -0.2632601857185364, -0.2836836576461792, -0.9077227115631104, -0.7943240404129028, -0.9603099822998047, 0.06320954114198685, -0.21694743342979986, 0.7373742554061948, -0.4931858299030769, 9362.0, 30146.0, 35388.0, 9362.0, 8.370248794555664, -0.010051400400698185, 0.38227415084838867, 0.3044707179069519, 0.012418104335665703, -0.05960946902632713, 0.9982436895370483, -0.08483219891786575, -0.27255821228027344, 1.4736328125, 1.486083984375, 0.16845703125, 1.494873046875, 1.5, 10.0, 1.4040553569793701, 1.5, 1.4040553569793701
59651, 3.531630277633667, 2.4099464416503906, -8.309466361999512, -0.07048264145851135, -0.07571979612112045, -25.961891174316406, -0.26819929480552673, -0.2890591323375702, -0.9081650972366333, -0.7943140268325806, -0.9603090882301331, 0.06321750581264496, -0.22637782659924544, 0.7393825295108343, -0.493167810659321, 9362.0, 30146.0, 35388.0, 9362.0, 8.370248794555664, 0.019910577684640884, -0.22026023268699646, -0.13173553347587585, 0.012418104335665703, -0.05960946902632713, 0.9982436895370483, -0.08483219891786575, -0.27255821228027344, 1.4736328125, 1.486083984375, 0.16845703125, 1.494873046875, 1.5, 10.0, 1.4027842283248901, 1.5, 1.4027842283248901
59661, 3.5318260192871094, 2.408755302429199, -8.309666633605957, -0.07048264145851135, -0.07571979612112045, -25.961891174316406, -0.26819929480552673, -0.2890591323375702, -0.9081650972366333, -0.7943210005760193, -0.9603086709976196, 0.06322690099477768, -0.2219400917091041, 0.7366345796281166, -0.49555347548903295, 9362.0, 30146.0, 35388.0, 9362.0, 8.370248794555664, 0.019910577684640884, -0.22026023268699646, -0.13173553347587585, 0.011650093831121922, -0.059895358979701996, 0.9997447729110718, -0.08483219891786575, -0.27255821228027344, 1.4736328125, 1.486083984375, 0.16845703125, 1.494140625, 1.5, 10.0, 1.4030565023422241, 1.5, 1.4030565023422241
59671, 3.533597469329834, 2.410019636154175, -8.310317039489746, -0.0759454295039177, -0.08160853385925293, -25.98006248474121, -0.2780795693397522, -0.29981401562690735, -0.9089747071266174, -0.7943241596221924, -0.960303008556366, 0.06322724372148514, -0.22130171989134487, 0.7259259343788074, -0.4845068462481152, 9362.0, 30146.0, 35388.0, 9362.0, 8.370248794555664, 0.019910577684640884, -0.22026023268699646, -0.13173553347587585, 0.010775066912174225, -0.058185722678899765, 0.9995808005332947, -0.08483219891786575, -0.27255821228027344, 1.4736328125, 1.486083984375, 0.16845703125, 1.494140625, 1.5, 10.0, 1.4036262035369873, 1.5, 1.4036262035369873
59681, 3.5331058502197266, 2.4107396602630615, -8.311694145202637, -0.0759454295039177, -0.08160853385925293, -25.98006248474121, -0.2780795693397522, -0.29981401562690735, -0.9089747071266174, -0.7943229079246521, -0.9603133201599121, 0.06319501250982285, -0.22319235674608845, 0.7323566887422714, -0.4915101028743521, 9362.0, 30146.0, 35388.0, 9362.0, 8.370248794555664, 0.019910577684640884, -0.22026023268699646, -0.13173553347587585, 0.011992856860160828, -0.06030641868710518, 0.9991021752357483, -0.08483219891786575, -0.27255821228027344, 1.4736328125, 1.486083984375, 0.16845703125, 1.490478515625, 1.5, 10.0, 1.4040368795394897, 1.5, 1.4040368795394897
59691, 3.532257080078125, 2.413173198699951, -8.311563491821289, -0.0759454295039177, -0.08160853385925293, -25.98006248474121, -0.2780795693397522, -0.29981401562690735, -0.9089747071266174, -0.7943102121353149, -0.9602975249290466, 0.06323496997356415, -0.2205191764799785, 0.7310262086255932, -0.4765591735880599, 9362.0, 30146.0, 35388.0, 9362.0, 8.370248794555664, 0.019910577684640884, -0.22026023268699646, -0.13173553347587585, 0.011991696432232857, -0.06096378713846207, 0.998262345790863, -0.08483219891786575, -0.27255821228027344, 1.4736328125, 1.486083984375, 0.16845703125, 1.490478515625, 1.5, 10.0, 1.404321312904358, 1.5, 1.404321312904358
59751, 3.53421950340271, 2.4093947410583496, -8.313652038574219, -0.09977339208126068, -0.10731548815965652, -26.052900314331055, -0.31759363412857056, -0.3428407311439514, -0.9124205708503723, -0.7943083643913269, -0.9602894186973572, 0.06321099400520325, -0.21984440434879363, 0.7179908092054461, -0.5019428471431988, 9362.0, 30146.0, 35388.0, 9362.0, 8.370248794555664, -0.0845060721039772, 0.1356578767299652, 0.34506791830062866, 0.01166462991386652, -0.05967406928539276, 1.0001214742660522, -0.06919180601835251, -0.2098369598388672, 1.478759765625, 1.486083984375, 0.16845703125, 1.493408203125, 1.462646484375, 10.0, 1.4051669836044312, 1.5, 1.4051669836044312
59771, 3.5332560539245605, 2.408156633377075, -8.313161849975586, -0.102974072098732, -0.1107708290219307, -26.06202507019043, -0.322543203830719, -0.34822770953178406, -0.9127025008201599, -0.7943252921104431, -0.9603062868118286, 0.0631982833147049, -0.21217167802851708, 0.7304592200635796, -0.502395819333856, 9362.0, 30146.0, 35388.0, 9362.0, 8.370248794555664, -0.03296896442770958, 0.0069535779766738415, 0.1272500902414322, 0.008893636986613274, -0.06080307438969612, 0.9979324340820312, -0.06919180601835251, -0.2098369598388672, 1.478759765625, 1.486083984375, 0.16845703125, 1.490478515625, 1.2421875, 10.0, 1.4051669836044312, 1.5, 1.4051669836044312
59781, 3.5340185165405273, 2.408656597137451, -8.314383506774902, -0.102974072098732, -0.1107708290219307, -26.06202507019043, -0.322543203830719, -0.34822770953178406, -0.9127025008201599, -0.7943200469017029, -0.9603052139282227, 0.06320249289274216, -0.22138238283301204, 0.7305892340755804, -0.4989413850865633, 9362.0, 30146.0, 35388.0, 9362.0, 8.370248794555664, -0.03296896442770958, 0.0069535779766738415, 0.1272500902414322, 0.011114513501524925, -0.05850265547633171, 0.9986460208892822, -0.06919180601835251, -0.2098369598388672, 1.478759765625, 1.486083984375, 0.16845703125, 1.491943359375, 1.2421875, 10.0, 1.4051669836044312, 1.5, 1.4051669836044312
59791, 3.5351064205169678, 2.411381244659424, -8.316058158874512, -0.11287305504083633, -0.1214601993560791, -26.089418411254883, -0.3373781740665436, -0.3643859922885895, -0.9136239886283875, -0.7943148612976074, -0.9603144526481628, 0.06323366612195969, -0.21960260639527718, 0.734955533204328, -0.48945581055838483, 9362.0, 30146.0, 35388.0, 9362.0, 8.370248794555664, -0.03296896442770958, 0.0069535779766738415, 0.1272500902414322, 0.010976726189255714, -0.058348141610622406, 1.0002038478851318, -0.06919180601835251, -0.2098369598388672, 1.478759765625, 1.486083984375, 0.16845703125, 1.491943359375, 1.2421875, 10.0, 1.4079209566116333, 1.5, 1.4079209566116333
59801, 3.534348726272583, 2.4083828926086426, -8.31437873840332, -0.11287305504083633, -0.1214601993560791, -26.089418411254883, -0.3373781740665436, -0.3643859922885895, -0.9136239886283875, -0.7943145036697388, -0.9603055715560913, 0.06321671605110168, -0.21615188405156754, 0.7342799977702157, -0.49777437250296497, 9362.0, 30146.0, 35388.0, 9362.0, 8.370248794555664, -0.07126054912805557, 0.2172948122024536, 0.27432629466056824, 0.010617231018841267, -0.06089874356985092, 0.9979445338249207, -0.06919180601835251, -0.2098369598388672, 1.478759765625, 1.486083984375, 0.16845703125, 1.493408203125, 1.53076171875, 10.0, 1.4079209566116333, 1.5, 1.4079209566116333
59811, 3.5341625213623047, 2.406050443649292, -8.311857223510742, -0.11287305504083633, -0.1214601993560791, -26.089418411254883, -0.3373781740665436, -0.3643859922885895, -0.9136239886283875, -0.7943201661109924, -0.9603155851364136, 0.06321440637111664, -0.22340116478352573, 0.7299028034412629, -0.4910616370452535, 9362.0, 30146.0, 35388.0, 9362.0, 8.370248794555664, -0.07126054912805557, 0.2172948122024536, 0.27432629466056824, 0.010459637269377708, -0.05977075919508934, 0.9994321465492249, -0.06919180601835251, -0.2098369598388672, 1.478759765625, 1.486083984375, 0.16845703125, 1.493408203125, 1.53076171875, 10.0, 1.4071980714797974, 1.5, 1.4071980714797974
59821, 3.5346477031707764, 2.4057114124298096, -8.31174373626709, -0.11287305504083633, -0.1214601993560791, -26.089418411254883, -0.3373781740665436, -0.3643859922885895, -0.9136239886283875, -0.7943282723426819, -0.9603074789047241, 0.06322311609983444, -0.2192135166789843, 0.722266115996149, -0.4824839449001561, 9362.0, 30146.0, 35388.0, 9362.0, 8.370248794555664, -0.07126054912805557, 0.2172948122024536, 0.27432629466056824, 0.01047134306281805, -0.05923719331622124, 0.9975973963737488, -0.06919180601835251, -0.2098369598388672, 1.478759765625, 1.486083984375, 0.16845703125, 1.494140625, 1.2919921875, 10.0, 1.4071980714797974, 1.5, 1.4071980714797974
59841, 3.5350501537323, 2.40539813041687, -8.312206268310547, -0.11287305504083633, -0.1214601993560791, -26.089418411254883, -0.3373781740665436, -0.3643859922885895, -0.9136239886283875, -0.7943429350852966, -0.9603055119514465, 0.06322664767503738, -0.21928478259018985, 0.7360965811382414, -0.5029201936225447, 9362.0, 30146.0, 35388.0, 9362.0, 8.370248794555664, 0.1587020307779312, -0.07742198556661606, -0.19764743745326996, 0.009553366340696812, -0.059691399335861206, 0.9986852407455444, -0.07252901047468185, -0.09335899353027344, 1.48828125, 1.486083984375, 0.16845703125, 1.49267578125, 1.38720703125, 10.0, 1.4072024822235107, 1.5, 1.4072024822235107
59851, 3.5340285301208496, 2.4033117294311523, -8.310440063476562, -0.11287305504083633, -0.1214601993560791, -26.089418411254883, -0.3373781740665436, -0.3643859922885895, -0.9136239886283875, -0.7943283319473267, -0.9603179693222046, 0.06321359425783157, -0.2198628078503262, 0.7298689593059464, -0.5013295855166756, 9362.0, 30146.0, 35388.0, 9362.0, 8.370248794555664, 0.01910533756017685, 0.42285943031311035, 0.24687619507312775, 0.011493118479847908, -0.06024826690554619, 1.0005756616592407, -0.07252901047468185, -0.09335899353027344, 1.48828125, 1.486083984375, 0.16845703125, 1.49267578125, 1.46484375, 10.0, 1.4072024822235107, 1.5, 1.4072024822235107
59861, 3.5354607105255127, 2.4007394313812256, -8.309905052185059, -0.11287305504083633, -0.1214601993560791, -26.089418411254883, -0.3373781740665436, -0.3643859922885895, -0.9136239886283875, -0.7943220734596252, -0.9602996706962585, 0.06322503089904785, -0.21758799768997256, 0.7325198008209384, -0.4890915158409882, 9362.0, 30146.0, 35388.0, 9362.0, 8.370248794555664, 0.01910533756017685, 0.42285943031311035, 0.24687619507312775, 0.010281150229275227, -0.058863550424575806, 0.9980214238166809, -0.07252901047468185, -0.09335899353027344, 1.48828125, 1.486083984375, 0.16845703125, 1.493408203125, 1.46484375, 10.0, 1.4070945978164673, 1.5, 1.4070945978164673
59871, 3.5350959300994873, 2.4002296924591064, -8.310637474060059, -0.11287305504083633, -0.1214601993560791, -26.089418411254883, -0.3373781740665436, -0.3643859922885895, -0.9136239886283875, -0.7943321466445923, -0.9603100419044495, 0.06324334442615509, -0.2169676003092893, 0.723558574382622, -0.4972079919311482, 9362.0, 30146.0, 35388.0, 9362.0, 8.370248794555664, 0.09551601111888885, 0.2012472301721573, 0.1035807654261589, 0.009554369375109673, -0.06003692373633385, 0.9996282458305359, -0.07252901047468185, -0.09335899353027344, 1.48828125, 1.486083984375, 0.16845703125, 1.493408203125, 1.46484375, 10.0, 1.4070945978164673, 1.5, 1.4070945978164673
59891, 3.538896322250366, 2.3978464603424072, -8.309258460998535, -0.14907991886138916, -0.16059039533138275, -26.180978775024414, -0.3867339789867401, -0.41823169589042664, -0.9174380898475647, -0.7943322658538818, -0.9603227376937866, 0.06321114301681519, -0.2161055498512621, 0.7442863395327208, -0.4856723811875927, 9362.0, 30146.0, 35388.0, 9362.0, 8.370248794555664, 0.13723619282245636, 0.3206484913825989, 0.2692301571369171, 0.010733934119343758, -0.061738789081573486, 0.9987772703170776, -0.07252901047468185, -0.09335899353027344, 1.48828125, 1.486083984375, 0.16845703125, 1.489013671875, 1.538818359375, 10.0, 1.4073586463928223, 1.5, 1.4073586463928223
59901, 3.540208339691162, 2.397141695022583, -8.309209823608398, -0.14907991886138916, -0.16059039533138275, -26.180978775024414, -0.3867339789867401, -0.41823169589042664, -0.9174380898475647, -0.7943061590194702, -0.9603025913238525, 0.06322919577360153, -0.21858572239379978, 0.7261561384990216, -0.49191750582024885, 9362.0, 30146.0, 35388.0, 9362.0, 8.370248794555664, 0.1032717153429985, 0.2432917356491089, 0.0835300162434578, 0.011148477904498577, -0.0593467578291893, 0.998771607875824, -0.07252901047468185, -0.09335899353027344, 1.48828125, 1.486083984375, 0.16845703125, 1.489013671875, 1.4912109375, 10.0, 1.4073586463928223, 1.5, 1.4073586463928223
59941, 3.540890693664551, 2.3982858657836914, -8.309598922729492, -0.16903220117092133, -0.1821763813495636, -26.22689437866211, -0.4113524258136749, -0.4452105462551117, -0.9192357659339905, -0.7943154573440552, -0.960311770439148, 0.06323368847370148, -0.21665095598333914, 0.7299510281596611, -0.49172990475935197, 9362.0, 30146.0, 35388.0, 9362.0, 8.370248794555664, -0.14021843671798706, -0.2768206000328064, 0.052835483103990555, 0.009614466689527035, -0.05883433297276497, 0.997942328453064, -0.07252901047468185, -0.09335899353027344, 1.48828125, 1.486083984375, 0.16845703125, 1.489013671875, 1.515380859375, 10.0, 1.4073586463928223, 1.5, 1.4073586463928223
59961, 3.5422651767730713, 2.3949167728424072, -8.310973167419434, -0.17735770344734192, -0.19118854403495789, -26.24528694152832, -0.42119479179382324, -0.4559997022151947, -0.9200862646102905, -0.7943117618560791, -0.9603007435798645, 0.06324049830436707, -0.21876329685159368, 0.7202281688580001, -0.4880117185125527, 9362.0, 30146.0, 35388.0, 9362.0, 8.370248794555664, -0.14021843671798706, -0.2768206000328064, 0.052835483103990555, 0.01029243040829897, -0.060209665447473526, 0.997878909111023, -0.07252901047468185, -0.09335899353027344, 1.48828125, 1.486083984375, 0.16845703125, 1.489013671875, 1.515380859375, 10.0, 1.4019622802734375, 1.5, 1.4019622802734375
59971, 3.542833089828491, 2.394068717956543, -8.311185836791992, -0.17735770344734192, -0.19118854403495789, -26.24528694152832, -0.42119479179382324, -0.4559997022151947, -0.9200862646102905, -0.7943288087844849, -0.9603146314620972, 0.06320945173501968, -0.2196436078571856, 0.7418409059112321, -0.5038740027788876, 9362.0, 30146.0, 35388.0, 9362.0, 8.370248794555664, -0.14021843671798706, -0.2768206000328064, 0.052835483103990555, 0.011125588789582253, -0.05977126583456993, 0.9974406361579895, -0.07252901047468185, -0.09335899353027344, 1.48828125, 1.486083984375, 0.16845703125, 1.489013671875, 1.515380859375, 10.0, 1.4023550748825073, 1.5, 1.4023550748825073
59981, 3.5418145656585693, 2.393174171447754, -8.310321807861328, -0.17735770344734192, -0.19118854403495789, -26.24528694152832, -0.42119479179382324, -0.4559997022151947, -0.9200862646102905, -0.794312059879303, -0.960311233997345, 0.06322025507688522, -0.2243096829688484, 0.7340264118006985, -0.4827030918523576, 9362.0, 30146.0, 35388.0, 9362.0, 8.370248794555664, -0.14021843671798706, -0.2768206000328064, 0.052835483103990555, 0.010413062758743763, -0.05988563969731331, 0.9978387951850891, -0.07252901047468185, -0.09335899353027344, 1.48828125, 1.486083984375, 0.16845703125, 1.49853515625, 1.515380859375, 10.0, 1.40277898311615, 1.5, 1.40277898311615
59991, 3.5424587726593018, 2.39076566696167, -8.309419631958008, -0.17735770344734192, -0.19118854403495789, -26.24528694152832, -0.42119479179382324, -0.4559997022151947, -0.9200862646102905, -0.794319748878479, -0.9603176116943359, 0.06324133276939392, -0.22153951226853183, 0.7335391807707765, -0.4922702611364979, 9362.0, 30146.0, 35388.0, 9362.0, 8.370248794555664, -0.14021843671798706, -0.2768206000328064, 0.052835483103990555, 0.0071132006123661995, -0.059621069580316544, 0.9971652626991272, -0.07252901047468185, -0.09335899353027344, 1.48828125, 1.486083984375, 0.16845703125, 1.49853515625, 1.515380859375, 10.0, 1.4031368494033813, 1.5, 1.4031368494033813
60011, 3.544001579284668, 2.3899009227752686, -8.310799598693848, -0.19903157651424408, -0.21466268599033356, -26.291353225708008, -0.4457492232322693, -0.4829658567905426, -0.9226129651069641, -0.7943305969238281, -0.9603189826011658, 0.06321196258068085, -0.22963718102189665, 0.7323506760030227, -0.4867775017871214, 9362.0, 30146.0, 35388.0, 9362.0, 8.370248794555664, -0.0026484231930226088, 0.7381014823913574, 0.08887715637683868, 0.011757953092455864, -0.06049557775259018, 0.9979836940765381, -0.07252901047468185, -0.09335899353027344, 1.48828125, 1.486083984375, 0.16845703125, 1.49560546875, 1.515380859375, 10.0, 1.4031368494033813, 1.5, 1.4031368494033813
60061, 3.544654130935669, 2.384760618209839, -8.310681343078613, -0.21725422143936157, -0.2344132661819458, -26.328292846679688, -0.4653864800930023, -0.5045733451843262, -0.924277126789093, -0.7943352460861206, -0.9603068232536316, 0.06325718760490417, -0.21947572617924926, 0.7343155990254218, -0.4961752028599476, 9362.0, 30146.0, 35388.0, 9362.0, 8.370248794555664, 0.029147442430257797, 0.029763586819171906, 0.07785575836896896, 0.01062890887260437, -0.061324506998062134, 0.9979976415634155, -0.07252901047468185, -0.09335899353027344, 1.48828125, 1.486083984375, 0.16845703125, 1.494140625, 1.546875, 10.0, 1.4031368494033813, 1.5, 1.4031368494033813
60081, 3.5445854663848877, 2.383358955383301, -8.308159828186035, -0.21725422143936157, -0.2344132661819458, -26.328292846679688, -0.4653864800930023, -0.5045733451843262, -0.924277126789093, -0.794317364692688, -0.9603127241134644, 0.06326775252819061, -0.2265594877285746, 0.7249507389213932, -0.49419772237649906, 9362.0, 30146.0, 35388.0, 9362.0, 8.370248794555664, -0.0745474249124527, 0.1470649093389511, 0.07796352356672287, 0.011785213835537434, -0.060396235436201096, 0.9996110796928406, -0.07252901047468185, -0.09335899353027344, 1.48828125, 1.486083984375, 0.16845703125, 1.48681640625, 1.48681640625, 10.0, 1.4031368494033813, 1.5, 1.4031368494033813
60091, 3.5446815490722656, 2.3819854259490967, -8.30803394317627, -0.21725422143936157, -0.2344132661819458, -26.328292846679688, -0.4653864800930023, -0.5045733451843262, -0.924277126789093, -0.7943437099456787, -0.9603163003921509, 0.06323786824941635, -0.21388689891575188, 0.7302728357567219, -0.5010846937832646, 9362.0, 30146.0, 35388.0, 9362.0, 8.370248794555664, -0.0745474249124527, 0.1470649093389511, 0.07796352356672287, 0.009907764382660389, -0.06012296676635742, 0.9991340041160583, -0.07252901047468185, -0.09335899353027344, 1.48828125, 1.486083984375, 0.16845703125, 1.48681640625, 1.08984375, 10.0, 1.4031368494033813, 1.5, 1.4031368494033813
60101, 3.54520320892334, 2.3795876502990723, -8.30771541595459, -0.21725422143936157, -0.2344132661819458, -26.328292846679688, -0.4653864800930023, -0.5045733451843262, -0.924277126789093, -0.7943245768547058, -0.9603112936019897, 0.0632641538977623, -0.22103970018034302, 0.731394289726552, -0.4971135179326351, 9362.0, 30146.0, 35388.0, 9362.0, 8.370248794555664, -0.0745474249124527, 0.1470649093389511, 0.07796352356672287, 0.008666316978633404, -0.05990232154726982, 0.9991790652275085, -0.07252901047468185, -0.09335899353027344, 1.48828125, 1.486083984375, 0.16845703125, 1.496337890625, 1.307373046875, 10.0, 1.4031368494033813, 1.5, 1.4031368494033813
60111, 3.5451719760894775, 2.38226580619812, -8.307282447814941, -0.21725422143936157, -0.2344132661819458, -26.328292846679688, -0.4653864800930023, -0.5045733451843262, -0.924277126789093, -0.7943357229232788, -0.9603005051612854, 0.06325986981391907, -0.21111609107287618, 0.7322290896496497, -0.49685782427461245, 9362.0, 30146.0, 35388.0, 9362.0, 8.370248794555664, -0.0745474249124527, 0.1470649093389511, 0.07796352356672287, 0.009621121920645237, -0.058264896273612976, 0.9979699850082397, -0.07252901047468185, -0.09335899353027344, 1.48828125, 1.486083984375, 0.16845703125, 1.496337890625, 1.068603515625, 10.0, 1.4032059907913208, 1.5, 1.4032059907913208
60121, 3.5466420650482178, 2.3799283504486084, -8.308194160461426, -0.21725422143936157, -0.2344132661819458, -26.328292846679688, -0.4653864800930023, -0.5045733451843262, -0.924277126789093, -0.7943291068077087, -0.9602846503257751, 0.06322254240512848, -0.23929355146562897, 0.7335154268116355, -0.4977676152639034, 9362.0, 30146.0, 35388.0, 9362.0, 8.370248794555664, -0.0745474249124527, 0.1470649093389511, 0.07796352356672287, 0.01170798484236002, -0.05729980394244194, 0.9986599683761597, -0.07252901047468185, -0.09335899353027344, 1.48828125, 1.486083984375, 0.16845703125, 1.489013671875, 1.068603515625, 10.0, 1.4035232067108154, 1.5, 1.4035232067108154
60141, 3.5457749366760254, 2.3811750411987305, -8.31004810333252, -0.21725422143936157, -0.2344132661819458, -26.328292846679688, -0.4653864800930023, -0.5045733451843262, -0.924277126789093, -0.794326663017273, -0.9603012800216675, 0.06325216591358185, -0.22406451860732934, 0.7274550299696898, -0.5014906816242835, 9362.0, 30146.0, 35388.0, 9362.0, 8.370248794555664, -0.0745474249124527, 0.1470649093389511, 0.07796352356672287, 0.010783670470118523, -0.06130553409457207, 0.9997633695602417, -0.05429527163505554, -0.08439826965332031, 1.489013671875, 1.486083984375, 0.16845703125, 1.494873046875, 1.338134765625, 10.0, 1.4028053283691406, 1.5, 1.4028053283691406
60151, 3.5468485355377197, 2.3810818195343018, -8.30776309967041, -0.26624172925949097, -0.2875721752643585, -26.420944213867188, -0.5143604278564453, -0.5586290955543518, -0.928461492061615, -0.7943358421325684, -0.9603130221366882, 0.06321600079536438, -0.22360255359315456, 0.7332101792211745, -0.4953225182661616, 9362.0, 30146.0, 35388.0, 9362.0, 8.370248794555664, -0.0745474249124527, 0.1470649093389511, 0.07796352356672287, 0.012272815220057964, -0.061216678470373154, 0.998388946056366, -0.05429527163505554, -0.08439826965332031, 1.489013671875, 1.486083984375, 0.16845703125, 1.494873046875, 1.521240234375, 10.0, 1.4028053283691406, 1.5, 1.4028053283691406
60161, 3.5481128692626953, 2.379430055618286, -8.308626174926758, -0.26624172925949097, -0.2875721752643585, -26.420944213867188, -0.5143604278564453, -0.5586290955543518, -0.928461492061615, -0.79433274269104, -0.9603061079978943, 0.06324601918458939, -0.22076379312616115, 0.7206783841524782, -0.49142357532328745, 9362.0, 30146.0, 35388.0, 9362.0, 8.370248794555664, 0.13546618819236755, 0.2252899557352066, -0.09566610306501389, 0.009990958496928215, -0.06257405877113342, 0.9999112486839294, -0.05429527163505554, -0.08439826965332031, 1.489013671875, 1.486083984375, 0.16845703125, 1.49267578125, 1.25830078125, 10.0, 1.4028053283691406, 1.5, 1.4028053283691406
60171, 3.5476980209350586, 2.378929376602173, -8.308633804321289, -0.26624172925949097, -0.2875721752643585, -26.420944213867188, -0.5143604278564453, -0.5586290955543518, -0.928461492061615, -0.7943256497383118, -0.9603064656257629, 0.0632208064198494, -0.21588677002445236, 0.7219178896043559, -0.49431536940659737, 9362.0, 30146.0, 35388.0, 9362.0, 8.370248794555664, 0.13546618819236755, 0.2252899557352066, -0.09566610306501389, 0.010462976060807705, -0.06208546832203865, 0.9984045028686523, -0.05429527163505554, -0.08439826965332031, 1.489013671875, 1.486083984375, 0.16845703125, 1.49267578125, 1.25830078125, 10.0, 1.40166175365448, 1.5, 1.40166175365448
60181, 3.547534704208374, 2.3802127838134766, -8.307596206665039, -0.26624172925949097, -0.2875721752643585, -26.420944213867188, -0.5143604278564453, -0.5586290955543518, -0.928461492061615, -0.794319212436676, -0.9603220820426941, 0.06326451152563095, -0.2136257761837995, 0.728234587043886, -0.48946157276484786, 9362.0, 30146.0, 35388.0, 9362.0, 8.370248794555664, -0.030691104009747505, 0.05956234410405159, 0.04879692569375038, 0.010593671351671219, -0.06120651587843895, 0.999290406703949, -0.05429527163505554, -0.08439826965332031, 1.489013671875, 1.486083984375, 0.16845703125, 1.4912109375, 1.333740234375, 10.0, 1.40166175365448, 1.5, 1.40166175365448
60191, 3.547874689102173, 2.3802223205566406, -8.308492660522461, -0.26624172925949097, -0.2875721752643585, -26.420944213867188, -0.5143604278564453, -0.5586290955543518, -0.928461492061615, -0.7943206429481506, -0.9603015780448914, 0.06324528902769089, -0.21756539957458748, 0.731993077324347, -0.4934174885128033, 9362.0, 30146.0, 35388.0, 9362.0, 8.370248794555664, -0.030691104009747505, 0.05956234410405159, 0.04879692569375038, 0.010327506810426712, -0.06152711436152458, 1.0006800889968872, -0.05429527163505554, -0.08439826965332031, 1.489013671875, 1.486083984375, 0.16845703125, 1.4912109375, 1.333740234375, 10.0, 1.4019418954849243, 1.5, 1.4019418954849243
60201, 3.548581123352051, 2.3792855739593506, -8.309289932250977, -0.26624172925949097, -0.2875721752643585, -26.420944213867188, -0.5143604278564453, -0.5586290955543518, -0.928461492061615, -0.7943194508552551, -0.9603080153465271, 0.0632374957203865, -0.21670103312194786, 0.7338961559658799, -0.49434219454283207, 9362.0, 30146.0, 35388.0, 9362.0, 8.370248794555664, -0.030691104009747505, 0.05956234410405159, 0.04879692569375038, 0.011005894280970097, -0.06033427268266678, 0.9998289942741394, -0.05429527163505554, -0.08439826965332031, 1.489013671875, 1.486083984375, 0.16845703125, 1.4970703125, 1.333740234375, 10.0, 1.4021774530410767, 1.5, 1.4021774530410767
60231, 3.5504720211029053, 2.3777053356170654, -8.30963134765625, -0.3089578151702881, -0.3339952528476715, -26.495325088500977, -0.5535464882850647, -0.6019622683525085, -0.9309942126274109, -0.7943407893180847, -0.9603073596954346, 0.06323646008968353, -0.22125640033661495, 0.7370051964038851, -0.49116618654581395, 9362.0, 30146.0, 35388.0, 9362.0, 8.370248794555664, 0.23921720683574677, 0.2507670819759369, -0.11933459341526031, 0.009671719744801521, -0.06083473190665245, 0.998784601688385, -0.05429527163505554, -0.08439826965332031, 1.489013671875, 1.486083984375, 0.16845703125, 1.4970703125, 1.519775390625, 10.0, 1.4021774530410767, 1.5, 1.4021774530410767
60241, 3.551860809326172, 2.3773043155670166, -8.309491157531738, -0.3089578151702881, -0.3339952528476715, -26.495325088500977, -0.5535464882850647, -0.6019622683525085, -0.9309942126274109, -0.7943224906921387, -0.9602903127670288, 0.06322266906499863, -0.23236944593137585, 0.7463314961049434, -0.502144817616094, 9362.0, 30146.0, 35388.0, 9362.0, 8.370248794555664, -0.09925539791584015, -0.005953761283308268, 0.1654720902442932, 0.01046235766261816, -0.05971001088619232, 0.9989140033721924, -0.05429527163505554, -0.08439826965332031, 1.489013671875, 1.486083984375, 0.16845703125, 1.493408203125, 1.535888671875, 10.0, 1.4021774530410767, 1.5, 1.4021774530410767
60251, 3.550229072570801, 2.3787455558776855, -8.30898666381836, -0.3089578151702881, -0.3339952528476715, -26.495325088500977, -0.5535464882850647, -0.6019622683525085, -0.9309942126274109, -0.7943293452262878, -0.9603105187416077, 0.06324297934770584, -0.2227935702796396, 0.7194028976865354, -0.4865284580245169, 9362.0, 30146.0, 35388.0, 9362.0, 8.370248794555664, -0.09925539791584015, -0.005953761283308268, 0.1654720902442932, 0.009540343657135963, -0.059233613312244415, 0.9987133741378784, -0.05429527163505554, -0.08439826965332031, 1.489013671875, 1.486083984375, 0.16845703125, 1.493408203125, 1.535888671875, 10.0, 1.399612545967102, 1.5, 1.399612545967102
60261, 3.5506393909454346, 2.37918758392334, -8.311079978942871, -0.3089578151702881, -0.3339952528476715, -26.495325088500977, -0.5535464882850647, -0.6019622683525085, -0.9309942126274109, -0.7943367958068848, -0.9603159427642822, 0.06322729587554932, -0.22235661552847943, 0.7371177867396739, -0.4988572952787114, 9362.0, 30146.0, 35388.0, 9362.0, 8.370248794555664, 0.249967560172081, 0.1968453824520111, -0.2458638846874237, 0.008749010041356087, -0.05999018996953964, 0.9980285167694092, -0.05429527163505554, -0.08439826965332031, 1.489013671875, 1.524169921875, 0.2455596923828125, 1.49267578125, 1.535888671875, 10.0, 1.399612545967102, 1.5, 1.399612545967102
