timeTick, roll, pitch, yaw, stateX, stateY, stateZ, stateVX, stateVY, stateVZ, otX0, otY0, otZ0, otRoll0, otPitch0, otYaw0, left wing, pitch motor, yaw motor, right wing, voltage, roll rate, pitch rate, yaw rate, A_x, A_y, A_z, current, i_raw, v_raw, airflow_voltage, airflow_speed, pot_Pitch, voltage_nKF, kFFx, volt_KF_vel, kP, volt_KF_pos
15458, -1.734124779701233, -1.5377522706985474, 2.2021872997283936, 0, 0, 0, 0, 0, 0, 0, 0, 0, 0, 0, 0, 0, 0, 0, 0, 0, 0, 0, 0, 0, 0, 0, 0, 0, 0, 0, 0, 0, 0, 0, 0, 0, 0
15468, -1.7355223894119263, -1.5404846668243408, 2.205397844314575, -9.222580411005765e-05, -0.00011267047375440598, -2.8309950828552246, -0.007969396188855171, -0.009736098349094391, -0.4092027544975281, 0, 0, 0, 0, 0, 0, 9362.0, 30146.0, 35388.0, 9362.0, 0, 0.010038367472589016, 0.061869848519563675, 0.1300984025001526, 0.002717436058446765, -0.06258542090654373, 1.0004876852035522, 0, 0, 0, 0, 0, 0, 0, 0, 0, 0, 0
15478, -1.736146330833435, -1.5406787395477295, 2.206660270690918, -0.00015933567192405462, -0.0001946846314240247, -2.835087299346924, -0.005452750250697136, -0.006666591390967369, -0.40922579169273376, 0, 0, 0, 0, 0, 0, 9362.0, 30146.0, 35388.0, 9362.0, 0, 0.14696621894836426, 0.018978599458932877, 0.1313900500535965, 0.004632249474525452, -0.061106178909540176, 0.9978054761886597, 0, 0, 0, 1.36962890625, 0.01910400390625, 0, 1.70068359375, 10.0, 1.468149185180664, 1.5, 1.468149185180664
15488, -1.7351326942443848, -1.5424302816390991, 2.2070631980895996, -0.00020126458548475057, -0.00024599937023594975, -2.8391799926757812, -0.0029331003315746784, -0.0035962953697890043, -0.4093075692653656, 0, 0, 0, 0, 0, 0, 9362.0, 30146.0, 35388.0, 9362.0, 0, 0.07672194391489029, -0.10884517431259155, -0.2771585285663605, 0.003947848919779062, -0.05769451707601547, 0.9968793392181396, 0, 0, 0, 1.048095703125, 2.033538818359375, 1.48681640625, 1.46044921875, 10.0, 1.4681247472763062, 1.5, 1.4681247472763062
15498, -1.7345606088638306, -1.5413998365402222, 2.2044055461883545, -0.0002180294832214713, -0.000266646413365379, -2.8432748317718506, -0.00041991029866039753, -0.0005330927670001984, -0.4096508026123047, 0, 0, 0, 0, 0, 0, 9362.0, 30146.0, 35388.0, 9362.0, 0, -0.04427150636911392, 0.028162382543087006, 0.28129875659942627, 0.0040972246788442135, -0.06172915920615196, 1.0003706216812134, 0, 0, 0, 1.5498046875, 0.3014678955078125, 1.48681640625, 1.46484375, 10.0, 1.4681143760681152, 1.5, 1.4681143760681152
15508, -1.7348291873931885, -1.5427414178848267, 2.2071826457977295, -0.00020964373834431171, -0.0002566650218795985, -2.8473730087280273, 0.0020972085185348988, 0.0025292534846812487, -0.40996599197387695, 0, 0, 0, 0, 0, 0, 9362.0, 30146.0, 35388.0, 9362.0, 0, -0.1982233077287674, -0.24592088162899017, -0.1310059279203415, 0.001609983155503869, -0.06272125244140625, 0.9989944696426392, 0, 0, 0, 1.585693359375, 0.383544921875, 1.491943359375, 1.6552734375, 10.0, 1.4687080383300781, 1.5, 1.4687080383300781
15518, -1.7363557815551758, -1.5425490140914917, 2.208252191543579, -0.0001760590821504593, -0.00021602264314424247, -2.851472854614258, 0.004619574639946222, 0.005599343217909336, -0.41000446677207947, 0, 0, 0, 0, 0, 0, 9362.0, 30146.0, 35388.0, 9362.0, 0, -0.07649187743663788, -0.0545889288187027, -0.005300623364746571, 0.0028309880290180445, -0.061559174209833145, 0.9987455606460571, 0, 0, 0, 1.752685546875, 0.817962646484375, 1.491943359375, 0.87744140625, 10.0, 1.4668327569961548, 1.5, 1.4668327569961548
15528, -1.7366565465927124, -1.5428422689437866, 2.211719512939453, -0.000117262257845141, -0.00014470296446233988, -2.855573892593384, 0.007139725610613823, 0.008664632216095924, -0.4102151691913605, 0, 0, 0, 0, 0, 0, 9362.0, 30146.0, 35388.0, 9362.0, 0, -0.16932567954063416, -0.19765783846378326, 0.041047170758247375, 0.0019379500299692154, -0.06212339550256729, 0.9989432692527771, 0, 0, 0, 1.122802734375, 1.00347900390625, 1.490478515625, 1.24951171875, 10.0, 1.4661434888839722, 1.5, 1.4661434888839722
15538, -1.738149642944336, -1.542155146598816, 2.214031219482422, -3.326579462736845e-05, -4.271651414455846e-05, -2.8596770763397217, 0.009659378789365292, 0.011732814833521843, -0.41042134165763855, 0, 0, 0, 0, 0, 0, 9362.0, 30146.0, 35388.0, 9362.0, 0, 0.12275800853967667, -0.031819578260183334, 0.19244453310966492, 0.003911877050995827, -0.06368894129991531, 0.9988512396812439, 0, 0, 0, 1.710205078125, 0.6956787109375, 1.490478515625, 1.19970703125, 10.0, 1.4652985334396362, 1.5, 1.4652985334396362
15548, -1.7370713949203491, -1.5434174537658691, 2.215472936630249, 7.593363261548802e-05, 8.996124233817682e-05, -2.8637821674346924, 0.012180380523204803, 0.014802833087742329, -0.4105890393257141, 0, 0, 0, 0, 0, 0, 9362.0, 30146.0, 35388.0, 9362.0, 0, 0.01635415479540825, -0.16275708377361298, 0.10959699749946594, 0.0038500225637108088, -0.06367512792348862, 0.9983406662940979, 0, 0, 0, 1.0224609375, 2.5086517333984375, 1.48974609375, 1.59228515625, 10.0, 1.4657012224197388, 1.5, 1.4657012224197388
15558, -1.737015724182129, -1.5434606075286865, 2.2156693935394287, 0.00021033271332271397, 0.00025334811653010547, -2.867888927459717, 0.014699354767799377, 0.01787460781633854, -0.41078290343284607, 0, 0, 0, 0, 0, 0, 9362.0, 30146.0, 35388.0, 9362.0, 8.370248794555664, -0.04739416390657425, -0.08817294985055923, -0.08162777125835419, 0.003140578977763653, -0.062157392501831055, 0.9991018176078796, -0.06013483181595802, -0.08439826965332031, 1.489013671875, 1.69775390625, 0.6619415283203125, 1.48974609375, 1.283203125, 10.0, 1.4651224613189697, 1.5, 1.4651224613189697
15568, -1.7369786500930786, -1.5408591032028198, 2.215975522994995, 0.0003699292428791523, 0.0004474405141081661, -2.871997833251953, 0.01721993461251259, 0.020943887531757355, -0.4110006093978882, 0, 0, 0, 0, 0, 0, 9362.0, 30146.0, 35388.0, 9362.0, 8.370248794555664, 0.01321337278932333, 0.03978794440627098, 0.156946063041687, 0.002050702925771475, -0.05972113460302353, 0.9998693466186523, -0.06013483181595802, -0.08439826965332031, 1.489013671875, 1.32275390625, 0.0251312255859375, 1.48974609375, 1.5791015625, 10.0, 1.4654839038848877, 1.5, 1.4654839038848877
15578, -1.7369612455368042, -1.540859341621399, 2.216524124145508, 0.0005547358305193484, 0.0006722300895489752, -2.8761088848114014, 0.019741373136639595, 0.024014048278331757, -0.4111875295639038, 0, 0, 0, 0, 0, 0, 9362.0, 30146.0, 35388.0, 9362.0, 8.370248794555664, 0.033278971910476685, -0.06545568257570267, 0.08334256708621979, 0.003911010455340147, -0.05979813635349274, 1.0002081394195557, -0.06013483181595802, -0.08439826965332031, 1.489013671875, 1.69482421875, 0.6540374755859375, 1.48974609375, 1.093505859375, 10.0, 1.4643043279647827, 1.5, 1.4643043279647827
15588, -1.7368830442428589, -1.5394961833953857, 2.216916799545288, 0.0007647472666576505, 0.0009277357021346688, -2.880221128463745, 0.022260883823037148, 0.027087101712822914, -0.41127529740333557, 0, 0, 0, 0, 0, 0, 9362.0, 30146.0, 35388.0, 9362.0, 8.370248794555664, 0.11889374256134033, 0.0811159610748291, 0.04978832229971886, 0.003891522763296962, -0.0640297681093216, 0.9983477592468262, -0.06013483181595802, -0.08439826965332031, 1.489013671875, 1.47802734375, 0.1532745361328125, 1.489013671875, 1.670654296875, 10.0, 1.464958667755127, 1.5, 1.464958667755127
15598, -1.7355321645736694, -1.5417282581329346, 2.218367338180542, 0.000999952550046146, 0.0012139705941081047, -2.8843343257904053, 0.024780165404081345, 0.030159881338477135, -0.4113713204860687, 0, 0, 0, 0, 0, 0, 9362.0, 30146.0, 35388.0, 9362.0, 8.370248794555664, 0.1677374541759491, -0.09278301894664764, -0.07772230356931686, 0.005073109641671181, -0.062349919229745865, 0.9997183084487915, -0.06013483181595802, -0.08439826965332031, 1.489013671875, 1.147705078125, 0.7606201171875, 1.489013671875, 1.46923828125, 10.0, 1.4649722576141357, 1.5, 1.4649722576141357
15608, -1.735754132270813, -1.5426299571990967, 2.21842622756958, 0.0012603220529854298, 0.0015309115406125784, -2.888449192047119, 0.027293650433421135, 0.03322837874293327, -0.4115992486476898, 0, 0, 0, 0, 0, 0, 9362.0, 30146.0, 35388.0, 9362.0, 8.370248794555664, -0.12290976196527481, -0.0011089984327554703, -0.07135948538780212, 0.003728513140231371, -0.06293083727359772, 0.9989013075828552, -0.06013483181595802, -0.08439826965332031, 1.489013671875, 1.60400390625, 0.4266204833984375, 1.490478515625, 1.204833984375, 10.0, 1.4641473293304443, 1.5, 1.4641473293304443
15618, -1.7355929613113403, -1.542061448097229, 2.2176764011383057, 0.0015458601992577314, 0.0018785449210554361, -2.8925657272338867, 0.029813986271619797, 0.03629830852150917, -0.4117124676704407, 0, 0, 0, 0, 0, 0, 9362.0, 30146.0, 35388.0, 9362.0, 8.370248794555664, 0.04108274355530739, 0.06443656235933304, 0.06240169703960419, 0.0029869636055082083, -0.06310077756643295, 0.9980686902999878, -0.06013483181595802, -0.08439826965332031, 1.489013671875, 1.587158203125, 0.3869171142578125, 1.490478515625, 1.50439453125, 10.0, 1.4642750024795532, 1.5, 1.4642750024795532
15628, -1.7358958721160889, -1.5438216924667358, 2.2186686992645264, 0.0018565997015684843, 0.002256867941468954, -2.896683692932129, 0.03233395516872406, 0.03936627879738808, -0.4119010865688324, 0, 0, 0, 0, 0, 0, 9362.0, 30146.0, 35388.0, 9362.0, 8.370248794555664, 0.10842495411634445, 0.005001298151910305, 0.029244789853692055, 0.00353224016726017, -0.0631699338555336, 0.996159017086029, -0.06013483181595802, -0.08439826965332031, 1.489013671875, 1.626708984375, 0.4812774658203125, 1.4912109375, 1.6171875, 10.0, 1.4647598266601562, 1.5, 1.4647598266601562
15638, -1.7352992296218872, -1.5418094396591187, 2.21826434135437, 0.0021925217006355524, 0.0026658535934984684, -2.900804042816162, 0.03485037386417389, 0.04243091121315956, -0.4121876657009125, 0, 0, 0, 0, 0, 0, 9362.0, 30146.0, 35388.0, 9362.0, 8.370248794555664, 0.09363865852355957, -0.2729714810848236, 0.33007654547691345, 0.004044973757117987, -0.06474458426237106, 0.9983445405960083, -0.06013483181595802, -0.08439826965332031, 1.489013671875, 1.5087890625, 0.21337890625, 1.4912109375, 1.55859375, 10.0, 1.465057373046875, 1.5, 1.465057373046875
15648, -1.735194444656372, -1.5404669046401978, 2.2211222648620605, 0.0025536022149026394, 0.003105464391410351, -2.904928207397461, 0.03736576810479164, 0.04549122229218483, -0.41263166069984436, 0, 0, 0, 0, 0, 0, 9362.0, 30146.0, 35388.0, 9362.0, 8.370248794555664, -0.21117079257965088, 0.5107185244560242, 0.05423138290643692, 0.004543130751699209, -0.0613539032638073, 0.9993606805801392, -0.06013483181595802, -0.08439826965332031, 1.489013671875, 1.63623046875, 0.504730224609375, 1.493408203125, 1.631103515625, 10.0, 1.4655838012695312, 1.5, 1.4655838012695312
15658, -1.7379794120788574, -1.544527292251587, 2.2218496799468994, 0.0029398512560874224, 0.0035757108125835657, -2.909055471420288, 0.039883896708488464, 0.04855816811323166, -0.41283130645751953, 0, 0, 0, 0, 0, 0, 9362.0, 30146.0, 35388.0, 9362.0, 8.370248794555664, 0.0672110840678215, 0.24228817224502563, 0.21678036451339722, 0.004927154164761305, -0.06168374419212341, 1.0003145933151245, -0.08847811818122864, -0.01271820068359375, 1.494873046875, 1.483154296875, 0.162841796875, 1.493408203125, 1.751953125, 10.0, 1.46649169921875, 1.5, 1.46649169921875
15668, -1.7372653484344482, -1.544326663017273, 2.2200396060943604, 0.0033512774389237165, 0.004076635465025902, -2.913184404373169, 0.04240129142999649, 0.05162683129310608, -0.4129684865474701, 0, 0, 0, 0, 0, 0, 9362.0, 30146.0, 35388.0, 9362.0, 8.370248794555664, -0.04915572330355644, -0.3144848048686981, -0.19314657151699066, 0.003637935034930706, -0.06184200197458267, 0.9992271661758423, -0.08847811818122864, -0.01271820068359375, 1.494873046875, 1.10302734375, 1.229583740234375, 1.491943359375, 1.241455078125, 10.0, 1.4657782316207886, 1.5, 1.4657782316207886
15678, -1.7372750043869019, -1.5420588254928589, 2.219393491744995, 0.003787918481975794, 0.004608280956745148, -2.9173145294189453, 0.04492700845003128, 0.05470222607254982, -0.41304925084114075, 0, 0, 0, 0, 0, 0, 9362.0, 30146.0, 35388.0, 9362.0, 8.370248794555664, -0.19898930191993713, 0.009941648691892624, -0.21951551735401154, 0.0022606896236538887, -0.060204971581697464, 0.9998793601989746, -0.08847811818122864, -0.01271820068359375, 1.494873046875, 1.43994140625, 0.089324951171875, 1.491943359375, 1.5380859375, 10.0, 1.4660074710845947, 1.5, 1.4660074710845947
15688, -1.7379616498947144, -1.540041208267212, 2.217139482498169, 0.0042498051188886166, 0.005170661024749279, -2.921445846557617, 0.04745035991072655, 0.05777379497885704, -0.4132115840911865, 0, 0, 0, 0, 0, 0, 9362.0, 30146.0, 35388.0, 9362.0, 8.370248794555664, 0.04094082862138748, -0.18487238883972168, 0.048208411782979965, 0.003034919034689665, -0.06247524172067642, 0.9989769458770752, -0.08847811818122864, -0.01271820068359375, 1.494873046875, 1.30810546875, 0.0388031005859375, 1.4912109375, 1.37109375, 10.0, 1.4657065868377686, 1.5, 1.4657065868377686
15698, -1.7377368211746216, -1.538643717765808, 2.218095541000366, 0.004736917559057474, 0.005763770081102848, -2.9255783557891846, 0.049972228705883026, 0.060847897082567215, -0.41328537464141846, 0, 0, 0, 0, 0, 0, 9362.0, 30146.0, 35388.0, 9362.0, 8.370248794555664, -0.18132621049880981, 0.1419535130262375, -0.00910462811589241, 0.0037898728623986244, -0.06164608523249626, 0.9974192976951599, -0.08847811818122864, -0.01271820068359375, 1.494873046875, 1.695556640625, 0.656097412109375, 1.4912109375, 1.680908203125, 10.0, 1.4663888216018677, 1.5, 1.4663888216018677
15708, -1.7377108335494995, -1.5392307043075562, 2.217564344406128, 0.00524921715259552, 0.006387606728821993, -2.9297120571136475, 0.05248761177062988, 0.06391949206590652, -0.4134734570980072, 0, 0, 0, 0, 0, 0, 9362.0, 30146.0, 35388.0, 9362.0, 8.370248794555664, 0.088133804500103, -0.2673030495643616, -0.3026469349861145, 0.0024290739092975855, -0.061004888266325, 0.9995410442352295, -0.08847811818122864, -0.01271820068359375, 1.494873046875, 1.6962890625, 0.657958984375, 1.490478515625, 1.556396484375, 10.0, 1.4666742086410522, 1.5, 1.4666742086410522
15718, -1.7364345788955688, -1.5379186868667603, 2.2164223194122314, 0.0057866452261805534, 0.007042141165584326, -2.9338481426239014, 0.054998017847537994, 0.06698738038539886, -0.41376417875289917, 0, 0, 0, 0, 0, 0, 9362.0, 30146.0, 35388.0, 9362.0, 8.370248794555664, -0.02967042289674282, -0.25856342911720276, 0.006995514500886202, 0.0042579276487231255, -0.061509110033512115, 1.00020432472229, -0.08847811818122864, -0.01271820068359375, 1.494873046875, 1.70654296875, 0.68560791015625, 1.490478515625, 1.095703125, 10.0, 1.4654982089996338, 1.5, 1.4654982089996338
15728, -1.7377736568450928, -1.5363733768463135, 2.215665102005005, 0.00634920597076416, 0.007727382704615593, -2.937986373901367, 0.05751417949795723, 0.07006093859672546, -0.41387251019477844, 0, 0, 0, 0, 0, 0, 9362.0, 30146.0, 35388.0, 9362.0, 8.370248794555664, -0.06857666373252869, 0.17865905165672302, 0.35475534200668335, 0.0038135508075356483, -0.06214528530836105, 0.998073160648346, -0.08847811818122864, -0.01271820068359375, 1.494873046875, 1.5615234375, 0.3278350830078125, 1.490478515625, 1.50146484375, 10.0, 1.4656121730804443, 1.5, 1.4656121730804443
15738, -1.7383668422698975, -1.5364837646484375, 2.2168996334075928, 0.006936922203749418, 0.008443353697657585, -2.9421255588531494, 0.06002908572554588, 0.07313323765993118, -0.4139469861984253, 0, 0, 0, 0, 0, 0, 9362.0, 30146.0, 35388.0, 9362.0, 8.370248794555664, -0.11559741199016571, -0.12212179601192474, 0.007709463592618704, 0.003426080336794257, -0.0618242472410202, 0.9967299103736877, -0.08847811818122864, -0.01271820068359375, 1.494873046875, 1.569580078125, 0.3462371826171875, 1.490478515625, 1.543212890625, 10.0, 1.4658581018447876, 1.5, 1.4658581018447876
15748, -1.7381112575531006, -1.5359776020050049, 2.2176382541656494, 0.007549740839749575, 0.00919001828879118, -2.9462666511535645, 0.06253452599048615, 0.07619965076446533, -0.4142807126045227, 0, 0, 0, 0, 0, 0, 9362.0, 30146.0, 35388.0, 9362.0, 8.370248794555664, -0.008210703730583191, -0.19712580740451813, -0.01657162606716156, 0.003553247544914484, -0.0625060424208641, 0.9975672960281372, -0.08847811818122864, -0.01271820068359375, 1.494873046875, 1.54541015625, 0.291656494140625, 1.48828125, 1.47509765625, 10.0, 1.465887427330017, 1.5, 1.465887427330017
15758, -1.7378411293029785, -1.5342421531677246, 2.21636700630188, 0.008187608793377876, 0.00996734481304884, -2.950411319732666, 0.06503894180059433, 0.07926569879055023, -0.4146595895290375, 0, 0, 0, 0, 0, 0, 9362.0, 30146.0, 35388.0, 9362.0, 8.370248794555664, -0.00658328365534544, 0.10456567257642746, -0.22887927293777466, 0.003908067941665649, -0.06572823971509933, 0.9989341497421265, -0.049581319093704224, -0.06647872924804688, 1.490478515625, 1.40185546875, 0.0417938232421875, 1.48828125, 1.524169921875, 10.0, 1.4660722017288208, 1.5, 1.4660722017288208
15768, -1.7380050420761108, -1.53483247756958, 2.2143139839172363, 0.008850524201989174, 0.010775339789688587, -2.954559564590454, 0.06754423677921295, 0.08233325183391571, -0.4149741530418396, 0, 0, 0, 0, 0, 0, 9362.0, 30146.0, 35388.0, 9362.0, 8.370248794555664, -0.0015667076222598553, -0.2782451808452606, -0.20201997458934784, 0.004329727962613106, -0.06475967168807983, 1.0001132488250732, -0.049581319093704224, -0.06647872924804688, 1.490478515625, 1.6201171875, 0.4653778076171875, 1.491943359375, 1.666259765625, 10.0, 1.4667067527770996, 1.5, 1.4667067527770996
15778, -1.7383551597595215, -1.5362714529037476, 2.2131385803222656, 0.009538493119180202, 0.011614025570452213, -2.958710193634033, 0.07004966586828232, 0.08540378510951996, -0.4151718318462372, 0, 0, 0, 0, 0, 0, 9362.0, 30146.0, 35388.0, 9362.0, 8.370248794555664, -0.006214537192136049, -0.16366134583950043, -0.1021672934293747, 0.003584700869396329, -0.06115216016769409, 1.0008715391159058, -0.049581319093704224, -0.06647872924804688, 1.490478515625, 1.638427734375, 0.510040283203125, 1.491943359375, 1.657470703125, 10.0, 1.4673113822937012, 1.5, 1.4673113822937012
15788, -1.7383383512496948, -1.5360853672027588, 2.2117714881896973, 0.010251541621983051, 0.012483441270887852, -2.962862253189087, 0.07256006449460983, 0.08847936987876892, -0.41521748900413513, 0, 0, 0, 0, 0, 0, 9362.0, 30146.0, 35388.0, 9362.0, 8.370248794555664, 0.16621221601963043, 0.1620190292596817, 0.12507030367851257, 0.00263100303709507, -0.06252831965684891, 0.9997310042381287, -0.049581319093704224, -0.06647872924804688, 1.490478515625, 1.7109375, 0.6976776123046875, 1.49560546875, 1.679443359375, 10.0, 1.4679837226867676, 1.5, 1.4679837226867676
15798, -1.7386705875396729, -1.5365281105041504, 2.2115654945373535, 0.010989711619913578, 0.013383622281253338, -2.9670145511627197, 0.07507398724555969, 0.09155682474374771, -0.4152235984802246, 0, 0, 0, 0, 0, 0, 9362.0, 30146.0, 35388.0, 9362.0, 8.370248794555664, 0.057253919541835785, 0.24797062575817108, -0.11716265231370926, 0.0017777413595467806, -0.06374730169773102, 0.9983182549476624, -0.049581319093704224, -0.06647872924804688, 1.490478515625, 1.724853515625, 0.736419677734375, 1.49560546875, 1.65087890625, 10.0, 1.468563437461853, 1.5, 1.468563437461853
15808, -1.7388056516647339, -1.537753939628601, 2.2110633850097656, 0.011752999387681484, 0.014314552769064903, -2.97116756439209, 0.07758356630802155, 0.09462928771972656, -0.4153875410556793, 0, 0, 0, 0, 0, 0, 9362.0, 30146.0, 35388.0, 9362.0, 8.370248794555664, 0.0897403433918953, -0.3038315773010254, 0.058312103152275085, 0.0030306153930723667, -0.06514663249254227, 0.9970353245735168, -0.049581319093704224, -0.06647872924804688, 1.490478515625, 1.35791015625, 0.015869140625, 1.493408203125, 1.6904296875, 10.0, 1.4692665338516235, 1.5, 1.4692665338516235
15818, -1.7391027212142944, -1.5356065034866333, 2.211883068084717, 0.012541369535028934, 0.015276189893484116, -2.975322961807251, 0.08009050041437149, 0.09769817441701889, -0.4156835675239563, 0, 0, 0, 0, 0, 0, 9362.0, 30146.0, 35388.0, 9362.0, 8.370248794555664, 0.029132137075066566, -0.21982388198375702, -0.054231949150562286, 0.002014926401898265, -0.06265810132026672, 0.9979655742645264, -0.049581319093704224, -0.06647872924804688, 1.490478515625, 1.730712890625, 0.7531585693359375, 1.493408203125, 1.17041015625, 10.0, 1.4683194160461426, 1.5, 1.4683194160461426
15828, -1.7397912740707397, -1.5351574420928955, 2.212571144104004, 0.013354811817407608, 0.01626850850880146, -2.9794816970825195, 0.08259791135787964, 0.10076546669006348, -0.4160410463809967, 0, 0, 0, 0, 0, 0, 9362.0, 30146.0, 35388.0, 9362.0, 8.370248794555664, 0.0915728509426117, -0.09658194333314896, 0.15175603330135345, 0.001939852605573833, -0.06101656332612038, 0.9972162246704102, -0.049581319093704224, -0.06647872924804688, 1.490478515625, 1.452392578125, 0.10870361328125, 1.490478515625, 1.472900390625, 10.0, 1.4683339595794678, 1.5, 1.4683339595794678
15838, -1.739839792251587, -1.5339077711105347, 2.2148590087890625, 0.013354811817407608, 0.01626850850880146, -2.9794816970825195, 0.08259791135787964, 0.10076546669006348, -0.4160410463809967, 0, 0, 0, 0, 0, 0, 9362.0, 30146.0, 35388.0, 9362.0, 8.370248794555664, 0.0966576412320137, 0.25335344672203064, -0.10723517090082169, 0.001939852605573833, -0.06101656332612038, 0.9972162246704102, -0.049581319093704224, -0.06647872924804688, 1.490478515625, 1.138916015625, 0.84124755859375, 1.490478515625, 1.165283203125, 10.0, 1.4683339595794678, 1.5, 1.4683339595794678
15848, -1.738621473312378, -1.53495192527771, 2.2124133110046387, 0.013354811817407608, 0.01626850850880146, -2.9794816970825195, 0.08259791135787964, 0.10076546669006348, -0.4160410463809967, 0, 0, 0, 0, 0, 0, 9362.0, 30146.0, 35388.0, 9362.0, 8.370248794555664, -0.09619392454624176, 0.21051262319087982, -0.03486208990216255, 0.001939852605573833, -0.06101656332612038, 0.9972162246704102, -0.049581319093704224, -0.06647872924804688, 1.490478515625, 1.2158203125, 0.300750732421875, 1.490478515625, 1.330078125, 10.0, 1.4683339595794678, 1.5, 1.4683339595794678
15858, -1.7385135889053345, -1.5366201400756836, 2.2117018699645996, 0.013354811817407608, 0.01626850850880146, -2.9794816970825195, 0.08259791135787964, 0.10076546669006348, -0.4160410463809967, 0, 0, 0, 0, 0, 0, 9362.0, 30146.0, 35388.0, 9362.0, 8.370248794555664, 0.21069127321243286, 0.0184972882270813, 0.21693024039268494, 0.001939852605573833, -0.06101656332612038, 0.9972162246704102, -0.061018720269203186, -0.20087814331054688, 1.4794921875, 1.107421875, 1.1766510009765625, 1.490478515625, 1.24365234375, 10.0, 1.4683339595794678, 1.5, 1.4683339595794678
15868, -1.736943006515503, -1.5386734008789062, 2.211411714553833, 0.013354811817407608, 0.01626850850880146, -2.9794816970825195, 0.08259791135787964, 0.10076546669006348, -0.4160410463809967, 0, 0, 0, 0, 0, 0, 9362.0, 30146.0, 35388.0, 9362.0, 8.370248794555664, 0.008877416141331196, 0.43598273396492004, 0.2799589931964874, 0.003197601530700922, -0.06266053766012192, 0.9974007606506348, -0.061018720269203186, -0.20087814331054688, 1.4794921875, 1.107421875, 1.1766510009765625, 1.490478515625, 1.669921875, 10.0, 1.4683339595794678, 1.5, 1.4683339595794678
15878, -1.7371528148651123, -1.5402600765228271, 2.213104009628296, 0.017797861248254776, 0.021690674126148224, -3.0003163814544678, 0.0951288640499115, 0.11612357199192047, -0.41721975803375244, 0, 0, 0, 0, 0, 0, 9362.0, 30146.0, 35388.0, 9362.0, 8.370248794555664, 0.06802406907081604, -0.23002292215824127, 0.01656186766922474, 0.0035695135593414307, -0.06145612150430679, 0.9983993768692017, -0.061018720269203186, -0.20087814331054688, 1.4794921875, 1.107421875, 1.1766510009765625, 1.490478515625, 1.588623046875, 10.0, 1.4683339595794678, 1.5, 1.4683339595794678
15888, -1.7365778684616089, -1.5394190549850464, 2.213224411010742, 0.017797861248254776, 0.021690674126148224, -3.0003163814544678, 0.0951288640499115, 0.11612357199192047, -0.41721975803375244, 0, 0, 0, 0, 0, 0, 9362.0, 30146.0, 35388.0, 9362.0, 8.370248794555664, 0.04715492203831673, 0.21163277328014374, -0.014247882179915905, 0.0046541448682546616, -0.06432434916496277, 0.9989023208618164, -0.061018720269203186, -0.20087814331054688, 1.4794921875, 1.107421875, 1.1766510009765625, 1.494140625, 1.623046875, 10.0, 1.4683339595794678, 1.5, 1.4683339595794678
15898, -1.7361547946929932, -1.5394504070281982, 2.2127768993377686, 0.01975066214799881, 0.02407446689903736, -3.008666753768921, 0.10015419125556946, 0.12225809693336487, -0.41775694489479065, 0, 0, 0, 0, 0, 0, 9362.0, 30146.0, 35388.0, 9362.0, 8.370248794555664, 0.0034230900928378105, -0.2432711124420166, -0.121001236140728, 0.004567580297589302, -0.06342729181051254, 0.9991220831871033, -0.061018720269203186, -0.20087814331054688, 1.4794921875, 1.107421875, 1.1766510009765625, 1.494140625, 1.70068359375, 10.0, 1.4683339595794678, 1.5, 1.4683339595794678
15908, -1.73580801486969, -1.5377202033996582, 2.2123653888702393, 0.01975066214799881, 0.02407446689903736, -3.008666753768921, 0.10015419125556946, 0.12225809693336487, -0.41775694489479065, 0, 0, 0, 0, 0, 0, 9362.0, 30146.0, 35388.0, 9362.0, 8.370248794555664, 0.02449328638613224, -0.5369210243225098, 0.08732796460390091, 0.0032645363826304674, -0.061657361686229706, 1.0007258653640747, -0.061018720269203186, -0.20087814331054688, 1.4794921875, 1.107421875, 1.1766510009765625, 1.48974609375, 1.686767578125, 10.0, 1.4683339595794678, 1.5, 1.4683339595794678
15918, -1.736419677734375, -1.5337315797805786, 2.213470458984375, 0.021804029121994972, 0.026580993086099625, -3.01702618598938, 0.10518383234739304, 0.1283954381942749, -0.41812747716903687, 0, 0, 0, 0, 0, 0, 9362.0, 30146.0, 35388.0, 9362.0, 8.370248794555664, 0.12843094766139984, -0.07079687714576721, 0.2389606088399887, 0.0034352755174040794, -0.06265495717525482, 0.9993736743927002, -0.061018720269203186, -0.20087814331054688, 1.4794921875, 1.107421875, 1.1766510009765625, 1.48974609375, 1.683837890625, 10.0, 1.4683339595794678, 1.5, 1.4683339595794678
15928, -1.7359281778335571, -1.532960057258606, 2.214783191680908, 0.021804029121994972, 0.026580993086099625, -3.01702618598938, 0.10518383234739304, 0.1283954381942749, -0.41812747716903687, 0, 0, 0, 0, 0, 0, 9362.0, 30146.0, 35388.0, 9362.0, 8.370248794555664, -0.035251718014478683, 0.06997283548116684, -0.011857467703521252, 0.0034352755174040794, -0.06265495717525482, 0.9993736743927002, -0.061018720269203186, -0.20087814331054688, 1.4794921875, 1.107421875, 1.1766510009765625, 1.491943359375, 1.156494140625, 10.0, 1.4683339595794678, 1.5, 1.4683339595794678
15938, -1.7361018657684326, -1.5335063934326172, 2.2119414806365967, 0.021804029121994972, 0.026580993086099625, -3.01702618598938, 0.10518383234739304, 0.1283954381942749, -0.41812747716903687, 0, 0, 0, 0, 0, 0, 9362.0, 30146.0, 35388.0, 9362.0, 8.370248794555664, 0.027688344940543175, -0.2085268199443817, -0.10594703257083893, 0.0034352755174040794, -0.06265495717525482, 0.9993736743927002, -0.061018720269203186, -0.20087814331054688, 1.4794921875, 1.025390625, 2.45086669921875, 1.491943359375, 1.16455078125, 10.0, 1.4683339595794678, 1.5, 1.4683339595794678
15948, -1.7366975545883179, -1.5315958261489868, 2.2120707035064697, 0.021804029121994972, 0.026580993086099625, -3.01702618598938, 0.10518383234739304, 0.1283954381942749, -0.41812747716903687, 0, 0, 0, 0, 0, 0, 9362.0, 30146.0, 35388.0, 9362.0, 8.370248794555664, 0.20257215201854706, -0.0983625054359436, -0.02089298702776432, 0.0034352755174040794, -0.06265495717525482, 0.9993736743927002, -0.061018720269203186, -0.20087814331054688, 1.4794921875, 1.3271484375, 0.022308349609375, 1.491943359375, 1.3681640625, 10.0, 1.4683339595794678, 1.5, 1.4683339595794678
15958, -1.7366936206817627, -1.5321965217590332, 2.2125213146209717, 0.021804029121994972, 0.026580993086099625, -3.01702618598938, 0.10518383234739304, 0.1283954381942749, -0.41812747716903687, 0, 0, 0, 0, 0, 0, 9362.0, 30146.0, 35388.0, 9362.0, 8.370248794555664, 0.05459831655025482, 0.19078399240970612, 0.12829536199569702, 0.0034352755174040794, -0.06265495717525482, 0.9993736743927002, -0.057043276727199554, 0.10376167297363281, 1.50439453125, 1.5234375, 0.2439727783203125, 1.491943359375, 1.086181640625, 10.0, 1.4683339595794678, 1.5, 1.4683339595794678
15968, -1.735451102256775, -1.5309730768203735, 2.212836742401123, 0.021804029121994972, 0.026580993086099625, -3.01702618598938, 0.10518383234739304, 0.1283954381942749, -0.41812747716903687, 0, 0, 0, 0, 0, 0, 9362.0, 30146.0, 35388.0, 9362.0, 8.370248794555664, -0.05713028833270073, 0.20172454416751862, -0.017328334972262383, 0.0034352755174040794, -0.06265495717525482, 0.9993736743927002, -0.057043276727199554, 0.10376167297363281, 1.50439453125, 1.5234375, 0.2439727783203125, 1.491943359375, 1.505859375, 10.0, 1.4683339595794678, 1.5, 1.4683339595794678
15978, -1.736325979232788, -1.5330231189727783, 2.2134644985198975, 0.021804029121994972, 0.026580993086099625, -3.01702618598938, 0.10518383234739304, 0.1283954381942749, -0.41812747716903687, 0, 0, 0, 0, 0, 0, 9362.0, 30146.0, 35388.0, 9362.0, 8.370248794555664, -0.11416098475456238, -0.14286670088768005, 0.05280114337801933, 0.0032285405322909355, -0.06259004771709442, 0.9984403848648071, -0.057043276727199554, 0.10376167297363281, 1.50439453125, 1.292724609375, 0.060089111328125, 1.491943359375, 1.245849609375, 10.0, 1.4683339595794678, 1.5, 1.4683339595794678
15988, -1.736641764640808, -1.5323106050491333, 2.213528633117676, 0.021804029121994972, 0.026580993086099625, -3.01702618598938, 0.10518383234739304, 0.1283954381942749, -0.41812747716903687, 0, 0, 0, 0, 0, 0, 9362.0, 30146.0, 35388.0, 9362.0, 8.370248794555664, 0.08919911086559296, 0.2799789309501648, -0.08089511096477509, 0.0020705193746834993, -0.06256771832704544, 1.0002044439315796, -0.057043276727199554, 0.10376167297363281, 1.50439453125, 1.292724609375, 0.060089111328125, 1.493408203125, 1.638427734375, 10.0, 1.4683339595794678, 1.5, 1.4683339595794678
15998, -1.7355866432189941, -1.534829020500183, 2.213289499282837, 0.031020697206258774, 0.03783461079001427, -3.0505282878875732, 0.12521612644195557, 0.15293774008750916, -0.41965433955192566, 0, 0, 0, 0, 0, 0, 9362.0, 30146.0, 35388.0, 9362.0, 8.370248794555664, 0.13513484597206116, 0.2732507288455963, 0.07049671560525894, 0.004028995055705309, -0.06186702847480774, 0.9992253184318542, -0.057043276727199554, 0.10376167297363281, 1.50439453125, 1.449462890625, 0.103973388671875, 1.493408203125, 1.60986328125, 10.0, 1.4683339595794678, 1.5, 1.4683339595794678
16008, -1.7346909046173096, -1.5356107950210571, 2.2133865356445312, 0.032285384833812714, 0.03937935084104538, -3.054725170135498, 0.12772169709205627, 0.15601009130477905, -0.41972336173057556, 0, 0, 0, 0, 0, 0, 9362.0, 30146.0, 35388.0, 9362.0, 8.370248794555664, -0.08561726659536362, -0.1812109351158142, -0.3508615493774414, 0.004086644388735294, -0.06201103702187538, 0.997639000415802, -0.057043276727199554, 0.10376167297363281, 1.50439453125, 1.566650390625, 0.3395233154296875, 1.491943359375, 1.5, 10.0, 1.4683339595794678, 1.5, 1.4683339595794678
16018, -1.7355451583862305, -1.5354944467544556, 2.2110602855682373, 0.033575136214494705, 0.04095478728413582, -3.0589232444763184, 0.13022847473621368, 0.1590769737958908, -0.41991493105888367, 0, 0, 0, 0, 0, 0, 9362.0, 30146.0, 35388.0, 9362.0, 8.370248794555664, -0.09988577663898468, -0.019569475203752518, -0.14693401753902435, 0.0022732296492904425, -0.06317395716905594, 0.9990833401679993, -0.057043276727199554, 0.10376167297363281, 1.50439453125, 1.714599609375, 0.7078094482421875, 1.491943359375, 1.58349609375, 10.0, 1.4683339595794678, 1.5, 1.4683339595794678
16028, -1.7354300022125244, -1.5345218181610107, 2.2107460498809814, 0.033575136214494705, 0.04095478728413582, -3.0589232444763184, 0.13022847473621368, 0.1590769737958908, -0.41991493105888367, 0, 0, 0, 0, 0, 0, 9362.0, 30146.0, 35388.0, 9362.0, 8.370248794555664, 0.004101000726222992, 0.11840562522411346, 0.08596488833427429, 0.0020646261982619762, -0.06285270303487778, 0.9991510510444641, -0.057043276727199554, 0.10376167297363281, 1.50439453125, 1.53515625, 0.2692413330078125, 1.491943359375, 1.015869140625, 10.0, 1.4683339595794678, 1.5, 1.4683339595794678
16038, -1.7366440296173096, -1.5340992212295532, 2.2115180492401123, 0.03622981905937195, 0.044197581708431244, -3.0673272609710693, 0.13524192571640015, 0.16520540416240692, -0.42041316628456116, 0, 0, 0, 0, 0, 0, 9362.0, 30146.0, 35388.0, 9362.0, 8.370248794555664, -0.0032179257832467556, 0.25870949029922485, 0.131018728017807, 0.0020646261982619762, -0.06285270303487778, 0.9991510510444641, -0.057043276727199554, 0.10376167297363281, 1.50439453125, 1.53515625, 0.2692413330078125, 1.491943359375, 0.99462890625, 10.0, 1.4683339595794678, 1.5, 1.4683339595794678
16048, -1.736970067024231, -1.5345194339752197, 2.210667610168457, 0.03622981905937195, 0.044197581708431244, -3.0673272609710693, 0.13524192571640015, 0.16520540416240692, -0.42041316628456116, 0, 0, 0, 0, 0, 0, 9362.0, 30146.0, 35388.0, 9362.0, 8.370248794555664, -0.0032179257832467556, 0.25870949029922485, 0.131018728017807, 0.002922660671174526, -0.062201887369155884, 0.9993690252304077, -0.057043276727199554, 0.10376167297363281, 1.50439453125, 1.0458984375, 2.071624755859375, 1.491943359375, 1.68603515625, 10.0, 1.4683339595794678, 1.5, 1.4683339595794678
16068, -1.7389371395111084, -1.5301753282546997, 2.210230827331543, 0.03898480162024498, 0.04756305739283562, -3.0757384300231934, 0.14025568962097168, 0.17134256660938263, -0.4207283556461334, 0, 0, 0, 0, 0, 0, 9362.0, 30146.0, 35388.0, 9362.0, 8.370248794555664, -0.16911578178405762, -0.2772700786590576, -0.10486771166324615, 0.004076026380062103, -0.0631069615483284, 0.9991579651832581, -0.06545616686344147, -0.021678924560546875, 1.494140625, 1.0458984375, 2.071624755859375, 1.494873046875, 1.634765625, 10.0, 1.4683339595794678, 1.5, 1.4683339595794678
16078, -1.7390259504318237, -1.5295592546463013, 2.210545063018799, 0.04184006154537201, 0.05105135962367058, -3.0841550827026367, 0.14526823163032532, 0.1774894744157791, -0.420915812253952, 0, 0, 0, 0, 0, 0, 9362.0, 30146.0, 35388.0, 9362.0, 8.370248794555664, -0.11506715416908264, -0.0687829777598381, 0.06282436847686768, 0.004189189523458481, -0.06362568587064743, 0.9970020651817322, -0.06545616686344147, -0.021678924560546875, 1.494140625, 1.0458984375, 2.071624755859375, 1.494873046875, 1.623046875, 10.0, 1.4683339595794678, 1.5, 1.4683339595794678
16088, -1.7394658327102661, -1.5284148454666138, 2.21010160446167, 0.04184006154537201, 0.05105135962367058, -3.0841550827026367, 0.14526823163032532, 0.1774894744157791, -0.420915812253952, 0, 0, 0, 0, 0, 0, 9362.0, 30146.0, 35388.0, 9362.0, 8.370248794555664, 0.09418870508670807, 0.17108434438705444, 0.132489874958992, 0.0029777158051729202, -0.06273578852415085, 0.9959961771965027, -0.06545616686344147, -0.021678924560546875, 1.494140625, 1.0458984375, 2.071624755859375, 1.48828125, 1.6171875, 10.0, 1.4683339595794678, 1.5, 1.4683339595794678
16098, -1.738641619682312, -1.5295511484146118, 2.211440324783325, 0.04184006154537201, 0.05105135962367058, -3.0841550827026367, 0.14526823163032532, 0.1774894744157791, -0.420915812253952, 0, 0, 0, 0, 0, 0, 9362.0, 30146.0, 35388.0, 9362.0, 8.370248794555664, -0.27430570125579834, -0.19090011715888977, 0.06178142502903938, 0.0029777158051729202, -0.06273578852415085, 0.9959961771965027, -0.06545616686344147, -0.021678924560546875, 1.494140625, 1.0458984375, 2.071624755859375, 1.48828125, 1.367431640625, 10.0, 1.4683339595794678, 1.5, 1.4683339595794678
16108, -1.739343523979187, -1.529919981956482, 2.212718963623047, 0.04184006154537201, 0.05105135962367058, -3.0841550827026367, 0.14526823163032532, 0.1774894744157791, -0.420915812253952, 0, 0, 0, 0, 0, 0, 9362.0, 30146.0, 35388.0, 9362.0, 8.370248794555664, 0.07321052998304367, 0.3642512261867523, 0.10531090945005417, 0.002473141299560666, -0.06066145375370979, 0.9991124868392944, -0.06545616686344147, -0.021678924560546875, 1.494140625, 1.0458984375, 2.071624755859375, 1.491943359375, 1.682373046875, 10.0, 1.4683339595794678, 1.5, 1.4683339595794678
16118, -1.7376281023025513, -1.5316890478134155, 2.2132749557495117, 0.047850437462329865, 0.05839650332927704, -3.1010141372680664, 0.15525078773498535, 0.1897697001695633, -0.4219670295715332, 0, 0, 0, 0, 0, 0, 9362.0, 30146.0, 35388.0, 9362.0, 8.370248794555664, -0.11199671030044556, -0.16954219341278076, -0.013969422318041325, 0.004997107200324535, -0.06073060259222984, 0.9982196092605591, -0.06545616686344147, -0.021678924560546875, 1.494140625, 1.0458984375, 2.071624755859375, 1.491943359375, 1.634765625, 10.0, 1.4683339595794678, 1.5, 1.4683339595794678
16128, -1.738554835319519, -1.5306649208068848, 2.2147977352142334, 0.047850437462329865, 0.05839650332927704, -3.1010141372680664, 0.15525078773498535, 0.1897697001695633, -0.4219670295715332, 0, 0, 0, 0, 0, 0, 9362.0, 30146.0, 35388.0, 9362.0, 8.370248794555664, 0.14041438698768616, -0.17704036831855774, -0.2186417132616043, 0.004997107200324535, -0.06073060259222984, 0.9982196092605591, -0.06545616686344147, -0.021678924560546875, 1.494140625, 1.0458984375, 2.071624755859375, 1.4912109375, 1.616455078125, 10.0, 1.4683339595794678, 1.5, 1.4683339595794678
16138, -1.7378590106964111, -1.5280567407608032, 2.215254068374634, 0.047850437462329865, 0.05839650332927704, -3.1010141372680664, 0.15525078773498535, 0.1897697001695633, -0.4219670295715332, 0, 0, 0, 0, 0, 0, 9362.0, 30146.0, 35388.0, 9362.0, 8.370248794555664, -0.027459871023893356, -0.2928861677646637, 0.07036079466342926, 0.0020973719656467438, -0.0634947344660759, 0.9994457960128784, -0.06545616686344147, -0.021678924560546875, 1.494140625, 1.443603515625, 0.0948486328125, 1.4912109375, 1.48388671875, 10.0, 1.4683339595794678, 1.5, 1.4683339595794678
16148, -1.7387176752090454, -1.5269628763198853, 2.214876890182495, 0.047850437462329865, 0.05839650332927704, -3.1010141372680664, 0.15525078773498535, 0.1897697001695633, -0.4219670295715332, 0, 0, 0, 0, 0, 0, 9362.0, 30146.0, 35388.0, 9362.0, 8.370248794555664, 0.08528311550617218, -0.26960256695747375, -0.10860300809144974, 0.002675537718459964, -0.06325332075357437, 0.9975101351737976, -0.06545616686344147, -0.021678924560546875, 1.494140625, 1.443603515625, 0.0948486328125, 1.491943359375, 1.6640625, 10.0, 1.4683339595794678, 1.5, 1.4683339595794678
16168, -1.739664077758789, -1.5234915018081665, 2.215524196624756, 0.05426032468676567, 0.06623293459415436, -3.1179113388061523, 0.1652413010597229, 0.20205098390579224, -0.42286163568496704, 0, 0, 0, 0, 0, 0, 9362.0, 30146.0, 35388.0, 9362.0, 8.370248794555664, -0.14774839580059052, -0.01641835831105709, 0.004923794884234667, 0.0031158621422946453, -0.059405624866485596, 0.9982205629348755, -0.0761389508843422, -0.09335899353027344, 1.48828125, 1.443603515625, 0.0948486328125, 1.49267578125, 1.68896484375, 10.0, 1.4683339595794678, 1.5, 1.4683339595794678
16178, -1.7399122714996338, -1.5245755910873413, 2.2169835567474365, 0.05761491134762764, 0.0703352838754654, -3.126375675201416, 0.17021560668945312, 0.20818394422531128, -0.4235870838165283, 0, 0, 0, 0, 0, 0, 9362.0, 30146.0, 35388.0, 9362.0, 8.370248794555664, 0.09253757447004318, 0.09278978407382965, 0.04961354285478592, 0.0024213390424847603, -0.06040738895535469, 0.9999600052833557, -0.0761389508843422, -0.09335899353027344, 1.48828125, 1.443603515625, 0.0948486328125, 1.49267578125, 1.6904296875, 10.0, 1.4683339595794678, 1.5, 1.4683339595794678
16188, -1.738884687423706, -1.5229921340942383, 2.2164719104766846, 0.05761491134762764, 0.0703352838754654, -3.126375675201416, 0.17021560668945312, 0.20818394422531128, -0.4235870838165283, 0, 0, 0, 0, 0, 0, 9362.0, 30146.0, 35388.0, 9362.0, 8.370248794555664, -0.062323909252882004, -0.18275046348571777, -0.008999747224152088, 0.0025406733620911837, -0.06165449321269989, 0.9991533160209656, -0.0761389508843422, -0.09335899353027344, 1.48828125, 1.443603515625, 0.0948486328125, 1.491943359375, 1.67431640625, 10.0, 1.4683339595794678, 1.5, 1.4683339595794678
16198, -1.7391830682754517, -1.520927906036377, 2.2178728580474854, 0.06106898561120033, 0.07456044852733612, -3.1348507404327393, 0.1751941293478012, 0.21433427929878235, -0.4238626956939697, 0, 0, 0, 0, 0, 0, 9362.0, 30146.0, 35388.0, 9362.0, 8.370248794555664, 0.23236560821533203, 0.3546272814273834, 0.12515193223953247, 0.00508523965254426, -0.059902533888816833, 0.9972212910652161, -0.0761389508843422, -0.09335899353027344, 1.48828125, 1.443603515625, 0.0948486328125, 1.491943359375, 1.65380859375, 10.0, 1.4683339595794678, 1.5, 1.4683339595794678
16208, -1.738299012184143, -1.5226675271987915, 2.2186076641082764, 0.06106898561120033, 0.07456044852733612, -3.1348507404327393, 0.1751941293478012, 0.21433427929878235, -0.4238626956939697, 0, 0, 0, 0, 0, 0, 9362.0, 30146.0, 35388.0, 9362.0, 8.370248794555664, 0.23236560821533203, 0.3546272814273834, 0.12515193223953247, 0.00381702883169055, -0.06344233453273773, 0.9966462254524231, -0.0761389508843422, -0.09335899353027344, 1.48828125, 1.223876953125, 0.2634124755859375, 1.491943359375, 1.5087890625, 10.0, 1.4683339595794678, 1.5, 1.4683339595794678
16218, -1.7382287979125977, -1.525181770324707, 2.2203080654144287, 0.06462254375219345, 0.07890854775905609, -3.1433327198028564, 0.18015852570533752, 0.2204732745885849, -0.4244128167629242, 0, 0, 0, 0, 0, 0, 9362.0, 30146.0, 35388.0, 9362.0, 8.370248794555664, -0.049291953444480896, 0.2017204910516739, -0.34437480568885803, 0.004713536240160465, -0.06459663063287735, 0.9961150884628296, -0.0761389508843422, -0.09335899353027344, 1.48828125, 1.223876953125, 0.2634124755859375, 1.491943359375, 1.537353515625, 10.0, 1.4683339595794678, 1.5, 1.4683339595794678
16228, -1.738120198249817, -1.5237030982971191, 2.2182631492614746, 0.06462254375219345, 0.07890854775905609, -3.1433327198028564, 0.18015852570533752, 0.2204732745885849, -0.4244128167629242, 0, 0, 0, 0, 0, 0, 9362.0, 30146.0, 35388.0, 9362.0, 8.370248794555664, 0.0009762971312738955, -0.026323262602090836, 0.050715912133455276, 0.001544975908473134, -0.06402759253978729, 0.9993466138839722, -0.0761389508843422, -0.09335899353027344, 1.48828125, 1.26416015625, 0.121337890625, 1.491943359375, 1.406982421875, 10.0, 1.4683339595794678, 1.5, 1.4683339595794678
16238, -1.7378109693527222, -1.52321457862854, 2.2177648544311523, 0.0682753324508667, 0.08337929844856262, -3.1518290042877197, 0.18512223660945892, 0.22660088539123535, -0.42525365948677063, 0, 0, 0, 0, 0, 0, 9362.0, 30146.0, 35388.0, 9362.0, 8.370248794555664, -0.011147634126245975, -0.01432095654308796, 0.09615456312894821, 0.0025431509129703045, -0.06358082592487335, 0.9993405938148499, -0.0761389508843422, -0.09335899353027344, 1.48828125, 1.26416015625, 0.121337890625, 1.491943359375, 1.65673828125, 10.0, 1.4683339595794678, 1.5, 1.4683339595794678
16248, -1.7382277250289917, -1.5245107412338257, 2.217344045639038, 0.0682753324508667, 0.08337929844856262, -3.1518290042877197, 0.18512223660945892, 0.22660088539123535, -0.42525365948677063, 0, 0, 0, 0, 0, 0, 9362.0, 30146.0, 35388.0, 9362.0, 8.370248794555664, -0.14342017471790314, 0.35941287875175476, 0.20400573313236237, 0.004368601832538843, -0.061213426291942596, 0.9981082677841187, -0.0761389508843422, -0.09335899353027344, 1.48828125, 1.23193359375, 0.2292022705078125, 1.491943359375, 1.738037109375, 10.0, 1.4683339595794678, 1.5, 1.4683339595794678
16268, -1.7398675680160522, -1.5271738767623901, 2.2207629680633545, 0.07202755659818649, 0.08797276765108109, -3.160336494445801, 0.19009888172149658, 0.23274488747119904, -0.42553243041038513, 0, 0, 0, 0, 0, 0, 9362.0, 30146.0, 35388.0, 9362.0, 8.370248794555664, -0.10694410651922226, 0.20325158536434174, -0.34703803062438965, 0.0019720380660146475, -0.06366263329982758, 0.9996101260185242, -0.06934332847595215, -0.12023735046386719, 1.486083984375, 1.23193359375, 0.2292022705078125, 1.48828125, 1.55126953125, 10.0, 1.4683339595794678, 1.5, 1.4683339595794678
16278, -1.7399091720581055, -1.5274574756622314, 2.218325138092041, 0.07202755659818649, 0.08797276765108109, -3.160336494445801, 0.19009888172149658, 0.23274488747119904, -0.42553243041038513, 0, 0, 0, 0, 0, 0, 9362.0, 30146.0, 35388.0, 9362.0, 8.370248794555664, 0.07564535737037659, 0.05904896557331085, 0.3455696105957031, 0.0024323556572198868, -0.06297086179256439, 0.9978458881378174, -0.06934332847595215, -0.12023735046386719, 1.486083984375, 1.313232421875, 0.0333251953125, 1.48828125, 1.324951171875, 10.0, 1.4683339595794678, 1.5, 1.4683339595794678
16288, -1.740373134613037, -1.5271599292755127, 2.220221996307373, 0.07202755659818649, 0.08797276765108109, -3.160336494445801, 0.19009888172149658, 0.23274488747119904, -0.42553243041038513, 0, 0, 0, 0, 0, 0, 9362.0, 30146.0, 35388.0, 9362.0, 8.370248794555664, 0.03731677681207657, 0.20315788686275482, 0.033017598092556, 0.0017158390255644917, -0.06338302046060562, 0.9979184865951538, -0.06934332847595215, -0.12023735046386719, 1.486083984375, 1.313232421875, 0.0333251953125, 1.48974609375, 1.62890625, 10.0, 1.4683339595794678, 1.5, 1.4683339595794678
16298, -1.740043044090271, -1.527714490890503, 2.2201027870178223, 0.07983074337244034, 0.09752826392650604, -3.177374839782715, 0.2000645250082016, 0.2450326532125473, -0.4263952672481537, 0, 0, 0, 0, 0, 0, 9362.0, 30146.0, 35388.0, 9362.0, 8.370248794555664, -0.04175534471869469, 0.006180241238325834, 0.007462406996637583, 0.0017158390255644917, -0.06338302046060562, 0.9979184865951538, -0.06934332847595215, -0.12023735046386719, 1.486083984375, 1.313232421875, 0.0333251953125, 1.48974609375, 1.634033203125, 10.0, 1.4683339595794678, 1.5, 1.4683339595794678
16308, -1.739889144897461, -1.5268471240997314, 2.2197601795196533, 0.07983074337244034, 0.09752826392650604, -3.177374839782715, 0.2000645250082016, 0.2450326532125473, -0.4263952672481537, 0, 0, 0, 0, 0, 0, 9362.0, 30146.0, 35388.0, 9362.0, 8.370248794555664, -0.21980702877044678, -0.2778397500514984, -0.06138688325881958, 0.0032496596686542034, -0.06098109483718872, 0.9982789754867554, -0.06934332847595215, -0.12023735046386719, 1.486083984375, 1.406982421875, 0.046966552734375, 1.48974609375, 1.193115234375, 10.0, 1.4683339595794678, 1.5, 1.4683339595794678
16318, -1.7406798601150513, -1.5264673233032227, 2.220670700073242, 0.08388184010982513, 0.10249035060405731, -3.185908555984497, 0.2050459384918213, 0.2511748969554901, -0.42699867486953735, 0, 0, 0, 0, 0, 0, 9362.0, 30146.0, 35388.0, 9362.0, 8.370248794555664, -0.02546466514468193, -0.1740293800830841, -0.11445903778076172, 0.002870598342269659, -0.0625949427485466, 1.0016701221466064, -0.06934332847595215, -0.12023735046386719, 1.486083984375, 1.406982421875, 0.046966552734375, 1.48974609375, 1.694091796875, 10.0, 1.4683339595794678, 1.5, 1.4683339595794678
16328, -1.7418653964996338, -1.5224865674972534, 2.2178332805633545, 0.08388184010982513, 0.10249035060405731, -3.185908555984497, 0.2050459384918213, 0.2511748969554901, -0.42699867486953735, 0, 0, 0, 0, 0, 0, 9362.0, 30146.0, 35388.0, 9362.0, 8.370248794555664, 0.10053392499685287, -0.06326001137495041, -0.3265954256057739, 0.0030571918468922377, -0.06443368643522263, 1.0003414154052734, -0.06934332847595215, -0.12023735046386719, 1.486083984375, 1.406982421875, 0.046966552734375, 1.493408203125, 1.55126953125, 10.0, 1.4683339595794678, 1.5, 1.4683339595794678
16338, -1.7411726713180542, -1.5224992036819458, 2.217039108276367, 0.08388184010982513, 0.10249035060405731, -3.185908555984497, 0.2050459384918213, 0.2511748969554901, -0.42699867486953735, 0, 0, 0, 0, 0, 0, 9362.0, 30146.0, 35388.0, 9362.0, 8.370248794555664, 0.01547521073371172, 0.29773426055908203, -0.05293351411819458, 0.003324540564790368, -0.06324222683906555, 1.0000697374343872, -0.06934332847595215, -0.12023735046386719, 1.486083984375, 1.304443359375, 0.043182373046875, 1.493408203125, 1.44287109375, 10.0, 1.4683339595794678, 1.5, 1.4683339595794678
16348, -1.7410093545913696, -1.5237922668457031, 2.2163753509521484, 0.08388184010982513, 0.10249035060405731, -3.185908555984497, 0.2050459384918213, 0.2511748969554901, -0.42699867486953735, 0, 0, 0, 0, 0, 0, 9362.0, 30146.0, 35388.0, 9362.0, 8.370248794555664, 0.05184082314372063, -0.30931973457336426, 0.19687920808792114, 0.003000628901645541, -0.062473513185977936, 0.9991244673728943, -0.06934332847595215, -0.12023735046386719, 1.486083984375, 1.304443359375, 0.043182373046875, 1.49267578125, 1.65380859375, 10.0, 1.4683339595794678, 1.5, 1.4683339595794678
16368, -1.739945411682129, -1.5241647958755493, 2.217311382293701, 0.09228314459323883, 0.11278364062309265, -3.2029948234558105, 0.215012788772583, 0.26349183917045593, -0.42728710174560547, 0, 0, 0, 0, 0, 0, 9362.0, 30146.0, 35388.0, 9362.0, 8.370248794555664, 0.01259209867566824, -0.09198793023824692, 0.048183951526880264, 0.0027162746991962194, -0.06141947582364082, 1.0010725259780884, -0.06712203472852707, -0.09335899353027344, 1.48828125, 1.304443359375, 0.043182373046875, 1.494873046875, 1.672119140625, 10.0, 1.4683339595794678, 1.5, 1.4683339595794678
16378, -1.7407770156860352, -1.523804783821106, 2.2176618576049805, 0.09228314459323883, 0.11278364062309265, -3.2029948234558105, 0.215012788772583, 0.26349183917045593, -0.42728710174560547, 0, 0, 0, 0, 0, 0, 9362.0, 30146.0, 35388.0, 9362.0, 8.370248794555664, -0.1803840845823288, 0.03187338635325432, -0.2860710918903351, 0.0027162746991962194, -0.06141947582364082, 1.0010725259780884, -0.06712203472852707, -0.09335899353027344, 1.48828125, 1.38427734375, 0.027099609375, 1.494873046875, 1.182861328125, 10.0, 1.4683339595794678, 1.5, 1.4683339595794678
16388, -1.7407691478729248, -1.5247821807861328, 2.2158796787261963, 0.09228314459323883, 0.11278364062309265, -3.2029948234558105, 0.215012788772583, 0.26349183917045593, -0.42728710174560547, 0, 0, 0, 0, 0, 0, 9362.0, 30146.0, 35388.0, 9362.0, 8.370248794555664, 0.13209016621112823, -0.0955813080072403, -0.19679173827171326, 0.002937195124104619, -0.0610799640417099, 0.9987807869911194, -0.06712203472852707, -0.09335899353027344, 1.48828125, 1.38427734375, 0.027099609375, 1.494140625, 1.63916015625, 10.0, 1.4683339595794678, 1.5, 1.4683339595794678
16398, -1.739524483680725, -1.524305820465088, 2.2140069007873535, 0.09228314459323883, 0.11278364062309265, -3.2029948234558105, 0.215012788772583, 0.26349183917045593, -0.42728710174560547, 0, 0, 0, 0, 0, 0, 9362.0, 30146.0, 35388.0, 9362.0, 8.370248794555664, 0.17515532672405243, -0.06609559059143066, -0.025292910635471344, 0.003834388917312026, -0.06265441328287125, 0.9994677901268005, -0.06712203472852707, -0.09335899353027344, 1.48828125, 1.09716796875, 1.302642822265625, 1.494140625, 1.039306640625, 10.0, 1.4683339595794678, 1.5, 1.4683339595794678
16408, -1.7379523515701294, -1.525968074798584, 2.2150676250457764, 0.09228314459323883, 0.11278364062309265, -3.2029948234558105, 0.215012788772583, 0.26349183917045593, -0.42728710174560547, 0, 0, 0, 0, 0, 0, 9362.0, 30146.0, 35388.0, 9362.0, 8.370248794555664, -0.04832204431295395, -0.19867949187755585, -0.05094972625374794, 0.0038703540340065956, -0.0628724992275238, 0.9975264072418213, -0.06712203472852707, -0.09335899353027344, 1.48828125, 1.09716796875, 1.302642822265625, 1.49560546875, 1.62890625, 10.0, 1.4683339595794678, 1.5, 1.4683339595794678
16418, -1.73684823513031, -1.5261696577072144, 2.2141807079315186, 0.09228314459323883, 0.11278364062309265, -3.2029948234558105, 0.215012788772583, 0.26349183917045593, -0.42728710174560547, 0, 0, 0, 0, 0, 0, 9362.0, 30146.0, 35388.0, 9362.0, 8.370248794555664, -0.019070228561758995, 0.21854867041110992, 0.06981556862592697, 0.0038703540340065956, -0.0628724992275238, 0.9975264072418213, -0.06712203472852707, -0.09335899353027344, 1.48828125, 1.09716796875, 1.302642822265625, 1.49560546875, 1.27294921875, 10.0, 1.4683339595794678, 1.5, 1.4683339595794678
16428, -1.737007737159729, -1.5274224281311035, 2.2135725021362305, 0.09228314459323883, 0.11278364062309265, -3.2029948234558105, 0.215012788772583, 0.26349183917045593, -0.42728710174560547, 0, 0, 0, 0, 0, 0, 9362.0, 30146.0, 35388.0, 9362.0, 8.370248794555664, 0.08707594871520996, -0.16679300367832184, 0.028676774352788925, 0.0038703540340065956, -0.0628724992275238, 0.9975264072418213, -0.06712203472852707, -0.09335899353027344, 1.48828125, 0.97705078125, 3.5305023193359375, 1.49560546875, 1.11474609375, 10.0, 1.4683339595794678, 1.5, 1.4683339595794678
16438, -1.7372745275497437, -1.5270226001739502, 2.213254690170288, 0.09228314459323883, 0.11278364062309265, -3.2029948234558105, 0.215012788772583, 0.26349183917045593, -0.42728710174560547, 0, 0, 0, 0, 0, 0, 9362.0, 30146.0, 35388.0, 9362.0, 8.370248794555664, -0.2331908941268921, -0.1825471669435501, -0.04829775542020798, 0.0038703540340065956, -0.0628724992275238, 0.9975264072418213, -0.06712203472852707, -0.09335899353027344, 1.48828125, 1.1513671875, 0.72857666015625, 1.49560546875, 1.11767578125, 10.0, 1.4683339595794678, 1.5, 1.4683339595794678
16448, -1.7391129732131958, -1.5256985425949097, 2.2128641605377197, 0.09228314459323883, 0.11278364062309265, -3.2029948234558105, 0.215012788772583, 0.26349183917045593, -0.42728710174560547, 0, 0, 0, 0, 0, 0, 9362.0, 30146.0, 35388.0, 9362.0, 8.370248794555664, -0.2331908941268921, -0.1825471669435501, -0.04829775542020798, 0.0014461197424679995, -0.06234171614050865, 0.9997416138648987, -0.06712203472852707, -0.09335899353027344, 1.48828125, 1.288330078125, 0.0676116943359375, 1.49560546875, 1.647216796875, 10.0, 1.4683339595794678, 1.5, 1.4683339595794678
16468, -1.7420092821121216, -1.5254544019699097, 2.2137041091918945, 0.09228314459323883, 0.11278364062309265, -3.2029948234558105, 0.215012788772583, 0.26349183917045593, -0.42728710174560547, 0, 0, 0, 0, 0, 0, 9362.0, 30146.0, 35388.0, 9362.0, 8.370248794555664, 0.19199296832084656, 0.1975686103105545, 0.08421985059976578, 0.0014461197424679995, -0.06234171614050865, 0.9997416138648987, -0.06712203472852707, -0.09335899353027344, 1.48828125, 1.0927734375, 1.3592987060546875, 1.49560546875, 1.4208984375, 10.0, 1.4736884832382202, 1.5, 1.4736884832382202
16478, -1.742325782775879, -1.5258034467697144, 2.214017391204834, 0.09228314459323883, 0.11278364062309265, -3.2029948234558105, 0.215012788772583, 0.26349183917045593, -0.42728710174560547, 0, 0, 0, 0, 0, 0, 9362.0, 30146.0, 35388.0, 9362.0, 8.370248794555664, -0.04770185425877571, -0.06350034475326538, 0.18734899163246155, 0.0014461197424679995, -0.06234171614050865, 0.9997416138648987, -0.06712203472852707, -0.09335899353027344, 1.48828125, 1.2685546875, 0.1099395751953125, 1.49560546875, 1.294921875, 10.0, 1.4736884832382202, 1.5, 1.4736884832382202
16488, -1.7438416481018066, -1.5242160558700562, 2.214627742767334, 0.09228314459323883, 0.11278364062309265, -3.2029948234558105, 0.215012788772583, 0.26349183917045593, -0.42728710174560547, 0, 0, 0, 0, 0, 0, 9362.0, 30146.0, 35388.0, 9362.0, 8.370248794555664, -0.11098086088895798, -0.748091995716095, -0.02648073248565197, 0.0014461197424679995, -0.06234171614050865, 0.9997416138648987, -0.06712203472852707, -0.09335899353027344, 1.48828125, 1.405517578125, 0.0454254150390625, 1.49560546875, 1.18798828125, 10.0, 1.4736884832382202, 1.5, 1.4736884832382202
16498, -1.7443585395812988, -1.5213505029678345, 2.216097831726074, 0.09228314459323883, 0.11278364062309265, -3.2029948234558105, 0.215012788772583, 0.26349183917045593, -0.42728710174560547, 0, 0, 0, 0, 0, 0, 9362.0, 30146.0, 35388.0, 9362.0, 8.370248794555664, -0.16712935268878937, 0.3083246648311615, 0.3140876293182373, 0.0014461197424679995, -0.06234171614050865, 0.9997416138648987, -0.06712203472852707, -0.09335899353027344, 1.48828125, 1.4326171875, 0.0786895751953125, 1.49560546875, 1.379150390625, 10.0, 1.4736884832382202, 1.5, 1.4736884832382202
16508, -1.7445935010910034, -1.5236300230026245, 2.217371702194214, 0.09228314459323883, 0.11278364062309265, -3.2029948234558105, 0.215012788772583, 0.26349183917045593, -0.42728710174560547, 0, 0, 0, 0, 0, 0, 9362.0, 30146.0, 35388.0, 9362.0, 8.370248794555664, -0.2111431211233139, -0.08878877013921738, -0.07221341133117676, 0.0014461197424679995, -0.06234171614050865, 0.9997416138648987, -0.06712203472852707, -0.09335899353027344, 1.48828125, 1.3212890625, 0.026214599609375, 1.49560546875, 1.046630859375, 10.0, 1.4736884832382202, 1.5, 1.4736884832382202
16518, -1.7453163862228394, -1.5213865041732788, 2.2177534103393555, 0.12987223267555237, 0.15887774527072906, -3.2715651988983154, 0.25485342741012573, 0.3126945495605469, -0.4299374222755432, 0, 0, 0, 0, 0, 0, 9362.0, 30146.0, 35388.0, 9362.0, 8.370248794555664, 0.001570713589899242, 0.30194541811943054, -0.048990558832883835, 0.0014461197424679995, -0.06234171614050865, 0.9997416138648987, -0.06712203472852707, -0.09335899353027344, 1.48828125, 1.439208984375, 0.0882415771484375, 1.49560546875, 1.60693359375, 10.0, 1.4736884832382202, 1.5, 1.4736884832382202
16528, -1.7443604469299316, -1.5240098237991333, 2.2177252769470215, 0.12987223267555237, 0.15887774527072906, -3.2715651988983154, 0.25485342741012573, 0.3126945495605469, -0.4299374222755432, 0, 0, 0, 0, 0, 0, 9362.0, 30146.0, 35388.0, 9362.0, 8.370248794555664, 0.050681810826063156, 0.09654773026704788, -0.045958247035741806, 0.0014461197424679995, -0.06234171614050865, 0.9997416138648987, -0.06712203472852707, -0.09335899353027344, 1.48828125, 1.1484375, 0.754119873046875, 1.49560546875, 1.32861328125, 10.0, 1.4736884832382202, 1.5, 1.4736884832382202
16538, -1.7425886392593384, -1.5230762958526611, 2.217869758605957, 0.12987223267555237, 0.15887774527072906, -3.2715651988983154, 0.25485342741012573, 0.3126945495605469, -0.4299374222755432, 0, 0, 0, 0, 0, 0, 9362.0, 30146.0, 35388.0, 9362.0, 8.370248794555664, 0.08644510805606842, -0.14126618206501007, 0.2476402372121811, 0.0014461197424679995, -0.06234171614050865, 0.9997416138648987, -0.06712203472852707, -0.09335899353027344, 1.48828125, 1.382080078125, 0.0256195068359375, 1.49560546875, 1.386474609375, 10.0, 1.4736884832382202, 1.5, 1.4736884832382202
16548, -1.7422850131988525, -1.5219483375549316, 2.2203924655914307, 0.12987223267555237, 0.15887774527072906, -3.2715651988983154, 0.25485342741012573, 0.3126945495605469, -0.4299374222755432, 0, 0, 0, 0, 0, 0, 9362.0, 30146.0, 35388.0, 9362.0, 8.370248794555664, 0.08249284327030182, -0.022711552679538727, 0.25382813811302185, 0.0014461197424679995, -0.06234171614050865, 0.9997416138648987, -0.06712203472852707, -0.09335899353027344, 1.48828125, 1.436279296875, 0.0838775634765625, 1.49560546875, 1.27587890625, 10.0, 1.4736884832382202, 1.5, 1.4736884832382202
16568, -1.741438865661621, -1.5218191146850586, 2.2201151847839355, 0.12987223267555237, 0.15887774527072906, -3.2715651988983154, 0.25485342741012573, 0.3126945495605469, -0.4299374222755432, 0, 0, 0, 0, 0, 0, 9362.0, 30146.0, 35388.0, 9362.0, 8.370248794555664, -0.0010373421246185899, 0.015220722183585167, 0.1618412882089615, 0.0013458793982863426, -0.06295990943908691, 0.997790515422821, -0.06146950274705887, -0.05751800537109375, 1.4912109375, 1.38427734375, 0.027099609375, 1.489013671875, 1.44873046875, 10.0, 1.4736884832382202, 1.5, 1.4736884832382202
16578, -1.7410072088241577, -1.5217037200927734, 2.220435619354248, 0.12987223267555237, 0.15887774527072906, -3.2715651988983154, 0.25485342741012573, 0.3126945495605469, -0.4299374222755432, 0, 0, 0, 0, 0, 0, 9362.0, 30146.0, 35388.0, 9362.0, 8.370248794555664, 0.04058607667684555, -0.2542901337146759, 0.3171837329864502, 0.0013458793982863426, -0.06295990943908691, 0.997790515422821, -0.06146950274705887, -0.05751800537109375, 1.4912109375, 1.105224609375, 1.202972412109375, 1.489013671875, 1.008544921875, 10.0, 1.4736884832382202, 1.5, 1.4736884832382202
