timeTick, roll, pitch, yaw, stateX, stateY, stateZ, stateVX, stateVY, stateVZ, otX0, otY0, otZ0, otRoll0, otPitch0, otYaw0, left wing, pitch motor, yaw motor, right wing, voltage, roll rate, pitch rate, yaw rate, A_x, A_y, A_z, current, i_raw, v_raw, airflow_voltage, airflow_speed, pot_Pitch, voltage_nKF, kFFx, volt_KF_vel, kP, volt_KF_pos
22883, 0.03670813888311386, 0.9212477803230286, 2.484647512435913, 0, 0, 0, 0, 0, 0, -0.797165036201477, -0.9799672961235046, 0.06200094521045685, -0.8585327183740301, 0.13392627941470892, -9.95152923877253, 0, 0, 0, 0, 0, 0, 0, 0, 0, 0, 0, 0, 0, 0, 0, 0, 0, 0, 0, 0, 0, 0
22893, 0.036820705980062485, 0.9199079871177673, 2.4847114086151123, 8.795520989224315e-05, 7.279474175447831e-06, -3.5035362243652344, 0.0005761933862231672, 4.5011245674686506e-05, -0.329804927110672, -0.7971509695053101, -0.979951798915863, 0.06198929250240326, -0.8522161384978495, 0.12157564532310516, -9.958411584942272, 9362.0, 30146.0, 35388.0, 9362.0, 0, 0.1692979782819748, -0.09322745352983475, -0.10878299176692963, 0.0031479543540626764, -0.06909675896167755, 0.998390257358551, 0, 0, 0, 0, 0, 0, 0, 0, 0, 0, 0
22903, 0.037295978516340256, 0.9192902445793152, 2.4835734367370605, 8.586559124523774e-05, 7.074889253999572e-06, -3.5068352222442627, -0.0009941206080839038, -8.592987433075905e-05, -0.3299885392189026, -0.7971483469009399, -0.9799962639808655, 0.061987072229385376, -0.8601313419606006, 0.12758959491711153, -9.933124959908545, 9362.0, 30146.0, 35388.0, 9362.0, 0, -0.1336803436279297, 0.21942028403282166, 0.17883850634098053, 0.0042000324465334415, -0.07220414280891418, 0.998128354549408, 0, 0, 0, 1.379150390625, 0.0238189697265625, 0, 1.263427734375, 10.0, 1.3885293006896973, 1.5, 1.3885293006896973
22913, 0.03723006695508957, 0.9202428460121155, 2.4843199253082275, 6.808315811213106e-05, 5.560323188547045e-06, -3.5101358890533447, -0.0025623708497732878, -0.00021695108443964273, -0.3301577866077423, -0.7971575856208801, -0.9799573421478271, 0.0620141327381134, -0.8536455718810482, 0.12483993842209884, -9.96582433639586, 9362.0, 30146.0, 35388.0, 9362.0, 0, -0.07211358100175858, -0.3640253245830536, -0.2719373404979706, 0.005461354274302721, -0.07174171507358551, 0.9990938901901245, 0, 0, 0, 1.341796875, 0.0162811279296875, 1.4970703125, 1.363037109375, 10.0, 1.387607455253601, 1.5, 1.387607455253601
22923, 0.0371873565018177, 0.9212574362754822, 2.4818532466888428, 3.462351014604792e-05, 2.7318583306623623e-06, -3.5134382247924805, -0.0041295550763607025, -0.0003487624635454267, -0.3303249776363373, -0.7971628904342651, -0.9799520969390869, 0.061982378363609314, -0.8510425590770991, 0.12921408060623207, -9.964343079398063, 9362.0, 30146.0, 35388.0, 9362.0, 0, 0.023858940228819847, 0.009920156560838223, 0.12705720961093903, 0.004855661187320948, -0.07106144726276398, 0.9998252987861633, 0, 0, 0, 1.541748046875, 0.2835540771484375, 1.4970703125, 1.169677734375, 10.0, 1.3879088163375854, 1.5, 1.3879088163375854
22933, 0.036885958164930344, 0.9218241572380066, 2.4812204837799072, -1.4522018318530172e-05, -1.4151059986033943e-06, -3.516741991043091, -0.005699554458260536, -0.0004805628559552133, -0.3304188549518585, -0.7971424460411072, -0.9799362421035767, 0.06198152154684067, -0.8512507450264034, 0.13212486250776578, -9.952476825353212, 9362.0, 30146.0, 35388.0, 9362.0, 0, 0.14957374334335327, 0.15711398422718048, 0.04680456221103668, 0.004609099123626947, -0.07111774384975433, 0.9981275200843811, 0, 0, 0, 1.0869140625, 1.4374237060546875, 1.4912109375, 1.5205078125, 10.0, 1.388450264930725, 1.5, 1.388450264930725
22943, 0.03794889524579048, 0.9197888970375061, 2.481539726257324, -7.937712507555261e-05, -6.879820830363315e-06, -3.5200467109680176, -0.007271467708051205, -0.0006123629282228649, -0.33050182461738586, -0.7971693873405457, -0.9799535274505615, 0.0619681179523468, -0.8383535801455286, 0.13245802762031644, -9.977153526203743, 9362.0, 30146.0, 35388.0, 9362.0, 0, -0.030549366027116776, 0.1666249781847, 0.06453428417444229, 0.0030061083380132914, -0.06924477964639664, 0.9968441724777222, 0, 0, 0, 1.42529296875, 0.0688018798828125, 1.4912109375, 1.594482421875, 10.0, 1.3877110481262207, 1.5, 1.3877110481262207
22953, 0.03766622394323349, 0.9198952913284302, 2.4820711612701416, -0.00015994368004612625, -1.3659027899848297e-05, -3.523352861404419, -0.008841854520142078, -0.0007434839499182999, -0.3307422697544098, -0.7971422672271729, -0.9799458384513855, 0.06200343742966652, -0.8502558871842932, 0.13983445750844226, -9.96057319709391, 9362.0, 30146.0, 35388.0, 9362.0, 0, -0.007341472897678614, -0.04057072475552559, -0.005877048708498478, 0.00391894718632102, -0.07026634365320206, 0.9984424114227295, 0, 0, 0, 1.1953125, 0.4109344482421875, 1.489013671875, 1.323486328125, 10.0, 1.3869223594665527, 1.5, 1.3869223594665527
22963, 0.03748364374041557, 0.9205249547958374, 2.4808905124664307, -0.00025619022198952734, -2.175728695874568e-05, -3.5266618728637695, -0.01040745060890913, -0.0008761839126236737, -0.33105915784835815, -0.7971364259719849, -0.9799531698226929, 0.06198712810873985, -0.8429457873726666, 0.13022277051084075, -9.946790593377004, 9362.0, 30146.0, 35388.0, 9362.0, 0, -0.12222480773925781, -0.2438303530216217, -0.22887101769447327, 0.005314330104738474, -0.07109285145998001, 0.9974731802940369, 0, 0, 0, 1.39892578125, 0.0390167236328125, 1.489013671875, 1.59375, 10.0, 1.3865947723388672, 1.5, 1.3865947723388672
22973, 0.03780036419630051, 0.922551155090332, 2.4791839122772217, -0.00036810507299378514, -3.118120730505325e-05, -3.529973268508911, -0.011975523084402084, -0.0010085680987685919, -0.331234335899353, -0.7971246838569641, -0.9799374341964722, 0.06201852858066559, -0.8525278101453496, 0.1311961792268619, -9.955454512655047, 9362.0, 30146.0, 35388.0, 9362.0, 0, 0.03614797443151474, 0.059927213937044144, 0.04352825507521629, 0.005643842741847038, -0.0695643424987793, 0.9977264404296875, 0, 0, 0, 1.281005859375, 0.0816650390625, 1.48828125, 1.418701171875, 10.0, 1.3871047496795654, 1.5, 1.3871047496795654
22983, 0.03846254572272301, 0.9207941889762878, 2.48047137260437, -0.0004956996999680996, -4.19269417761825e-05, -3.5332868099212646, -0.013543396256864071, -0.001140529871918261, -0.33148983120918274, -0.7971405386924744, -0.9799649715423584, 0.06200128793716431, -0.8514152639871341, 0.1369017841455502, -9.952988727323417, 9362.0, 30146.0, 35388.0, 9362.0, 8.390083312988281, -0.03316718339920044, -0.11944373697042465, -0.13359476625919342, 0.0023501357063651085, -0.06859859824180603, 0.9998113512992859, -0.07276827841997147, -0.2187976837158203, 1.47802734375, 1.53662109375, 0.27239990234375, 1.48828125, 1.399658203125, 10.0, 1.3876792192459106, 1.5, 1.3876792192459106
22993, 0.038630109280347824, 0.9209919571876526, 2.4808247089385986, -0.0006389941554516554, -5.3995841881260276e-05, -3.536602735519409, -0.015115498565137386, -0.0012732833856716752, -0.33169621229171753, -0.797123908996582, -0.9799609184265137, 0.06202417239546776, -0.8556191669972918, 0.1317775208389662, -9.95053320039864, 9362.0, 30146.0, 35388.0, 9362.0, 8.390083312988281, -0.07496219873428345, 0.1506415605545044, 0.03113514371216297, 0.002745821373537183, -0.06812479346990585, 1.0015925168991089, -0.07276827841997147, -0.2187976837158203, 1.47802734375, 1.400390625, 0.04034423828125, 1.494873046875, 1.367431640625, 10.0, 1.388388752937317, 1.5, 1.388388752937317
23003, 0.03959806635975838, 0.9200200438499451, 2.4790842533111572, -0.0007980124792084098, -6.739899254171178e-05, -3.53991961479187, -0.016688164323568344, -0.001407357514835894, -0.331677109003067, -0.7971770763397217, -0.9799829125404358, 0.061970874667167664, -0.8312169081497115, 0.1553612867158165, -9.950349497958756, 9362.0, 30146.0, 35388.0, 9362.0, 8.390083312988281, -0.046885814517736435, -0.003317957278341055, -0.041896969079971313, 0.0041770474053919315, -0.06949754804372787, 0.9989184141159058, -0.07276827841997147, -0.2187976837158203, 1.47802734375, 1.2568359375, 0.1420135498046875, 1.494873046875, 1.44580078125, 10.0, 1.3889849185943604, 1.5, 1.3889849185943604
23013, 0.038089100271463394, 0.9201318621635437, 2.480976104736328, -0.0009727658471092582, -8.214502304326743e-05, -3.5432357788085938, -0.018262512981891632, -0.001541803008876741, -0.33157336711883545, -0.7971385717391968, -0.9799440503120422, 0.062012966722249985, -0.8408577433049768, 0.13868094025582423, -9.95196361126773, 9362.0, 30146.0, 35388.0, 9362.0, 8.390083312988281, -0.08986952900886536, -0.19852186739444733, 0.16087526082992554, 0.004145369399338961, -0.06916937232017517, 0.9990286827087402, -0.07276827841997147, -0.2187976837158203, 1.47802734375, 1.51171875, 0.21942138671875, 1.49560546875, 1.06640625, 10.0, 1.3895010948181152, 1.5, 1.3895010948181152
23023, 0.03770771622657776, 0.922048807144165, 2.4812893867492676, -0.0011632369132712483, -9.82417186605744e-05, -3.5465521812438965, -0.01983170211315155, -0.0016775899566709995, -0.3316833972930908, -0.7971410751342773, -0.9799461960792542, 0.06200750172138214, -0.8497579396555969, 0.12928434238540376, -9.958887847222421, 9362.0, 30146.0, 35388.0, 9362.0, 8.390083312988281, -0.0569983534514904, 0.050821565091609955, 0.1999056190252304, 0.0022148096468299627, -0.07114531844854355, 0.998504102230072, -0.07276827841997147, -0.2187976837158203, 1.47802734375, 1.03125, 2.3380126953125, 1.49560546875, 1.4501953125, 10.0, 1.3899304866790771, 1.5, 1.3899304866790771
23033, 0.038021352142095566, 0.9242563247680664, 2.4806103706359863, -0.0013693987857550383, -0.00011568346963031217, -3.5498697757720947, -0.02140067145228386, -0.001810769783332944, -0.3318256735801697, -0.7971388697624207, -0.9799575209617615, 0.06201878935098648, -0.856513782763284, 0.13154002503648599, -9.951227348404226, 9362.0, 30146.0, 35388.0, 9362.0, 8.390083312988281, 0.08790788799524307, 0.18810126185417175, 0.0774836465716362, 0.003988264594227076, -0.07054508477449417, 0.9985320568084717, -0.07276827841997147, -0.2187976837158203, 1.47802734375, 1.47509765625, 0.147857666015625, 1.494873046875, 1.285400390625, 10.0, 1.3896360397338867, 1.5, 1.3896360397338867
23043, 0.03748847916722298, 0.923869788646698, 2.481177568435669, -0.001591268228366971, -0.00013445463264361024, -3.5531885623931885, -0.022973209619522095, -0.001943441922776401, -0.3319514989852905, -0.7971635460853577, -0.9799814820289612, 0.06200017035007477, -0.8274206227147936, 0.13454251635141645, -9.940538898433845, 9362.0, 30146.0, 35388.0, 9362.0, 8.390083312988281, 0.15617747604846954, -0.2822089195251465, 0.24068421125411987, 0.003952113911509514, -0.07004647701978683, 0.9980224370956421, -0.07276827841997147, -0.2187976837158203, 1.47802734375, 1.270751953125, 0.104522705078125, 1.494873046875, 1.513916015625, 10.0, 1.3891749382019043, 1.5, 1.3891749382019043
23053, 0.03771938756108284, 0.9242450594902039, 2.4826865196228027, -0.0018288769060745835, -0.00015455549873877317, -3.556509017944336, -0.024548515677452087, -0.0020767482928931713, -0.3321384787559509, -0.7971489429473877, -0.9799400568008423, 0.062017977237701416, -0.8482405333550843, 0.12170606569412712, -9.952358393941292, 9362.0, 30146.0, 35388.0, 9362.0, 8.390083312988281, -0.12123813480138779, 0.16131526231765747, -0.05068419501185417, 0.00381259573623538, -0.07044173032045364, 1.0000905990600586, -0.07276827841997147, -0.2187976837158203, 1.47802734375, 1.259033203125, 0.135589599609375, 1.49267578125, 1.56591796875, 10.0, 1.389097809791565, 1.5, 1.389097809791565
23063, 0.037308402359485626, 0.9241858124732971, 2.481682300567627, -0.0020822379738092422, -0.0001759850129019469, -3.559831142425537, -0.02612367272377014, -0.0022091958671808243, -0.33229586482048035, -0.7971453070640564, -0.979944109916687, 0.06200479716062546, -0.8498459486263147, 0.13382893210322777, -9.951851381339226, 9362.0, 30146.0, 35388.0, 9362.0, 8.390083312988281, 0.03203428536653519, -0.23096789419651031, 0.033567044883966446, 0.005289861001074314, -0.07059429585933685, 0.9982223510742188, -0.07276827841997147, -0.2187976837158203, 1.47802734375, 1.30810546875, 0.0388031005859375, 1.49267578125, 1.0166015625, 10.0, 1.3892616033554077, 1.5, 1.3892616033554077
23073, 0.03710921108722687, 0.927204430103302, 2.4833381175994873, -0.002351362258195877, -0.00019874205463565886, -3.563154458999634, -0.02770118974149227, -0.002342185005545616, -0.3323451280593872, -0.797161340713501, -0.9799737334251404, 0.0619983896613121, -0.8318543761690925, 0.15095381848766465, -9.949131427715262, 9362.0, 30146.0, 35388.0, 9362.0, 8.390083312988281, -0.3426402509212494, -0.3250211179256439, -0.14346811175346375, 0.004975791089236736, -0.07029835134744644, 0.9984815120697021, -0.07276827841997147, -0.2187976837158203, 1.47802734375, 1.365234375, 0.0175933837890625, 1.494140625, 1.304443359375, 10.0, 1.3890968561172485, 1.5, 1.3890968561172485
23083, 0.03681117296218872, 0.9282781481742859, 2.4822001457214355, -0.00263624987564981, -0.00022282435384113342, -3.566478967666626, -0.02927633374929428, -0.0024743201211094856, -0.33253738284111023, -0.7971503734588623, -0.9799907207489014, 0.06205502524971962, -0.832150342371846, 0.12903268066821738, -9.939515576650756, 9362.0, 30146.0, 35388.0, 9362.0, 8.390083312988281, 0.12505969405174255, 0.10331535339355469, 0.06322011351585388, 0.0033181477338075638, -0.07123196125030518, 0.9969279766082764, -0.07903748750686646, -0.2994365692138672, 1.471435546875, 1.171875, 0.5655364990234375, 1.494140625, 1.4970703125, 10.0, 1.3883074522018433, 1.5, 1.3883074522018433
23093, 0.036963000893592834, 0.9279473423957825, 2.48364520072937, -0.002936909906566143, -0.00024822723935358226, -3.56980562210083, -0.030855676159262657, -0.002606226596981287, -0.33278992772102356, -0.7970898151397705, -0.9799841642379761, 0.06218712776899338, -0.8363185682278093, 0.10464516800149681, -9.973119457072997, 9362.0, 30146.0, 35388.0, 9362.0, 8.390083312988281, -0.007747815456241369, -0.12135757505893707, -0.08969733864068985, 0.004414397291839123, -0.07189956307411194, 0.9991288781166077, -0.07903748750686646, -0.2994365692138672, 1.471435546875, 1.483154296875, 0.162841796875, 1.494140625, 1.24951171875, 10.0, 1.3872777223587036, 1.5, 1.3872777223587036
23103, 0.03707602992653847, 0.9292675852775574, 2.483121871948242, -0.0032533747144043446, -0.0002749470295384526, -3.573134660720825, -0.03243725746870041, -0.002737774048000574, -0.333018958568573, -0.797109842300415, -0.98001629114151, 0.062066659331321716, -0.8634686480195923, 0.10670010241028649, -9.916737527600736, 9362.0, 30146.0, 35388.0, 9362.0, 8.390083312988281, 0.0679691955447197, 0.09412261843681335, 0.02044173702597618, 0.004149940330535173, -0.07153364270925522, 1.0007964372634888, -0.07903748750686646, -0.2994365692138672, 1.471435546875, 1.52197265625, 0.2408599853515625, 1.494140625, 1.194580078125, 10.0, 1.3873175382614136, 1.5, 1.3873175382614136
23113, 0.03658287227153778, 0.9261361360549927, 2.4841184616088867, -0.0035856650210916996, -0.00030298472847789526, -3.576465129852295, -0.03402079641819, -0.0028697531670331955, -0.3330908417701721, -0.797124445438385, -0.9800428152084351, 0.062092579901218414, -0.8499140499850336, 0.11273407326140727, -9.912452947564251, 9362.0, 30146.0, 35388.0, 9362.0, 8.390083312988281, -0.16705605387687683, 0.1255471259355545, 0.08763396739959717, 0.005226858425885439, -0.07017017900943756, 0.99956876039505, -0.07903748750686646, -0.2994365692138672, 1.471435546875, 1.23486328125, 0.2174835205078125, 1.48828125, 1.474365234375, 10.0, 1.387086033821106, 1.5, 1.387086033821106
23123, 0.03657969459891319, 0.9252719879150391, 2.4847710132598877, -0.003933808300644159, -0.0003323441487737, -3.579796075820923, -0.035607900470495224, -0.00300216069445014, -0.3330814242362976, -0.7971304059028625, -0.9799413681030273, 0.062152400612831116, -0.7925618934272315, 0.1260674152792376, -9.97257562515998, 9362.0, 30146.0, 35388.0, 9362.0, 8.390083312988281, 0.10493767261505127, -0.09509830921888351, -0.44521385431289673, 0.005411296151578426, -0.06965593248605728, 0.9977279305458069, -0.07903748750686646, -0.2994365692138672, 1.471435546875, 1.447265625, 0.1004791259765625, 1.48828125, 1.3974609375, 10.0, 1.3875439167022705, 1.5, 1.3875439167022705
23133, 0.03646131604909897, 0.925176739692688, 2.482254981994629, -0.00429778965190053, -0.00036302185617387295, -3.58312726020813, -0.03718835115432739, -0.0031333996448665857, -0.3331547975540161, -0.7970871925354004, -0.9799742102622986, 0.06221562996506691, -0.7788111516482565, 0.13535301270059108, -9.993681313442526, 9362.0, 30146.0, 35388.0, 9362.0, 8.390083312988281, 0.10778072476387024, 0.18138425052165985, 0.07538536190986633, 0.004857332911342382, -0.06895966082811356, 0.996383011341095, -0.07903748750686646, -0.2994365692138672, 1.471435546875, 1.1923828125, 0.4285125732421875, 1.490478515625, 1.544677734375, 10.0, 1.3876465559005737, 1.5, 1.3876465559005737
23143, 0.03718588128685951, 0.9238200783729553, 2.4835171699523926, -0.004677552729845047, -0.00039501042920164764, -3.5864601135253906, -0.038764286786317825, -0.003264248138293624, -0.333416610956192, -0.7970625758171082, -0.979956865310669, 0.06222411245107651, -0.796536020358405, 0.11197577092772804, -9.992886100088525, 9362.0, 30146.0, 35388.0, 9362.0, 8.390083312988281, -0.03345096483826637, 0.4838814437389374, -0.1671486496925354, 0.004888770170509815, -0.06914771348237991, 0.9964466094970703, -0.07903748750686646, -0.2994365692138672, 1.471435546875, 1.5615234375, 0.3278350830078125, 1.490478515625, 1.556396484375, 10.0, 1.3864214420318604, 1.5, 1.3864214420318604
23153, 0.03694017976522446, 0.9215287566184998, 2.4819629192352295, -0.00507306819781661, -0.0004283055604901165, -3.5897960662841797, -0.040338777005672455, -0.003394810715690255, -0.3337586224079132, -0.7970804572105408, -0.9800126552581787, 0.062234122306108475, -0.8051367265009926, 0.11461261872750583, -9.96683300740594, 9362.0, 30146.0, 35388.0, 9362.0, 8.390083312988281, 0.12838153541088104, 0.05825335532426834, 0.1868937611579895, 0.00355443824082613, -0.07067471742630005, 0.9954965114593506, -0.07903748750686646, -0.2994365692138672, 1.471435546875, 1.5673828125, 0.3411102294921875, 1.494873046875, 1.105224609375, 10.0, 1.3867021799087524, 1.5, 1.3867021799087524
23163, 0.03818972781300545, 0.9214330315589905, 2.4814910888671875, -0.005484316498041153, -0.0004629121394827962, -3.593135356903076, -0.04191087186336517, -0.0035264678299427032, -0.33410364389419556, -0.7970690131187439, -0.979939877986908, 0.06220630556344986, -0.8028362669122706, 0.11155429961786467, -9.996399245121635, 9362.0, 30146.0, 35388.0, 9362.0, 8.390083312988281, 0.001891308929771185, 0.04301027953624725, 0.03615352138876915, 0.004583708010613918, -0.06989719718694687, 0.9980912804603577, -0.07903748750686646, -0.2994365692138672, 1.471435546875, 1.39599609375, 0.0362701416015625, 1.494873046875, 1.579833984375, 10.0, 1.3867745399475098, 1.5, 1.3867745399475098
23173, 0.0373191311955452, 0.9209582209587097, 2.481898307800293, -0.005911261308938265, -0.0004988317377865314, -3.5964784622192383, -0.04347807914018631, -0.003657430410385132, -0.3345102369785309, -0.7970699667930603, -0.9799951314926147, 0.06213577091693878, -0.8274122091506718, 0.12650459309060125, -9.954574922009858, 9362.0, 30146.0, 35388.0, 9362.0, 8.390083312988281, 0.03249477595090866, 0.0428338497877121, 0.03789344057440758, 0.004083808045834303, -0.07003385573625565, 0.9975347518920898, -0.07903748750686646, -0.2994365692138672, 1.471435546875, 1.535888671875, 0.2707366943359375, 1.49267578125, 0.901611328125, 10.0, 1.3870540857315063, 1.5, 1.3870540857315063
23183, 0.03792845457792282, 0.9210343956947327, 2.482239246368408, -0.006353893782943487, -0.000536072941031307, -3.5998246669769287, -0.045048389583826065, -0.0037908232770860195, -0.3347071707248688, -0.7970799207687378, -0.9799898862838745, 0.062123559415340424, -0.8316728756831647, 0.1267424955676404, -9.962824245499894, 9362.0, 30146.0, 35388.0, 9362.0, 8.390083312988281, 0.009951545856893063, 0.11254889518022537, -0.22495876252651215, 0.002797267399728298, -0.06870190054178238, 0.9972813725471497, -0.06755530089139938, -0.07543754577636719, 1.48974609375, 1.470703125, 0.1399383544921875, 1.49267578125, 1.5732421875, 10.0, 1.3858927488327026, 1.5, 1.3858927488327026
23193, 0.03744060546159744, 0.9211056232452393, 2.4802751541137695, -0.006812220439314842, -0.0005746401147916913, -3.603173017501831, -0.04661695286631584, -0.003922613803297281, -0.3349664509296417, -0.7970606684684753, -0.9799873232841492, 0.06222539022564888, -0.8171550518583014, 0.10506124651331561, -9.975145587413435, 9362.0, 30146.0, 35388.0, 9362.0, 8.390083312988281, 0.009951545856893063, 0.11254889518022537, -0.22495876252651215, 0.004454121924936771, -0.07089906930923462, 0.9994356632232666, -0.06755530089139938, -0.07543754577636719, 1.48974609375, 1.55419921875, 0.311279296875, 1.493408203125, 1.4970703125, 10.0, 1.3854728937149048, 1.5, 1.3854728937149048
23203, 0.03828565031290054, 0.9210012555122375, 2.4809811115264893, -0.006812220439314842, -0.0005746401147916913, -3.603173017501831, -0.04661695286631584, -0.003922613803297281, -0.3349664509296417, -0.7970868945121765, -0.9800107479095459, 0.06213371828198433, -0.8162378578118203, 0.13233757577069127, -9.950826635413948, 9362.0, 30146.0, 35388.0, 9362.0, 8.390083312988281, 0.009951545856893063, 0.11254889518022537, -0.22495876252651215, 0.004537974018603563, -0.06945861130952835, 0.9988903403282166, -0.06755530089139938, -0.07543754577636719, 1.48974609375, 1.55419921875, 0.311279296875, 1.493408203125, 1.50146484375, 10.0, 1.3848023414611816, 1.5, 1.3848023414611816
23213, 0.03756650909781456, 0.9204281568527222, 2.4839541912078857, -0.006812220439314842, -0.0005746401147916913, -3.603173017501831, -0.04661695286631584, -0.003922613803297281, -0.3349664509296417, -0.7970805764198303, -0.9799941778182983, 0.062148891389369965, -0.8276073716608217, 0.12823509858276338, -9.960931014433836, 9362.0, 30146.0, 35388.0, 9362.0, 8.390083312988281, 0.009951545856893063, 0.11254889518022537, -0.22495876252651215, 0.0035623859148472548, -0.06737364828586578, 0.9948641657829285, -0.06755530089139938, -0.07543754577636719, 1.48974609375, 1.0927734375, 1.3592987060546875, 1.493408203125, 1.513916015625, 10.0, 1.384555697441101, 1.5, 1.384555697441101
23223, 0.037457890808582306, 0.9215103983879089, 2.48544979095459, -0.006812220439314842, -0.0005746401147916913, -3.603173017501831, -0.04661695286631584, -0.003922613803297281, -0.3349664509296417, -0.7970894575119019, -0.9799937009811401, 0.06211777776479721, -0.8285050948895344, 0.13126634164720485, -9.9615586686361, 9362.0, 30146.0, 35388.0, 9362.0, 8.390083312988281, 0.03415921330451965, 0.18799006938934326, 0.001624877448193729, 0.0035623859148472548, -0.06737364828586578, 0.9948641657829285, -0.06755530089139938, -0.07543754577636719, 1.48974609375, 1.0927734375, 1.3592987060546875, 1.493408203125, 1.55712890625, 10.0, 1.384555697441101, 1.5, 1.384555697441101
23233, 0.038257449865341187, 0.9204924702644348, 2.483935594558716, -0.006812220439314842, -0.0005746401147916913, -3.603173017501831, -0.04661695286631584, -0.003922613803297281, -0.3349664509296417, -0.797054648399353, -0.9799540638923645, 0.06219673529267311, -0.7997854094446886, 0.11237232345905568, -10.004570109299586, 9362.0, 30146.0, 35388.0, 9362.0, 8.390083312988281, 0.03415921330451965, 0.18799006938934326, 0.001624877448193729, 0.003392314538359642, -0.06692007184028625, 1.0000884532928467, -0.06755530089139938, -0.07543754577636719, 1.48974609375, 1.142578125, 0.8070068359375, 1.493408203125, 1.53662109375, 10.0, 1.384112000465393, 1.5, 1.384112000465393
23243, 0.03878922760486603, 0.9193983674049377, 2.4826531410217285, -0.00933924876153469, -0.0007873560534790158, -3.6199469566345215, -0.0544598363339901, -0.0045852274633944035, -0.3362797498703003, -0.7970858216285706, -0.9799848198890686, 0.0621166005730629, -0.8365895937544624, 0.12411927116610855, -9.96191387279622, 9362.0, 30146.0, 35388.0, 9362.0, 8.390083312988281, 0.08766741305589676, 0.3573642671108246, 0.19004714488983154, 0.0050558168441057205, -0.06639276444911957, 1.0002721548080444, -0.06755530089139938, -0.07543754577636719, 1.48974609375, 1.142578125, 0.8070068359375, 1.493408203125, 1.53662109375, 10.0, 1.384112000465393, 1.5, 1.384112000465393
23253, 0.03865949064493179, 0.9166517853736877, 2.482886552810669, -0.00933924876153469, -0.0007873560534790158, -3.6199469566345215, -0.0544598363339901, -0.0045852274633944035, -0.3362797498703003, -0.7970505952835083, -0.9799559116363525, 0.0622120164334774, -0.8002281972972648, 0.12067455650773695, -9.998904013136801, 9362.0, 30146.0, 35388.0, 9362.0, 8.390083312988281, 0.16896279156208038, -0.02550853230059147, -0.2940869629383087, 0.0050558168441057205, -0.06639276444911957, 1.0002721548080444, -0.06755530089139938, -0.07543754577636719, 1.48974609375, 1.142578125, 0.8070068359375, 1.48974609375, 1.53662109375, 10.0, 1.384112000465393, 1.5, 1.384112000465393
23263, 0.03967199847102165, 0.9168481230735779, 2.482982873916626, -0.00933924876153469, -0.0007873560534790158, -3.6199469566345215, -0.0544598363339901, -0.0045852274633944035, -0.3362797498703003, -0.7970824837684631, -0.9799863696098328, 0.062182504683732986, -0.8001189666856124, 0.10702648683505345, -10.002202615865631, 9362.0, 30146.0, 35388.0, 9362.0, 8.390083312988281, 0.019553612917661667, 0.07987556606531143, 0.14913927018642426, 0.0050558168441057205, -0.06639276444911957, 1.0002721548080444, -0.06755530089139938, -0.07543754577636719, 1.48974609375, 1.304443359375, 0.043182373046875, 1.48974609375, 1.53662109375, 10.0, 1.3819149732589722, 1.5, 1.3819149732589722
23273, 0.03915984928607941, 0.919000506401062, 2.4831290245056152, -0.00933924876153469, -0.0007873560534790158, -3.6199469566345215, -0.0544598363339901, -0.0045852274633944035, -0.3362797498703003, -0.7970978617668152, -0.9800089001655579, 0.062132012099027634, -0.8256534752056508, 0.12985715267916476, -9.959060384709256, 9362.0, 30146.0, 35388.0, 9362.0, 8.390083312988281, 0.04129306599497795, -0.30356335639953613, -0.12271976470947266, 0.0050558168441057205, -0.06639276444911957, 1.0002721548080444, -0.06755530089139938, -0.07543754577636719, 1.48974609375, 1.043701171875, 2.110137939453125, 1.48974609375, 1.53662109375, 10.0, 1.3824474811553955, 1.5, 1.3824474811553955
23283, 0.03950530290603638, 0.920527994632721, 2.4822959899902344, -0.00933924876153469, -0.0007873560534790158, -3.6199469566345215, -0.0544598363339901, -0.0045852274633944035, -0.3362797498703003, -0.7970673441886902, -0.9799599051475525, 0.062230199575424194, -0.8014755782802537, 0.1059715688319045, -9.997142225131931, 9362.0, 30146.0, 35388.0, 9362.0, 8.390083312988281, 0.17576245963573456, 0.057288747280836105, 0.14531223475933075, 0.0050558168441057205, -0.06639276444911957, 1.0002721548080444, -0.06755530089139938, -0.07543754577636719, 1.48974609375, 1.043701171875, 2.110137939453125, 1.48974609375, 1.53662109375, 10.0, 1.3826204538345337, 1.5, 1.3826204538345337
23293, 0.04063547030091286, 0.9212436079978943, 2.4825267791748047, -0.00933924876153469, -0.0007873560534790158, -3.6199469566345215, -0.0544598363339901, -0.0045852274633944035, -0.3362797498703003, -0.7970982193946838, -0.9799998998641968, 0.06215262413024902, -0.8387233539238405, 0.13258097015631165, -9.959118485251553, 9362.0, 30146.0, 35388.0, 9362.0, 8.390083312988281, 0.11707106232643127, -0.0777919590473175, -0.11746788769960403, 0.0050558168441057205, -0.06639276444911957, 1.0002721548080444, -0.06755530089139938, -0.07543754577636719, 1.48974609375, 1.043701171875, 2.110137939453125, 1.494873046875, 1.53662109375, 10.0, 1.3826204538345337, 1.5, 1.3826204538345337
23303, 0.041325122117996216, 0.9218785762786865, 2.481224298477173, -0.012889008037745953, -0.0010866569355130196, -3.640139579772949, -0.0638618916273117, -0.005393545608967543, -0.33700206875801086, -0.7970678210258484, -0.9799519181251526, 0.06221827492117882, -0.8070288056168058, 0.11144002364019912, -10.000644190030934, 9362.0, 30146.0, 35388.0, 9362.0, 8.390083312988281, -0.1326136440038681, -0.1111181452870369, -0.1536610871553421, 0.0050558168441057205, -0.06639276444911957, 1.0002721548080444, -0.06755530089139938, -0.07543754577636719, 1.48974609375, 1.043701171875, 2.110137939453125, 1.494873046875, 1.53662109375, 10.0, 1.3836697340011597, 1.5, 1.3836697340011597
23323, 0.0411246158182621, 0.9199807643890381, 2.4806578159332275, -0.014197700656950474, -0.0011972894426435232, -3.6468801498413086, -0.06700760126113892, -0.005670280661433935, -0.3370811939239502, -0.7970917820930481, -0.9799866676330566, 0.06213366985321045, -0.8417766804296732, 0.12177903664951373, -9.961001644691143, 9362.0, 30146.0, 35388.0, 9362.0, 8.390083312988281, 0.28835898637771606, 0.005396467633545399, 0.011493956670165062, 0.004133075475692749, -0.0683404877781868, 1.0014476776123047, -0.06755530089139938, -0.07543754577636719, 1.48974609375, 0.929443359375, 4.8824920654296875, 1.494873046875, 1.53662109375, 10.0, 1.3839236497879028, 1.5, 1.3839236497879028
23333, 0.04123526066541672, 0.9211540818214417, 2.4799511432647705, -0.014197700656950474, -0.0011972894426435232, -3.6468801498413086, -0.06700760126113892, -0.005670280661433935, -0.3370811939239502, -0.7970792651176453, -0.9799550771713257, 0.06220055744051933, -0.8007580173239074, 0.1043620459602721, -10.008132624926228, 9362.0, 30146.0, 35388.0, 9362.0, 8.390083312988281, 0.04378124698996544, 0.08756711333990097, 0.15914057195186615, 0.004133075475692749, -0.0683404877781868, 1.0014476776123047, -0.06755530089139938, -0.07543754577636719, 1.48974609375, 0.929443359375, 4.8824920654296875, 1.493408203125, 1.53662109375, 10.0, 1.3842988014221191, 1.5, 1.3842988014221191
23343, 0.04245360940694809, 0.9182530641555786, 2.482012987136841, -0.015569320879876614, -0.0013134630862623453, -3.6536190509796143, -0.07015321403741837, -0.005947204772382975, -0.336859792470932, -0.7970700860023499, -0.9799851179122925, 0.0622062161564827, -0.814616294606344, 0.12060871180079857, -9.98115955215756, 9362.0, 30146.0, 35388.0, 9362.0, 8.390083312988281, 0.20362432301044464, -0.14756889641284943, 0.1427583396434784, 0.004133075475692749, -0.0683404877781868, 1.0014476776123047, -0.06755530089139938, -0.07543754577636719, 1.48974609375, 0.929443359375, 4.8824920654296875, 1.493408203125, 1.53662109375, 10.0, 1.384827971458435, 1.5, 1.384827971458435
23353, 0.043133512139320374, 0.9183716177940369, 2.48291015625, -0.015569320879876614, -0.0013134630862623453, -3.6536190509796143, -0.07015321403741837, -0.005947204772382975, -0.336859792470932, -0.7970796823501587, -0.9799544215202332, 0.06221412867307663, -0.7969473123242704, 0.1119650284227589, -10.001680040077233, 9362.0, 30146.0, 35388.0, 9362.0, 8.390083312988281, 0.02938764914870262, 0.07331883162260056, -0.1755826473236084, 0.004133075475692749, -0.0683404877781868, 1.0014476776123047, -0.06755530089139938, -0.07543754577636719, 1.48974609375, 0.929443359375, 4.8824920654296875, 1.493408203125, 1.53662109375, 10.0, 1.385138988494873, 1.5, 1.385138988494873
23363, 0.04233980178833008, 0.9186379909515381, 2.4821090698242188, -0.01700376346707344, -0.001435188576579094, -3.6603596210479736, -0.07328753173351288, -0.0062262448482215405, -0.3372446894645691, -0.7970747351646423, -0.9799845218658447, 0.06220613420009613, -0.8051514520446779, 0.11322895067027616, -9.985713063367113, 9362.0, 30146.0, 35388.0, 9362.0, 8.390083312988281, -0.14657726883888245, 0.066278375685215, -0.15490929782390594, 0.004133075475692749, -0.0683404877781868, 1.0014476776123047, -0.06755530089139938, -0.07543754577636719, 1.48974609375, 0.929443359375, 4.8824920654296875, 1.493408203125, 1.53662109375, 10.0, 1.3857100009918213, 1.5, 1.3857100009918213
23373, 0.042960964143276215, 0.9184151291847229, 2.4821252822875977, -0.01700376346707344, -0.001435188576579094, -3.6603596210479736, -0.07328753173351288, -0.0062262448482215405, -0.3372446894645691, -0.7971066832542419, -0.9799973368644714, 0.06212834268808365, -0.8260435090801901, 0.12718235268161493, -9.960519198864745, 9362.0, 30146.0, 35388.0, 9362.0, 8.390083312988281, -0.02371273934841156, -0.17549996078014374, -0.0636608898639679, 0.004133075475692749, -0.0683404877781868, 1.0014476776123047, -0.06755530089139938, -0.07543754577636719, 1.48974609375, 0.929443359375, 4.8824920654296875, 1.493408203125, 1.53662109375, 10.0, 1.3857100009918213, 1.5, 1.3857100009918213
23383, 0.04365421086549759, 0.9205783009529114, 2.480787992477417, -0.01700376346707344, -0.001435188576579094, -3.6603596210479736, -0.07328753173351288, -0.0062262448482215405, -0.3372446894645691, -0.7971232533454895, -0.9800094366073608, 0.06207321211695671, -0.787823240221513, 0.1504155488393053, -9.96662502765924, 9362.0, 30146.0, 35388.0, 9362.0, 8.390083312988281, -0.02371273934841156, -0.17549996078014374, -0.0636608898639679, 0.003947176970541477, -0.07163339108228683, 0.9997550249099731, -0.06755530089139938, -0.07543754577636719, 1.48974609375, 1.134521484375, 0.88360595703125, 1.493408203125, 1.50439453125, 10.0, 1.3857100009918213, 1.5, 1.3857100009918213
23393, 0.04415334016084671, 0.9202147722244263, 2.4803998470306396, -0.01700376346707344, -0.001435188576579094, -3.6603596210479736, -0.07328753173351288, -0.0062262448482215405, -0.3372446894645691, -0.797142744064331, -0.9799818992614746, 0.06205040216445923, -0.7625525874335404, 0.1641280329364747, -9.985882222036182, 9362.0, 30146.0, 35388.0, 9362.0, 8.390083312988281, -0.06903503835201263, -0.3068941533565521, 0.17010928690433502, 0.005056300200521946, -0.07168164849281311, 0.9967561960220337, -0.06755530089139938, -0.07543754577636719, 1.48974609375, 1.134521484375, 0.88360595703125, 1.496337890625, 1.50439453125, 10.0, 1.3857100009918213, 1.5, 1.3857100009918213
23403, 0.043453481048345566, 0.9218352437019348, 2.4804415702819824, -0.020060548558831215, -0.0016955408500507474, -3.6738603115081787, -0.07955622673034668, -0.0067925225012004375, -0.3376888632774353, -0.7970859408378601, -0.9799847602844238, 0.06211148947477341, -0.8339913754673267, 0.1293576010364177, -9.961468118533757, 9362.0, 30146.0, 35388.0, 9362.0, 8.390083312988281, 0.20754466950893402, -0.013966444879770279, -0.13370561599731445, 0.005326598417013884, -0.06950908899307251, 0.9969176650047302, -0.06755530089139938, -0.07543754577636719, 1.48974609375, 1.134521484375, 0.88360595703125, 1.496337890625, 1.50439453125, 10.0, 1.3857100009918213, 1.5, 1.3857100009918213
23413, 0.04414231330156326, 0.9219949245452881, 2.479628562927246, -0.020060548558831215, -0.0016955408500507474, -3.6738603115081787, -0.07955622673034668, -0.0067925225012004375, -0.3376888632774353, -0.7970705032348633, -0.9799724817276001, 0.06218462809920311, -0.7784518359355738, 0.13266959512563403, -9.97573234068504, 9362.0, 30146.0, 35388.0, 9362.0, 8.390083312988281, -0.08600717037916183, -0.2790682017803192, -0.11045124381780624, 0.004973539151251316, -0.06821347028017044, 0.9973716139793396, -0.06755530089139938, -0.07543754577636719, 1.48974609375, 1.435546875, 0.0829315185546875, 1.496337890625, 1.418701171875, 10.0, 1.3857100009918213, 1.5, 1.3857100009918213
23423, 0.04469848796725273, 0.9225912690162659, 2.4790539741516113, -0.020060548558831215, -0.0016955408500507474, -3.6738603115081787, -0.07955622673034668, -0.0067925225012004375, -0.3376888632774353, -0.7970638871192932, -0.9799527525901794, 0.06220516562461853, -0.8006104043774166, 0.12797206431949348, -10.00296555170827, 9362.0, 30146.0, 35388.0, 9362.0, 8.390083312988281, -0.06865036487579346, -0.14743056893348694, 0.15225301682949066, 0.004973539151251316, -0.06821347028017044, 0.9973716139793396, -0.06755530089139938, -0.07543754577636719, 1.48974609375, 1.435546875, 0.0829315185546875, 1.496337890625, 1.474365234375, 10.0, 1.3857100009918213, 1.5, 1.3857100009918213
23433, 0.04501684010028839, 0.9237366318702698, 2.4768314361572266, -0.020060548558831215, -0.0016955408500507474, -3.6738603115081787, -0.07955622673034668, -0.0067925225012004375, -0.3376888632774353, -0.7970932126045227, -0.9799792170524597, 0.0621306337416172, -0.832891051285356, 0.12735538783539369, -9.959048598569037, 9362.0, 30146.0, 35388.0, 9362.0, 8.390083312988281, -0.044116027653217316, 0.024863073602318764, -0.3398129940032959, 0.004973539151251316, -0.06821347028017044, 0.9973716139793396, -0.06755530089139938, -0.07543754577636719, 1.48974609375, 1.435546875, 0.0829315185546875, 1.493408203125, 1.474365234375, 10.0, 1.3857100009918213, 1.5, 1.3857100009918213
23443, 0.04450330510735512, 0.9242531657218933, 2.474294900894165, -0.020060548558831215, -0.0016955408500507474, -3.6738603115081787, -0.07955622673034668, -0.0067925225012004375, -0.3376888632774353, -0.7970617413520813, -0.9799361824989319, 0.06218547001481056, -0.7996768228099033, 0.11430239822794874, -9.996642188200596, 9362.0, 30146.0, 35388.0, 9362.0, 8.390083312988281, -0.044116027653217316, 0.024863073602318764, -0.3398129940032959, 0.006848082412034273, -0.06678760796785355, 0.99759441614151, -0.06755530089139938, -0.07543754577636719, 1.48974609375, 1.409912109375, 0.0501251220703125, 1.493408203125, 1.330810546875, 10.0, 1.3867241144180298, 1.5, 1.3867241144180298
23453, 0.04402436688542366, 0.9229670166969299, 2.4745662212371826, -0.020060548558831215, -0.0016955408500507474, -3.6738603115081787, -0.07955622673034668, -0.0067925225012004375, -0.3376888632774353, -0.7970708012580872, -0.9799806475639343, 0.06213972344994545, -0.8237694454658608, 0.13486651097630897, -9.953889854236266, 9362.0, 30146.0, 35388.0, 9362.0, 8.390083312988281, 0.33313697576522827, -0.03290172666311264, -0.3348338007926941, 0.003912832587957382, -0.06793201714754105, 0.9998976588249207, -0.06755530089139938, -0.07543754577636719, 1.48974609375, 1.409912109375, 0.0501251220703125, 1.49267578125, 1.330810546875, 10.0, 1.3867241144180298, 1.5, 1.3867241144180298
23463, 0.04468151926994324, 0.9232963919639587, 2.4742774963378906, -0.02511635422706604, -0.0021288974676281214, -3.694171190261841, -0.0889815241098404, -0.007655075751245022, -0.33913180232048035, -0.7971115112304688, -0.9799935817718506, 0.062096159905195236, -0.8206887595244273, 0.14013875254761388, -9.965693771680002, 9362.0, 30146.0, 35388.0, 9362.0, 8.390083312988281, -0.20057924091815948, -0.25549712777137756, 0.12871910631656647, 0.003635912900790572, -0.06751462072134018, 0.999315619468689, -0.06755530089139938, -0.07543754577636719, 1.48974609375, 1.409912109375, 0.0501251220703125, 1.49267578125, 1.330810546875, 10.0, 1.3867241144180298, 1.5, 1.3867241144180298
23473, 0.04379826784133911, 0.9237427711486816, 2.4737656116485596, -0.02511635422706604, -0.0021288974676281214, -3.694171190261841, -0.0889815241098404, -0.007655075751245022, -0.33913180232048035, -0.7971142530441284, -0.9799925088882446, 0.062102850526571274, -0.8327569506254099, 0.1481293840711828, -9.970203618906547, 9362.0, 30146.0, 35388.0, 9362.0, 8.390083312988281, 0.08167658746242523, 0.0892726331949234, -0.2098381370306015, 0.003635912900790572, -0.06751462072134018, 0.999315619468689, -0.06755530089139938, -0.07543754577636719, 1.48974609375, 1.409912109375, 0.0501251220703125, 1.494873046875, 1.330810546875, 10.0, 1.3867241144180298, 1.5, 1.3867241144180298
23483, 0.04351905360817909, 0.9225579500198364, 2.4724655151367188, -0.026927482336759567, -0.00228487397544086, -3.7009549140930176, -0.09213154017925262, -0.007943127304315567, -0.3392487168312073, -0.7971043586730957, -0.9799976944923401, 0.06209011748433113, -0.8295033302853202, 0.1401168229133134, -9.95872282773587, 9362.0, 30146.0, 35388.0, 9362.0, 8.390083312988281, 0.08167658746242523, 0.0892726331949234, -0.2098381370306015, 0.003635912900790572, -0.06751462072134018, 0.999315619468689, -0.07681645452976227, -0.06647872924804688, 1.490478515625, 1.409912109375, 0.0501251220703125, 1.494873046875, 1.330810546875, 10.0, 1.3867241144180298, 1.5, 1.3867241144180298
23493, 0.04335617274045944, 0.9227994680404663, 2.4725334644317627, -0.026927482336759567, -0.00228487397544086, -3.7009549140930176, -0.09213154017925262, -0.007943127304315567, -0.3392487168312073, -0.7970855236053467, -0.9799923300743103, 0.0620940737426281, -0.8296854851212536, 0.12801482516286455, -9.960369103215534, 9362.0, 30146.0, 35388.0, 9362.0, 8.390083312988281, 0.08167658746242523, 0.0892726331949234, -0.2098381370306015, 0.0044638593681156635, -0.06824880838394165, 0.9995346069335938, -0.07681645452976227, -0.06647872924804688, 1.490478515625, 1.409912109375, 0.0501251220703125, 1.494873046875, 1.58203125, 10.0, 1.3856467008590698, 1.5, 1.3856467008590698
23503, 0.04328503459692001, 0.9237135648727417, 2.4738640785217285, -0.026927482336759567, -0.00228487397544086, -3.7009549140930176, -0.09213154017925262, -0.007943127304315567, -0.3392487168312073, -0.7970990538597107, -0.9799913167953491, 0.06208500266075134, -0.8250175198790851, 0.13401340414438323, -9.963269259303518, 9362.0, 30146.0, 35388.0, 9362.0, 8.390083312988281, 0.08923539519309998, 0.2078128606081009, -0.0007999296649359167, 0.0044638593681156635, -0.06824880838394165, 0.9995346069335938, -0.07681645452976227, -0.06647872924804688, 1.490478515625, 1.409912109375, 0.0501251220703125, 1.494873046875, 1.49560546875, 10.0, 1.385341763496399, 1.5, 1.385341763496399
23513, 0.04440774396061897, 0.923088788986206, 2.4728498458862305, -0.026927482336759567, -0.00228487397544086, -3.7009549140930176, -0.09213154017925262, -0.007943127304315567, -0.3392487168312073, -0.7971060276031494, -0.9799929261207581, 0.06207238882780075, -0.8271835445180031, 0.13633893048020695, -9.962149351752856, 9362.0, 30146.0, 35388.0, 9362.0, 8.390083312988281, 0.08923539519309998, 0.2078128606081009, -0.0007999296649359167, 0.002205792348831892, -0.07091414928436279, 0.9961966872215271, -0.07681645452976227, -0.06647872924804688, 1.490478515625, 1.068603515625, 1.701080322265625, 1.494873046875, 1.519775390625, 10.0, 1.385498046875, 1.5, 1.385498046875
23523, 0.04364987462759018, 0.9231067299842834, 2.4735798835754395, -0.030738642439246178, -0.0026140050031244755, -3.7145369052886963, -0.0984259843826294, -0.008512652479112148, -0.33987483382225037, -0.7970958948135376, -0.9800429940223694, 0.06211400777101517, -0.8510858543041679, 0.12828654332972178, -9.939634795682265, 9362.0, 30146.0, 35388.0, 9362.0, 8.390083312988281, 0.12448334693908691, -0.1766265481710434, -0.0881791040301323, 0.004443108569830656, -0.06954573839902878, 0.9967050552368164, -0.07681645452976227, -0.06647872924804688, 1.490478515625, 1.068603515625, 1.701080322265625, 1.494873046875, 1.519775390625, 10.0, 1.385498046875, 1.5, 1.385498046875
23533, 0.0442235954105854, 0.9242978692054749, 2.4728598594665527, -0.030738642439246178, -0.0026140050031244755, -3.7145369052886963, -0.0984259843826294, -0.008512652479112148, -0.33987483382225037, -0.797111988067627, -0.9800208210945129, 0.062109239399433136, -0.815941817863784, 0.1390857444939968, -9.958855949993481, 9362.0, 30146.0, 35388.0, 9362.0, 8.390083312988281, 0.12448334693908691, -0.1766265481710434, -0.0881791040301323, 0.003920125309377909, -0.06797855347394943, 0.9975466132164001, -0.07681645452976227, -0.06647872924804688, 1.490478515625, 1.068603515625, 1.701080322265625, 1.494873046875, 1.541015625, 10.0, 1.3852133750915527, 1.5, 1.3852133750915527
23543, 0.04478799179196358, 0.925707221031189, 2.473345994949341, -0.030738642439246178, -0.0026140050031244755, -3.7145369052886963, -0.0984259843826294, -0.008512652479112148, -0.33987483382225037, -0.7970687747001648, -0.9799515604972839, 0.06217847764492035, -0.7931235500591428, 0.11865767910163072, -10.00112664984276, 9362.0, 30146.0, 35388.0, 9362.0, 8.390083312988281, 0.12842662632465363, 0.19720371067523956, -0.032881464809179306, 0.003920125309377909, -0.06797855347394943, 0.9975466132164001, -0.07681645452976227, -0.06647872924804688, 1.490478515625, 1.2802734375, 0.0831756591796875, 1.494873046875, 1.541015625, 10.0, 1.3852133750915527, 1.5, 1.3852133750915527
23553, 0.04493626207113266, 0.9249333739280701, 2.4725000858306885, -0.030738642439246178, -0.0026140050031244755, -3.7145369052886963, -0.0984259843826294, -0.008512652479112148, -0.33987483382225037, -0.7971048355102539, -0.9800480604171753, 0.06211339682340622, -0.8501799693066754, 0.12694849741248504, -9.931959058833698, 9362.0, 30146.0, 35388.0, 9362.0, 8.390083312988281, 0.12842662632465363, 0.19720371067523956, -0.032881464809179306, 0.004476672038435936, -0.07000715285539627, 0.9981136322021484, -0.07681645452976227, -0.06647872924804688, 1.490478515625, 1.44287109375, 0.0936279296875, 1.494873046875, 1.541015625, 10.0, 1.385040521621704, 1.5, 1.385040521621704
23563, 0.04356323927640915, 0.9245087504386902, 2.4711954593658447, -0.030738642439246178, -0.0026140050031244755, -3.7145369052886963, -0.0984259843826294, -0.008512652479112148, -0.33987483382225037, -0.7971016764640808, -0.9799877405166626, 0.062103401869535446, -0.8275356994789697, 0.12516824217610178, -9.964224300068611, 9362.0, 30146.0, 35388.0, 9362.0, 8.390083312988281, 0.12842662632465363, 0.19720371067523956, -0.032881464809179306, 0.00419188104569912, -0.06997228413820267, 0.9997559189796448, -0.07681645452976227, -0.06647872924804688, 1.490478515625, 1.44287109375, 0.0936279296875, 1.494873046875, 1.54248046875, 10.0, 1.384944200515747, 1.5, 1.384944200515747
23573, 0.043941546231508255, 0.9278424978256226, 2.4707021713256836, -0.030738642439246178, -0.0026140050031244755, -3.7145369052886963, -0.0984259843826294, -0.008512652479112148, -0.33987483382225037, -0.7970701456069946, -0.9799598455429077, 0.062148597091436386, -0.7932747432555197, 0.1273871729338225, -10.006827286010042, 9362.0, 30146.0, 35388.0, 9362.0, 8.390083312988281, 0.08069901913404465, -0.2524823248386383, -0.08858540654182434, 0.00419188104569912, -0.06997228413820267, 0.9997559189796448, -0.07681645452976227, -0.06647872924804688, 1.490478515625, 1.44287109375, 0.0936279296875, 1.493408203125, 1.54248046875, 10.0, 1.3846721649169922, 1.5, 1.3846721649169922
23583, 0.04471462219953537, 0.9273973703384399, 2.4701781272888184, -0.030738642439246178, -0.0026140050031244755, -3.7145369052886963, -0.0984259843826294, -0.008512652479112148, -0.33987483382225037, -0.7970947623252869, -0.9799925088882446, 0.062091998755931854, -0.8351665539401257, 0.12836808968148716, -9.960468710221027, 9362.0, 30146.0, 35388.0, 9362.0, 8.390083312988281, 0.08069901913404465, -0.2524823248386383, -0.08858540654182434, 0.00419188104569912, -0.06997228413820267, 0.9997559189796448, -0.08709962666034698, -0.1291980743408203, 1.4853515625, 1.228271484375, 0.2443389892578125, 1.493408203125, 1.54248046875, 10.0, 1.3846721649169922, 1.5, 1.3846721649169922
23593, 0.044254615902900696, 0.9280520081520081, 2.471820116043091, -0.030738642439246178, -0.0026140050031244755, -3.7145369052886963, -0.0984259843826294, -0.008512652479112148, -0.33987483382225037, -0.7971295118331909, -0.9800326824188232, 0.06205929443240166, -0.8028025458409943, 0.15397886137762384, -9.96753198896396, 9362.0, 30146.0, 35388.0, 9362.0, 8.390083312988281, 0.15443991124629974, 0.062421951442956924, 0.28348681330680847, 0.00419188104569912, -0.06997228413820267, 0.9997559189796448, -0.08709962666034698, -0.1291980743408203, 1.4853515625, 1.228271484375, 0.2443389892578125, 1.493408203125, 1.54248046875, 10.0, 1.3846721649169922, 1.5, 1.3846721649169922
23603, 0.04617512598633766, 0.9266573786735535, 2.4730331897735596, -0.030738642439246178, -0.0026140050031244755, -3.7145369052886963, -0.0984259843826294, -0.008512652479112148, -0.33987483382225037, -0.7971025705337524, -0.9799914956092834, 0.06208277866244316, -0.8223133922697483, 0.13840735649304747, -9.968837753457944, 9362.0, 30146.0, 35388.0, 9362.0, 8.390083312988281, 0.09850883483886719, 0.2757965624332428, -0.19261500239372253, 0.00419188104569912, -0.06997228413820267, 0.9997559189796448, -0.08709962666034698, -0.1291980743408203, 1.4853515625, 1.238525390625, 0.20343017578125, 1.493408203125, 1.54248046875, 10.0, 1.3846721649169922, 1.5, 1.3846721649169922
23613, 0.045623861253261566, 0.927443265914917, 2.4725279808044434, -0.030738642439246178, -0.0026140050031244755, -3.7145369052886963, -0.0984259843826294, -0.008512652479112148, -0.33987483382225037, -0.7970730662345886, -0.9799454212188721, 0.06215030699968338, -0.7884120021720309, 0.12647139584149159, -10.000787428430503, 9362.0, 30146.0, 35388.0, 9362.0, 8.390083312988281, 0.09850883483886719, 0.2757965624332428, -0.19261500239372253, 0.00419188104569912, -0.06997228413820267, 0.9997559189796448, -0.08709962666034698, -0.1291980743408203, 1.4853515625, 1.25390625, 0.1508331298828125, 1.493408203125, 1.54248046875, 10.0, 1.3846721649169922, 1.5, 1.3846721649169922
23623, 0.04601658135652542, 0.9277328848838806, 2.472595691680908, -0.041368864476680756, -0.0035371447447687387, -3.7486283779144287, -0.11420223116874695, -0.009954722598195076, -0.34140560030937195, -0.7970833778381348, -0.9799559116363525, 0.06216111034154892, -0.7920237637862884, 0.12465915225112667, -10.004921806969143, 9362.0, 30146.0, 35388.0, 9362.0, 8.390083312988281, 0.01121700368821621, 0.09994146972894669, -0.06675921380519867, 0.00419188104569912, -0.06997228413820267, 0.9997559189796448, -0.08709962666034698, -0.1291980743408203, 1.4853515625, 1.25390625, 0.1508331298828125, 1.493408203125, 1.54248046875, 10.0, 1.3846721649169922, 1.5, 1.3846721649169922
23633, 0.04574284330010414, 0.9280102849006653, 2.474005699157715, -0.041368864476680756, -0.0035371447447687387, -3.7486283779144287, -0.11420223116874695, -0.009954722598195076, -0.34140560030937195, -0.7970849871635437, -0.9799560904502869, 0.06216491386294365, -0.804597242172856, 0.11474485512832189, -10.00421979947142, 9362.0, 30146.0, 35388.0, 9362.0, 8.390083312988281, -0.05748595669865608, 0.18887236714363098, 0.195506289601326, 0.00419188104569912, -0.06997228413820267, 0.9997559189796448, -0.08709962666034698, -0.1291980743408203, 1.4853515625, 1.177001953125, 0.52899169921875, 1.493408203125, 1.54248046875, 10.0, 1.3846721649169922, 1.5, 1.3846721649169922
23643, 0.04583087936043739, 0.9259275197982788, 2.4756245613098145, -0.04368447884917259, -0.003739165375009179, -3.755462169647217, -0.11735926568508148, -0.010247666388750076, -0.34201765060424805, -0.7971274256706238, -0.9799789190292358, 0.062100790441036224, -0.8308174023160713, 0.13651114117874386, -9.97857455042052, 9362.0, 30146.0, 35388.0, 9362.0, 8.390083312988281, -0.0761256068944931, 0.16713304817676544, 0.09530026465654373, 0.00419188104569912, -0.06997228413820267, 0.9997559189796448, -0.08709962666034698, -0.1291980743408203, 1.4853515625, 1.177001953125, 0.52899169921875, 1.493408203125, 1.54248046875, 10.0, 1.3883652687072754, 1.5, 1.3883652687072754
23653, 0.04685160517692566, 0.9240884780883789, 2.4761927127838135, -0.04368447884917259, -0.003739165375009179, -3.755462169647217, -0.11735926568508148, -0.010247666388750076, -0.34201765060424805, -0.7971150279045105, -0.9800465106964111, 0.062104012817144394, -0.8412893309386831, 0.1325109328323606, -9.943542988668858, 9362.0, 30146.0, 35388.0, 9362.0, 8.390083312988281, 0.2798084020614624, -0.16377192735671997, -0.2103671431541443, 0.00419188104569912, -0.06997228413820267, 0.9997559189796448, -0.08709962666034698, -0.1291980743408203, 1.4853515625, 1.177001953125, 0.52899169921875, 1.4970703125, 1.54248046875, 10.0, 1.3888821601867676, 1.5, 1.3888821601867676
23663, 0.04768817871809006, 0.9236271977424622, 2.4763596057891846, -0.046063266694545746, -0.0039470503106713295, -3.7623066902160645, -0.12051758170127869, -0.010540863499045372, -0.34241819381713867, -0.7970868945121765, -0.9799554944038391, 0.062172383069992065, -0.7967024936044586, 0.12249911525006496, -10.012697598405207, 9362.0, 30146.0, 35388.0, 9362.0, 8.390083312988281, 0.01204025000333786, 0.4139503836631775, 0.35495877265930176, 0.00419188104569912, -0.06997228413820267, 0.9997559189796448, -0.08709962666034698, -0.1291980743408203, 1.4853515625, 1.177001953125, 0.52899169921875, 1.4970703125, 1.54248046875, 10.0, 1.389441967010498, 1.5, 1.389441967010498
23673, 0.046923354268074036, 0.9221631288528442, 2.4782276153564453, -0.046063266694545746, -0.0039470503106713295, -3.7623066902160645, -0.12051758170127869, -0.010540863499045372, -0.34241819381713867, -0.7971055507659912, -0.9799962639808655, 0.062109630554914474, -0.8263866333424504, 0.1301474079807292, -9.96648815386808, 9362.0, 30146.0, 35388.0, 9362.0, 8.390083312988281, 0.12522512674331665, -0.13699638843536377, 0.0326383076608181, 0.004248591139912605, -0.0702422559261322, 0.9968167543411255, -0.08709962666034698, -0.1291980743408203, 1.4853515625, 1.50439453125, 0.2044219970703125, 1.4970703125, 1.3681640625, 10.0, 1.389441967010498, 1.5, 1.389441967010498
23693, 0.046875808387994766, 0.9235057830810547, 2.476646900177002, -0.046063266694545746, -0.0039470503106713295, -3.7623066902160645, -0.12051758170127869, -0.010540863499045372, -0.34241819381713867, -0.7971109747886658, -0.9800015091896057, 0.06210539862513542, -0.8331426078967007, 0.12326295775099538, -9.96720147212826, 9362.0, 30146.0, 35388.0, 9362.0, 8.390083312988281, 0.2311144471168518, -0.11783674359321594, -0.04897444695234299, 0.0028204843401908875, -0.07082101702690125, 0.9975773096084595, -0.06214947998523712, -0.030637741088867188, 1.493408203125, 1.50439453125, 0.2044219970703125, 1.4970703125, 1.54541015625, 10.0, 1.389441967010498, 1.5, 1.389441967010498
23703, 0.0474834181368351, 0.9245082139968872, 2.475022077560425, -0.046063266694545746, -0.0039470503106713295, -3.7623066902160645, -0.12051758170127869, -0.010540863499045372, -0.34241819381713867, -0.7971012592315674, -0.980036199092865, 0.062082450836896896, -0.8457931098889429, 0.1346155419875572, -9.946547519766675, 9362.0, 30146.0, 35388.0, 9362.0, 8.390083312988281, -0.16416749358177185, -0.3555833101272583, -0.02728934958577156, 0.0028204843401908875, -0.07082101702690125, 0.9975773096084595, -0.06214947998523712, -0.030637741088867188, 1.493408203125, 1.50439453125, 0.2044219970703125, 1.4970703125, 1.5732421875, 10.0, 1.3893486261367798, 1.5, 1.3893486261367798
23713, 0.047332219779491425, 0.9253653883934021, 2.4739670753479004, -0.046063266694545746, -0.0039470503106713295, -3.7623066902160645, -0.12051758170127869, -0.010540863499045372, -0.34241819381713867, -0.797105610370636, -0.9799886345863342, 0.062102995812892914, -0.8325893674383105, 0.1359696294657624, -9.962177665309978, 9362.0, 30146.0, 35388.0, 9362.0, 8.390083312988281, -0.046802818775177, 0.08517717570066452, 0.27584370970726013, 0.004008944611996412, -0.0710035189986229, 0.9983556866645813, -0.06214947998523712, -0.030637741088867188, 1.493408203125, 1.078125, 1.5602264404296875, 1.4970703125, 1.42529296875, 10.0, 1.3893486261367798, 1.5, 1.3893486261367798
23723, 0.047557368874549866, 0.9237114191055298, 2.4751219749450684, -0.046063266694545746, -0.0039470503106713295, -3.7623066902160645, -0.12051758170127869, -0.010540863499045372, -0.34241819381713867, -0.7971099615097046, -0.9799954295158386, 0.062098387628793716, -0.8333178490885131, 0.1294914357168011, -9.968801497484435, 9362.0, 30146.0, 35388.0, 9362.0, 8.390083312988281, 0.3215775489807129, 0.02597656473517418, -0.0003073429688811302, 0.0041643171571195126, -0.06859690696001053, 0.9974244832992554, -0.06214947998523712, -0.030637741088867188, 1.493408203125, 1.078125, 1.5602264404296875, 1.4970703125, 1.41357421875, 10.0, 1.3893486261367798, 1.5, 1.3893486261367798
23733, 0.04813501611351967, 0.9254071116447449, 2.474921226501465, -0.046063266694545746, -0.0039470503106713295, -3.7623066902160645, -0.12051758170127869, -0.010540863499045372, -0.34241819381713867, -0.7971106767654419, -0.980000913143158, 0.06209719926118851, -0.8307564991193404, 0.13466180947872886, -9.962820255133302, 9362.0, 30146.0, 35388.0, 9362.0, 8.390083312988281, -0.022346097975969315, -0.02672354318201542, -0.30945760011672974, 0.0041643171571195126, -0.06859690696001053, 0.9974244832992554, -0.06214947998523712, -0.030637741088867188, 1.493408203125, 1.078125, 1.5602264404296875, 1.4970703125, 1.475830078125, 10.0, 1.3893486261367798, 1.5, 1.3893486261367798
23743, 0.04848508909344673, 0.926650881767273, 2.4733972549438477, -0.05620771646499634, -0.004837859887629747, -3.789785861968994, -0.1330968737602234, -0.011730420403182507, -0.3445349633693695, -0.7971453070640564, -0.9799609780311584, 0.062099389731884, -0.8189733647711989, 0.10413522929121655, -9.979347603096237, 9362.0, 30146.0, 35388.0, 9362.0, 8.390083312988281, -0.18526482582092285, -0.07644617557525635, 0.09525452554225922, 0.0041643171571195126, -0.06859690696001053, 0.9974244832992554, -0.06214947998523712, -0.030637741088867188, 1.493408203125, 1.078125, 1.5602264404296875, 1.4970703125, 1.475830078125, 10.0, 1.3893486261367798, 1.5, 1.3893486261367798
23753, 0.04666239395737648, 0.9260637760162354, 2.4745616912841797, -0.05620771646499634, -0.004837859887629747, -3.789785861968994, -0.1330968737602234, -0.011730420403182507, -0.3445349633693695, -0.7972052097320557, -0.9800047874450684, 0.06198716163635254, -0.8703275433580405, 0.11659733572150799, -9.924365794329795, 9362.0, 30146.0, 35388.0, 9362.0, 8.390083312988281, -0.13072775304317474, -0.4338618218898773, 0.062422994524240494, 0.0041643171571195126, -0.06859690696001053, 0.9974244832992554, -0.06214947998523712, -0.030637741088867188, 1.493408203125, 1.354248046875, 0.0154266357421875, 1.4970703125, 1.36669921875, 10.0, 1.3893486261367798, 1.5, 1.3893486261367798
23763, 0.04611511528491974, 0.9279545545578003, 2.4737675189971924, -0.058901190757751465, -0.005075480323284864, -3.7966806888580322, -0.13625258207321167, -0.012032085098326206, -0.3448761999607086, -0.7971463203430176, -0.9800014495849609, 0.061988674104213715, -0.8635809545372436, 0.13492168434555651, -9.949275233496417, 9362.0, 30146.0, 35388.0, 9362.0, 8.390083312988281, -0.13072775304317474, -0.4338618218898773, 0.062422994524240494, 0.004004487302154303, -0.06928770244121552, 0.9998074173927307, -0.06214947998523712, -0.030637741088867188, 1.493408203125, 1.354248046875, 0.0154266357421875, 1.4970703125, 1.282470703125, 10.0, 1.389940619468689, 1.5, 1.389940619468689
23773, 0.04538114741444588, 0.927866518497467, 2.473874092102051, -0.058901190757751465, -0.005075480323284864, -3.7966806888580322, -0.13625258207321167, -0.012032085098326206, -0.3448761999607086, -0.7971545457839966, -0.9799625873565674, 0.06198897957801819, -0.8561618888840624, 0.13262665365354565, -9.969861649577338, 9362.0, 30146.0, 35388.0, 9362.0, 8.390083312988281, 0.09268733859062195, -0.2843974530696869, 0.016269810497760773, 0.004004487302154303, -0.06928770244121552, 0.9998074173927307, -0.06214947998523712, -0.030637741088867188, 1.493408203125, 1.354248046875, 0.0154266357421875, 1.4970703125, 1.529296875, 10.0, 1.389102578163147, 1.5, 1.389102578163147
23793, 0.04594647139310837, 0.925567090511322, 2.472351551055908, -0.06165788322687149, -0.005319084040820599, -3.8035776615142822, -0.13941727578639984, -0.012327820993959904, -0.3448847532272339, -0.7971581816673279, -0.9799672365188599, 0.06199980154633522, -0.8547954749489513, 0.12699695278422496, -9.963495611029495, 9362.0, 30146.0, 35388.0, 9362.0, 8.390083312988281, -0.2163585126399994, 0.2951294183731079, 0.10846900939941406, 0.005507353693246841, -0.07016247510910034, 0.9980438947677612, -0.06520749628543854, -0.2635974884033203, 1.474365234375, 1.354248046875, 0.0154266357421875, 1.4970703125, 1.48388671875, 10.0, 1.389102578163147, 1.5, 1.389102578163147
