timeTick, roll, pitch, yaw, stateX, stateY, stateZ, stateVX, stateVY, stateVZ, otX0, otY0, otZ0, otRoll0, otPitch0, otYaw0, left wing, pitch motor, yaw motor, right wing, voltage, roll rate, pitch rate, yaw rate, A_x, A_y, A_z, current, i_raw, v_raw, airflow_voltage, airflow_speed, pot_Pitch, voltage_nKF, kFFx, volt_KF_vel, kP, volt_KF_pos
20163, 2.4667322635650635, 0.2161732167005539, 0.6322293281555176, 0, 0, 0, 0, 0, 0, -0.802560031414032, -0.957731306552887, 0.06277322769165039, -0.5245079086972146, 0.7223674254867376, -4.030932999299182, 0, 0, 0, 0, 0, 0, 0, 0, 0, 0, 0, 0, 0, 0, 0, 0, 0, 0, 0, 0, 0, 0
20173, 2.467827796936035, 0.2148342728614807, 0.6322202682495117, 4.104575054952875e-05, 0.0005524075822904706, -5.328498840332031, 0.0008875529165379703, 0.012080827727913857, -0.5742851495742798, -0.8025181889533997, -0.957737922668457, 0.06281127035617828, -0.5111685616910868, 0.6928459327599228, -4.052581122426561, 9362.0, 30146.0, 35388.0, 9362.0, 0, 0.07881506532430649, 0.03944220021367073, 0.2742611765861511, 0.008121352642774582, -0.06555020064115524, 0.998535692691803, 0, 0, 0, 0, 0, 0, 0, 0, 0, 0, 0
20183, 2.4675791263580322, 0.21724185347557068, 0.6333739161491394, 4.8309000703739e-05, 0.0006521327304653823, -5.334243297576904, 0.0005650902749039233, 0.00786421075463295, -0.5745933055877686, -0.8024919033050537, -0.9577250480651855, 0.06283290684223175, -0.5091330902814525, 0.7071325684476051, -4.0534247573284, 9362.0, 30146.0, 35388.0, 9362.0, 0, -0.1920914351940155, -0.15547654032707214, 0.20366497337818146, 0.007867659442126751, -0.06548111885786057, 0.9970541596412659, 0, 0, 0, 1.530029296875, 0.2581329345703125, 0, 1.541015625, 10.0, 1.4837795495986938, 1.5, 1.4837795495986938
20193, 2.467775821685791, 0.21841393411159515, 0.6354550719261169, 5.2359388064360246e-05, 0.0007096856134012341, -5.339990615844727, 0.0002450852480251342, 0.003646359546110034, -0.5749160051345825, -0.8025055527687073, -0.9577359557151794, 0.06283359974622726, -0.5069186117426162, 0.7130489617771048, -4.052378974854554, 9362.0, 30146.0, 35388.0, 9362.0, 0, 0.032753244042396545, -0.11036761105060577, 0.0032839709892868996, 0.008630641736090183, -0.06634294241666794, 0.9995591044425964, 0, 0, 0, 1.58642578125, 0.3851776123046875, 1.493408203125, 1.58349609375, 10.0, 1.4829940795898438, 1.5, 1.4829940795898438
20203, 2.468348979949951, 0.216145858168602, 0.6345064043998718, 5.318801413523033e-05, 0.000725041376426816, -5.345740795135498, -7.920196367194876e-05, -0.0005752186407335103, -0.5751439332962036, -0.8025079965591431, -0.9577356576919556, 0.06285843253135681, -0.5099535295066265, 0.7023858116630777, -4.054369527773585, 9362.0, 30146.0, 35388.0, 9362.0, 0, 0.10265089571475983, 0.23065310716629028, -0.15704460442066193, 0.009146424941718578, -0.06636425852775574, 0.9946891665458679, 0, 0, 0, 1.447998046875, 0.1016693115234375, 1.493408203125, 1.34619140625, 10.0, 1.4820849895477295, 1.5, 1.4820849895477295
20213, 2.4672389030456543, 0.2165570855140686, 0.6340051293373108, 5.076661182101816e-05, 0.0006982063059695065, -5.351493835449219, -0.00040516169974580407, -0.004791780840605497, -0.5754960179328918, -0.8024994134902954, -0.9577251672744751, 0.06287210434675217, -0.5130062414571671, 0.7060261416680191, -4.04570779127166, 9362.0, 30146.0, 35388.0, 9362.0, 0, -0.045109353959560394, 0.21439912915229797, -0.12217958271503448, 0.009360964410007, -0.06350041925907135, 0.9970235824584961, 0, 0, 0, 1.33154296875, 0.0198516845703125, 1.4912109375, 1.505859375, 10.0, 1.4818475246429443, 1.5, 1.4818475246429443
20223, 2.4677703380584717, 0.21518510580062866, 0.6332491636276245, 4.510783401201479e-05, 0.0006292424513958395, -5.3572516441345215, -0.000726626836694777, -0.009000993333756924, -0.5760403871536255, -0.8025033473968506, -0.9577400088310242, 0.06283444911241531, -0.5111470426985029, 0.7059585718998562, -4.05238189378186, 9362.0, 30146.0, 35388.0, 9362.0, 0, 0.008150853216648102, -0.38723185658454895, 0.0798661932349205, 0.00839301198720932, -0.06462811678647995, 0.997650146484375, 0, 0, 0, 1.32861328125, 0.0214385986328125, 1.4912109375, 1.5673828125, 10.0, 1.4817184209823608, 1.5, 1.4817184209823608
20233, 2.4669134616851807, 0.21700604259967804, 0.6347119808197021, 3.622728036134504e-05, 0.000518152373842895, -5.363013744354248, -0.001049547572620213, -0.013217012397944927, -0.5763827562332153, -0.8025014400482178, -0.9577353596687317, 0.06282253563404083, -0.5039695468824961, 0.7077734976610373, -4.055575657322691, 9362.0, 30146.0, 35388.0, 9362.0, 0, -0.013431454077363014, 0.23085026443004608, 0.07269397377967834, 0.007902530953288078, -0.0649157240986824, 0.9964563846588135, 0, 0, 0, 1.576904296875, 0.36309814453125, 1.491943359375, 1.60546875, 10.0, 1.48185396194458, 1.5, 1.48185396194458
20243, 2.466132402420044, 0.2172268182039261, 0.6355651021003723, 2.412984031252563e-05, 0.0003649087739177048, -5.36877965927124, -0.0013698223046958447, -0.017431726679205894, -0.5767764449119568, -0.8025234341621399, -0.9577449560165405, 0.06285204738378525, -0.5093882574811777, 0.7049462236124953, -4.056955365960578, 9362.0, 30146.0, 35388.0, 9362.0, 0, -0.08380340039730072, -0.10842690616846085, 0.15336258709430695, 0.007270745933055878, -0.06377347558736801, 0.9985144138336182, 0, 0, 0, 1.50146484375, 0.1985626220703125, 1.491943359375, 1.634033203125, 10.0, 1.481189489364624, 1.5, 1.481189489364624
20253, 2.4649012088775635, 0.21757717430591583, 0.6361916065216064, 8.81481719261501e-06, 0.0001695282553555444, -5.374549388885498, -0.0016931178979575634, -0.021644381806254387, -0.5771845579147339, -0.8025262355804443, -0.9577459692955017, 0.06284330040216446, -0.5035232093369297, 0.6973195020093783, -4.0562078833697495, 9362.0, 30146.0, 35388.0, 9362.0, 0, -0.14223016798496246, -0.2149035930633545, -0.03482852876186371, 0.008406410925090313, -0.0634750947356224, 0.9988083839416504, 0, 0, 0, 1.524169921875, 0.2455596923828125, 1.494873046875, 1.223876953125, 10.0, 1.480751633644104, 1.5, 1.480751633644104
20263, 2.4647164344787598, 0.21610474586486816, 0.6367966532707214, -9.737719665281475e-06, -6.801019480917603e-05, -5.380322456359863, -0.0020173427183181047, -0.02586331032216549, -0.5774165391921997, -0.8025204539299011, -0.9577265381813049, 0.0628446713089943, -0.5086962638662257, 0.7048438584758117, -4.052090822554014, 9362.0, 30146.0, 35388.0, 9362.0, 8.152067184448242, 0.007617785595357418, 0.24554112553596497, -0.0987384244799614, 0.00906642060726881, -0.06707115471363068, 0.99842768907547, -0.05900837853550911, 0.10376167297363281, 1.50439453125, 1.5205078125, 0.237762451171875, 1.494873046875, 1.48828125, 10.0, 1.4812829494476318, 1.5, 1.4812829494476318
20273, 2.464313507080078, 0.21832911670207977, 0.6334371566772461, -3.1535819289274514e-05, -0.0003477330319583416, -5.386097431182861, -0.0023422387894243, -0.03008127398788929, -0.5776221752166748, -0.8024573922157288, -0.9577446579933167, 0.06293504685163498, -0.49903734267597893, 0.7073975802959751, -4.056808575905668, 9362.0, 30146.0, 35388.0, 9362.0, 8.152067184448242, 0.10049159824848175, -0.3031979203224182, -0.41477498412132263, 0.006991623900830746, -0.06511411815881729, 0.9964639544487, -0.05900837853550911, 0.10376167297363281, 1.50439453125, 1.5439453125, 0.2884979248046875, 1.491943359375, 1.22021484375, 10.0, 1.4805970191955566, 1.5, 1.4805970191955566
20283, 2.464099168777466, 0.22071130573749542, 0.6308653354644775, -5.656780558638275e-05, -0.0006696039345115423, -5.391875267028809, -0.0026643918827176094, -0.03429287299513817, -0.57796710729599, -0.8024678826332092, -0.9577363133430481, 0.0628940537571907, -0.49434941168506963, 0.7181971100496582, -4.065822437053448, 9362.0, 30146.0, 35388.0, 9362.0, 8.152067184448242, -0.08379707485437393, -0.36264339089393616, -0.34509578347206116, 0.00811542384326458, -0.06393788754940033, 0.9976245164871216, -0.05900837853550911, 0.10376167297363281, 1.50439453125, 1.37109375, 0.0197906494140625, 1.491943359375, 1.49560546875, 10.0, 1.4792636632919312, 1.5, 1.4792636632919312
20293, 2.464160203933716, 0.2215539515018463, 0.630241334438324, -8.484115824103355e-05, -0.0010335821425542235, -5.3976569175720215, -0.0029904539696872234, -0.038502756506204605, -0.5783364772796631, -0.8024770617485046, -0.9577508568763733, 0.06290245056152344, -0.5052683328176693, 0.7190707937974992, -4.05518703624536, 9362.0, 30146.0, 35388.0, 9362.0, 8.152067184448242, -0.11701495945453644, 0.16707558929920197, 0.03458159416913986, 0.01048362348228693, -0.06447332352399826, 0.9963738322257996, -0.05900837853550911, 0.10376167297363281, 1.50439453125, 1.576904296875, 0.36309814453125, 1.494873046875, 1.388671875, 10.0, 1.4795962572097778, 1.5, 1.4795962572097778
20303, 2.463207960128784, 0.22052156925201416, 0.6322409510612488, -0.00011639595322776586, -0.001439651707187295, -5.4034423828125, -0.003320545656606555, -0.04271113499999046, -0.5787333250045776, -0.8024798035621643, -0.9577485918998718, 0.06290218979120255, -0.49580912272252897, 0.7183531070895697, -4.065689339649135, 9362.0, 30146.0, 35388.0, 9362.0, 8.152067184448242, -0.09405450522899628, -0.17724965512752533, 0.28493472933769226, 0.011120948009192944, -0.06645575165748596, 0.9944840669631958, -0.05900837853550911, 0.10376167297363281, 1.50439453125, 1.576171875, 0.361328125, 1.494873046875, 1.352783203125, 10.0, 1.4798810482025146, 1.5, 1.4798810482025146
20313, 2.4626383781433105, 0.22163031995296478, 0.6330354809761047, -0.00015125628851819783, -0.0018877702532336116, -5.4092326164245605, -0.0036513847298920155, -0.04691258445382118, -0.5792940855026245, -0.8024939894676208, -0.9577495455741882, 0.06291396170854568, -0.4995658154283284, 0.7081523320643157, -4.061218221964516, 9362.0, 30146.0, 35388.0, 9362.0, 8.152067184448242, -0.15233226120471954, 0.17396968603134155, -0.05962293967604637, 0.008121469989418983, -0.06635940819978714, 0.9984444379806519, -0.05900837853550911, 0.10376167297363281, 1.50439453125, 1.575439453125, 0.3596649169921875, 1.493408203125, 1.25537109375, 10.0, 1.4803050756454468, 1.5, 1.4803050756454468
20323, 2.4621222019195557, 0.22235560417175293, 0.6330758333206177, -0.00018941660528071225, -0.0023779082112014294, -5.415028095245361, -0.00398061191663146, -0.051114995032548904, -0.5797945261001587, -0.8024949431419373, -0.9577560424804688, 0.06288931518793106, -0.5006811110682459, 0.720965268069051, -4.067231918357055, 9362.0, 30146.0, 35388.0, 9362.0, 8.152067184448242, -0.015260505490005016, -0.18082848191261292, -0.20365415513515472, 0.009547014720737934, -0.06561217457056046, 0.9983868598937988, -0.05900837853550911, 0.10376167297363281, 1.50439453125, 1.24658203125, 0.1746063232421875, 1.493408203125, 1.5849609375, 10.0, 1.4804987907409668, 1.5, 1.4804987907409668
20333, 2.4625725746154785, 0.22288645803928375, 0.6332716345787048, -0.0002308837283635512, -0.0029101332183927298, -5.4208269119262695, -0.004312808625400066, -0.055330004543066025, -0.5799802541732788, -0.8024811148643494, -0.9577593207359314, 0.06289039552211761, -0.4903078445913433, 0.7265955020424997, -4.071683374518444, 9362.0, 30146.0, 35388.0, 9362.0, 8.152067184448242, -0.007516844198107719, -0.11849360913038254, -0.024115074425935745, 0.011572316288948059, -0.06403376907110214, 0.9986569881439209, -0.05900837853550911, 0.10376167297363281, 1.50439453125, 1.588623046875, 0.390350341796875, 1.493408203125, 1.46923828125, 10.0, 1.4807759523391724, 1.5, 1.4807759523391724
20343, 2.4611880779266357, 0.22223524749279022, 0.6342505216598511, -0.00027567861252464354, -0.003484498243778944, -5.4266276359558105, -0.004646151792258024, -0.059543006122112274, -0.5801925659179688, -0.802489697933197, -0.9577531814575195, 0.06287471204996109, -0.48311879429841026, 0.7280017250111825, -4.077662152501351, 9362.0, 30146.0, 35388.0, 9362.0, 8.152067184448242, -0.18896234035491943, 0.1909763216972351, 0.1758192926645279, 0.009454392828047276, -0.06424210220575333, 0.9975876808166504, -0.05900837853550911, 0.10376167297363281, 1.50439453125, 1.434814453125, 0.081787109375, 1.493408203125, 1.58642578125, 10.0, 1.4811643362045288, 1.5, 1.4811643362045288
20353, 2.460515260696411, 0.2220737487077713, 0.6365444660186768, -0.00032380965421907604, -0.004100976046174765, -5.432431221008301, -0.004979988094419241, -0.06375253200531006, -0.5805034637451172, -0.802462100982666, -0.9577600955963135, 0.06293514370918274, -0.5046997365065261, 0.7241332448098774, -4.060861738632642, 9362.0, 30146.0, 35388.0, 9362.0, 8.152067184448242, -0.323123037815094, 0.09261510521173477, 0.09444563090801239, 0.00730895483866334, -0.06622318178415298, 0.9977309107780457, -0.05900837853550911, 0.10376167297363281, 1.50439453125, 1.037841796875, 2.215362548828125, 1.49267578125, 1.46923828125, 10.0, 1.4814532995224, 1.5, 1.4814532995224
20363, 2.460571765899658, 0.22155436873435974, 0.637327253818512, -0.00037527343374677, -0.004759538918733597, -5.43823766708374, -0.005312599707394838, -0.06796008348464966, -0.5808054208755493, -0.8024594187736511, -0.9577475786209106, 0.06289776414632797, -0.49648806614203717, 0.7258295521517368, -4.070358603534305, 9362.0, 30146.0, 35388.0, 9362.0, 8.152067184448242, -0.017676712945103645, -0.21279782056808472, 0.115610271692276, 0.008239439688622952, -0.06585202366113663, 0.9978727698326111, -0.058388177305459976, -0.12023735046386719, 1.486083984375, 1.295654296875, 0.05548095703125, 1.49267578125, 1.5703125, 10.0, 1.4814354181289673, 1.5, 1.4814354181289673
20373, 2.46098256111145, 0.22017934918403625, 0.6389917731285095, -0.0004300602013245225, -0.005460159387439489, -5.444047451019287, -0.00564469862729311, -0.07216402888298035, -0.5811643600463867, -0.8024627566337585, -0.9577504396438599, 0.06287658214569092, -0.5038380845051796, 0.7232342057052108, -4.0624570735796794, 9362.0, 30146.0, 35388.0, 9362.0, 8.152067184448242, 0.009662318974733353, 0.2130168229341507, 0.008931782096624374, 0.008601999841630459, -0.06480670720338821, 0.9989185929298401, -0.058388177305459976, -0.12023735046386719, 1.486083984375, 1.4208984375, 0.063079833984375, 1.49560546875, 1.38427734375, 10.0, 1.481718897819519, 1.5, 1.481718897819519
20383, 2.461263418197632, 0.21957068145275116, 0.6376269459724426, -0.0004881656786892563, -0.006202850490808487, -5.449860095977783, -0.005976276472210884, -0.07637424021959305, -0.5813800096511841, -0.8024751543998718, -0.9577453136444092, 0.06290803104639053, -0.5034910597220282, 0.7127315329596229, -4.056375876574536, 9362.0, 30146.0, 35388.0, 9362.0, 8.152067184448242, 0.0569845475256443, 0.2803172469139099, -0.1590079516172409, 0.008808659389615059, -0.0650286078453064, 0.9949070811271667, -0.058388177305459976, -0.12023735046386719, 1.486083984375, 1.352783203125, 0.015350341796875, 1.49560546875, 1.48681640625, 10.0, 1.4821275472640991, 1.5, 1.4821275472640991
20393, 2.4604501724243164, 0.22024787962436676, 0.6377685070037842, -0.0005495722289197147, -0.0069876182824373245, -5.4556756019592285, -0.006305142771452665, -0.08057932555675507, -0.5817302465438843, -0.8024631142616272, -0.957735002040863, 0.0629151314496994, -0.5078849164092754, 0.715871052565376, -4.053657196411003, 9362.0, 30146.0, 35388.0, 9362.0, 8.152067184448242, 0.20491208136081696, -0.08767448365688324, -0.009656677022576332, 0.008851154707372189, -0.06586525589227676, 0.9959919452667236, -0.058388177305459976, -0.12023735046386719, 1.486083984375, 1.458251953125, 0.1184234619140625, 1.493408203125, 1.481689453125, 10.0, 1.481911301612854, 1.5, 1.481911301612854
20403, 2.460672616958618, 0.21857748925685883, 0.6370639801025391, -0.0006142593338154256, -0.007814396172761917, -5.461495876312256, -0.006632267031818628, -0.08477616310119629, -0.5822832584381104, -0.8024711608886719, -0.9577522277832031, 0.06292806565761566, -0.5021623152075415, 0.7215140925229662, -4.055848178288207, 9362.0, 30146.0, 35388.0, 9362.0, 8.152067184448242, 0.017454661428928375, 0.17600782215595245, 0.33137422800064087, 0.008798306807875633, -0.06553754210472107, 0.9970201849937439, -0.058388177305459976, -0.12023735046386719, 1.486083984375, 1.341796875, 0.0162811279296875, 1.493408203125, 1.576171875, 10.0, 1.4821487665176392, 1.5, 1.4821487665176392
20413, 2.461289644241333, 0.21947398781776428, 0.6351814270019531, -0.0006822244031354785, -0.00868314690887928, -5.467321395874023, -0.006960813421756029, -0.0889739841222763, -0.5827815532684326, -0.8024733662605286, -0.95773845911026, 0.06291995942592621, -0.5010746395418364, 0.7210520608396109, -4.061151004107529, 9362.0, 30146.0, 35388.0, 9362.0, 8.152067184448242, 0.22986078262329102, -0.16378013789653778, -0.31851378083229065, 0.008800155483186245, -0.06753126531839371, 0.9976896643638611, -0.058388177305459976, -0.12023735046386719, 1.486083984375, 1.56298828125, 0.3311767578125, 1.4912109375, 1.33740234375, 10.0, 1.4816802740097046, 1.5, 1.4816802740097046
20423, 2.4616639614105225, 0.21943233907222748, 0.635003387928009, -0.0007534647593274713, -0.009593927301466465, -5.473150730133057, -0.007287397049367428, -0.09318199008703232, -0.5830504298210144, -0.8024622201919556, -0.9577425718307495, 0.06292261928319931, -0.5048186308919526, 0.7146567587107882, -4.07078829455769, 9362.0, 30146.0, 35388.0, 9362.0, 8.152067184448242, -0.09205260872840881, -0.09939808398485184, 0.0781252533197403, 0.007610138971358538, -0.06596582382917404, 0.997037410736084, -0.058388177305459976, -0.12023735046386719, 1.486083984375, 1.53369140625, 0.265960693359375, 1.4912109375, 1.38427734375, 10.0, 1.4820935726165771, 1.5, 1.4820935726165771
20433, 2.460186243057251, 0.21679942309856415, 0.6355289816856384, -0.0008279774338006973, -0.010546769015491009, -5.478982925415039, -0.007615151349455118, -0.09738638252019882, -0.5834283828735352, -0.8024775981903076, -0.957741916179657, 0.0629054456949234, -0.5005049956951966, 0.7062622966443541, -4.063305084703897, 9362.0, 30146.0, 35388.0, 9362.0, 8.152067184448242, -0.14451849460601807, 0.3781155049800873, -0.07499216496944427, 0.007532190065830946, -0.06448731571435928, 0.9980141520500183, -0.058388177305459976, -0.12023735046386719, 1.486083984375, 1.265625, 0.1174468994140625, 1.49560546875, 1.48828125, 10.0, 1.482559323310852, 1.5, 1.482559323310852
20443, 2.459925889968872, 0.21739158034324646, 0.6349238157272339, -0.0009057681891135871, -0.011541669256985188, -5.484818935394287, -0.007942980155348778, -0.10159369558095932, -0.5837535262107849, -0.8024799823760986, -0.9577366709709167, 0.0629165843129158, -0.5061817913547099, 0.7031382106850401, -4.0536511663191455, 9362.0, 30146.0, 35388.0, 9362.0, 8.152067184448242, -0.0697835236787796, -0.3404483199119568, -0.11194852739572525, 0.010414332151412964, -0.06396720558404922, 0.9993502497673035, -0.058388177305459976, -0.12023735046386719, 1.486083984375, 1.59521484375, 0.4058380126953125, 1.49560546875, 1.27587890625, 10.0, 1.481671690940857, 1.5, 1.481671690940857
20453, 2.460768938064575, 0.21698051691055298, 0.6346603631973267, -0.0009868163615465164, -0.012578650377690792, -5.490657806396484, -0.00826669204980135, -0.10580258816480637, -0.5839819312095642, -0.8024805188179016, -0.957736611366272, 0.06288465112447739, -0.5095142092461802, 0.7131115633785043, -4.047966823019153, 9362.0, 30146.0, 35388.0, 9362.0, 8.152067184448242, 0.030379867181181908, -0.09000120311975479, 0.10144646465778351, 0.010267100296914577, -0.06768696010112762, 0.9995722770690918, -0.058388177305459976, -0.12023735046386719, 1.486083984375, 1.353515625, 0.0154571533203125, 1.493408203125, 1.587158203125, 10.0, 1.4811651706695557, 1.5, 1.4811651706695557
20463, 2.4617087841033936, 0.21797174215316772, 0.6333634853363037, -0.0010711083887144923, -0.013657737523317337, -5.496498107910156, -0.008591738529503345, -0.11001487821340561, -0.5841208696365356, -0.802465558052063, -0.9577332735061646, 0.06291696429252625, -0.49903761560592474, 0.7021899642813025, -4.0629225076012, 9362.0, 30146.0, 35388.0, 9362.0, 8.152067184448242, 0.10976027697324753, -0.2868797779083252, -0.43755045533180237, 0.009896175004541874, -0.06709330528974533, 0.9975419044494629, -0.05955515056848526, -0.12023735046386719, 1.486083984375, 1.552001953125, 0.3063201904296875, 1.493408203125, 1.181396484375, 10.0, 1.4814749956130981, 1.5, 1.4814749956130981
20483, 2.4619948863983154, 0.2216707020998001, 0.6294875144958496, -0.001158646191470325, -0.01477893814444542, -5.502340316772461, -0.008915903978049755, -0.11422530561685562, -0.5843368768692017, -0.8024734258651733, -0.9577310085296631, 0.06290124356746674, -0.5015034563305754, 0.717998731395852, -4.060489739622716, 9362.0, 30146.0, 35388.0, 9362.0, 8.152067184448242, 0.050421424210071564, -0.2984372675418854, -0.08839963376522064, 0.009896175004541874, -0.06709330528974533, 0.9975419044494629, -0.05955515056848526, -0.12023735046386719, 1.486083984375, 1.554931640625, 0.3128814697265625, 1.490478515625, 1.56591796875, 10.0, 1.4809831380844116, 1.5, 1.4809831380844116
20493, 2.4608781337738037, 0.22077955305576324, 0.6328139901161194, -0.001158646191470325, -0.01477893814444542, -5.502340316772461, -0.008915903978049755, -0.11422530561685562, -0.5843368768692017, -0.8024685978889465, -0.9577397704124451, 0.06289462000131607, -0.5056090743593386, 0.7126976561758909, -4.06300588787307, 9362.0, 30146.0, 35388.0, 9362.0, 8.152067184448242, 0.14902976155281067, 0.4541943371295929, 0.3629893958568573, 0.009896175004541874, -0.06709330528974533, 0.9975419044494629, -0.05955515056848526, -0.12023735046386719, 1.486083984375, 1.554931640625, 0.3128814697265625, 1.490478515625, 1.562255859375, 10.0, 1.4809831380844116, 1.5, 1.4809831380844116
20503, 2.4601688385009766, 0.21927516162395477, 0.6335299611091614, -0.001158646191470325, -0.01477893814444542, -5.502340316772461, -0.008915903978049755, -0.11422530561685562, -0.5843368768692017, -0.8024706244468689, -0.9577456116676331, 0.06288810819387436, -0.5017628885544677, 0.7202681226557388, -4.057332978120718, 9362.0, 30146.0, 35388.0, 9362.0, 8.152067184448242, 0.14902976155281067, 0.4541943371295929, 0.3629893958568573, 0.009896175004541874, -0.06709330528974533, 0.9975419044494629, -0.05955515056848526, -0.12023735046386719, 1.486083984375, 1.554931640625, 0.3128814697265625, 1.490478515625, 1.562255859375, 10.0, 1.4809831380844116, 1.5, 1.4809831380844116
20513, 2.4601378440856934, 0.22044436633586884, 0.634980320930481, -0.001158646191470325, -0.01477893814444542, -5.502340316772461, -0.008915903978049755, -0.11422530561685562, -0.5843368768692017, -0.8024731874465942, -0.9577334523200989, 0.06287375092506409, -0.5034354027722393, 0.7063523268815572, -4.062719374876269, 9362.0, 30146.0, 35388.0, 9362.0, 8.152067184448242, 0.14902976155281067, 0.4541943371295929, 0.3629893958568573, 0.009939291514456272, -0.06465301662683487, 0.9991053938865662, -0.05955515056848526, -0.12023735046386719, 1.486083984375, 1.554931640625, 0.3128814697265625, 1.490478515625, 1.594482421875, 10.0, 1.4809831380844116, 1.5, 1.4809831380844116
20523, 2.4581565856933594, 0.2198704481124878, 0.6358395218849182, -0.0016455372096970677, -0.021015817299485207, -5.5316033363342285, -0.010561724193394184, -0.13525502383708954, -0.5860286355018616, -0.8024716973304749, -0.9577374458312988, 0.06288193166255951, -0.5070913570597586, 0.7069906670926969, -4.064974100368134, 9362.0, 30146.0, 35388.0, 9362.0, 8.152067184448242, 0.14902976155281067, 0.4541943371295929, 0.3629893958568573, 0.010074605233967304, -0.06137290224432945, 0.9976488947868347, -0.05955515056848526, -0.12023735046386719, 1.486083984375, 1.554931640625, 0.3128814697265625, 1.490478515625, 1.594482421875, 10.0, 1.4809831380844116, 1.5, 1.4809831380844116
20533, 2.4581737518310547, 0.22045056521892548, 0.6361674666404724, -0.0017528043827041984, -0.02238941565155983, -5.537464618682861, -0.010891655460000038, -0.1394646167755127, -0.5862411856651306, -0.8024693131446838, -0.9577306509017944, 0.06289773434400558, -0.5057302361225678, 0.7160652898986655, -4.05266231586791, 9362.0, 30146.0, 35388.0, 9362.0, 8.152067184448242, 0.14902976155281067, 0.4541943371295929, 0.3629893958568573, 0.009769577533006668, -0.06277698278427124, 0.9972127079963684, -0.05955515056848526, -0.12023735046386719, 1.486083984375, 1.554931640625, 0.3128814697265625, 1.490478515625, 1.594482421875, 10.0, 1.4801826477050781, 1.5, 1.4801826477050781
20543, 2.4591376781463623, 0.21922659873962402, 0.6370016932487488, -0.0018633631989359856, -0.023805057629942894, -5.543328762054443, -0.011220067739486694, -0.14366382360458374, -0.5866149067878723, -0.8024678826332092, -0.957747757434845, 0.06289875507354736, -0.5153662705146744, 0.7108210922407636, -4.0485064768392585, 9362.0, 30146.0, 35388.0, 9362.0, 8.152067184448242, 0.14902976155281067, 0.4541943371295929, 0.3629893958568573, 0.008814822882413864, -0.06541575491428375, 0.9982110261917114, -0.05955515056848526, -0.12023735046386719, 1.486083984375, 1.554931640625, 0.3128814697265625, 1.490478515625, 1.594482421875, 10.0, 1.4801826477050781, 1.5, 1.4801826477050781
20553, 2.4598968029022217, 0.21970517933368683, 0.638767659664154, -0.00197721179574728, -0.025262704119086266, -5.549196720123291, -0.011549614369869232, -0.14786556363105774, -0.5869313478469849, -0.8024635314941406, -0.9577456116676331, 0.06289801746606827, -0.5121396537795414, 0.71181276665979, -4.046613188220261, 9362.0, 30146.0, 35388.0, 9362.0, 8.152067184448242, 0.14902976155281067, 0.4541943371295929, 0.3629893958568573, 0.00809952337294817, -0.06639976054430008, 0.9985367059707642, -0.05955515056848526, -0.12023735046386719, 1.486083984375, 1.554931640625, 0.3128814697265625, 1.490478515625, 1.594482421875, 10.0, 1.4792965650558472, 1.5, 1.4792965650558472
20563, 2.4590089321136475, 0.22148023545742035, 0.6372143626213074, -0.0020943456329405308, -0.026762384921312332, -5.555067539215088, -0.011877041310071945, -0.15207058191299438, -0.5872105360031128, -0.8024669885635376, -0.9577348828315735, 0.06287425011396408, -0.5031625266720168, 0.7135618648169952, -4.052323240745652, 9362.0, 30146.0, 35388.0, 9362.0, 8.152067184448242, 0.14902976155281067, 0.4541943371295929, 0.3629893958568573, 0.009860432706773281, -0.06312841176986694, 0.9995976090431213, -0.05955515056848526, -0.12023735046386719, 1.486083984375, 1.554931640625, 0.3128814697265625, 1.490478515625, 1.594482421875, 10.0, 1.4792965650558472, 1.5, 1.4792965650558472
20573, 2.459043025970459, 0.22108590602874756, 0.6377377510070801, -0.0022147593554109335, -0.028304150328040123, -5.560940265655518, -0.012205822393298149, -0.15628252923488617, -0.5873576998710632, -0.8024881482124329, -0.9577326774597168, 0.06287602335214615, -0.4917125023452103, 0.7235997511486119, -4.060822983450835, 9362.0, 30146.0, 35388.0, 9362.0, 8.152067184448242, 0.14902976155281067, 0.4541943371295929, 0.3629893958568573, 0.009755968116223812, -0.0657687708735466, 0.9953737258911133, -0.05955515056848526, -0.12023735046386719, 1.486083984375, 1.554931640625, 0.3128814697265625, 1.490478515625, 1.594482421875, 10.0, 1.477737307548523, 1.5, 1.477737307548523
20583, 2.4583394527435303, 0.21888484060764313, 0.6377385258674622, -0.0022147593554109335, -0.028304150328040123, -5.560940265655518, -0.012205822393298149, -0.15628252923488617, -0.5873576998710632, -0.8024787306785583, -0.9577279686927795, 0.06289113312959671, -0.49946312366792656, 0.717022724553317, -4.067945141329768, 9362.0, 30146.0, 35388.0, 9362.0, 8.152067184448242, 0.14902976155281067, 0.4541943371295929, 0.3629893958568573, 0.009755968116223812, -0.0657687708735466, 0.9953737258911133, -0.05955515056848526, -0.12023735046386719, 1.486083984375, 1.554931640625, 0.3128814697265625, 1.490478515625, 1.594482421875, 10.0, 1.4765647649765015, 1.5, 1.4765647649765015
20603, 2.456688642501831, 0.21946237981319427, 0.6406116485595703, -0.0024654953740537167, -0.03151383996009827, -5.572694301605225, -0.012867034412920475, -0.16468146443367004, -0.5881648659706116, -0.8024945855140686, -0.9577364921569824, 0.06288587301969528, -0.5032063358943102, 0.7195239729485934, -4.06523900966279, 9362.0, 30146.0, 35388.0, 9362.0, 8.152067184448242, 0.14902976155281067, 0.4541943371295929, 0.3629893958568573, 0.008373674005270004, -0.0666353702545166, 0.9984729886054993, -0.05955515056848526, -0.12023735046386719, 1.486083984375, 1.590087890625, 0.3937835693359375, 1.493408203125, 1.594482421875, 10.0, 1.476633906364441, 1.5, 1.476633906364441
20613, 2.4575934410095215, 0.21883952617645264, 0.6408500671386719, -0.002729372587054968, -0.034891512244939804, -5.584463596343994, -0.013520513661205769, -0.17308439314365387, -0.5887754559516907, -0.8024808764457703, -0.9577360153198242, 0.06290294975042343, -0.49866291657296474, 0.7033582995489382, -4.060279171553516, 9362.0, 30146.0, 35388.0, 9362.0, 8.152067184448242, -0.03284434974193573, 0.31818073987960815, -0.008747842162847519, 0.008373674005270004, -0.0666353702545166, 0.9984729886054993, -0.05955515056848526, -0.12023735046386719, 1.486083984375, 1.590087890625, 0.3937835693359375, 1.493408203125, 1.594482421875, 10.0, 1.4769998788833618, 1.5, 1.4769998788833618
20623, 2.456446409225464, 0.21988849341869354, 0.6405311226844788, -0.002729372587054968, -0.034891512244939804, -5.584463596343994, -0.013520513661205769, -0.17308439314365387, -0.5887754559516907, -0.8024917840957642, -0.9577375650405884, 0.0628797635436058, -0.4955705568916225, 0.725727485099668, -4.068274369102742, 9362.0, 30146.0, 35388.0, 9362.0, 8.152067184448242, -0.03284434974193573, 0.31818073987960815, -0.008747842162847519, 0.008373674005270004, -0.0666353702545166, 0.9984729886054993, -0.05955515056848526, -0.12023735046386719, 1.486083984375, 1.590087890625, 0.3937835693359375, 1.493408203125, 1.236328125, 10.0, 1.4771151542663574, 1.5, 1.4771151542663574
20633, 2.4567198753356934, 0.2186984270811081, 0.6397150754928589, -0.002729372587054968, -0.034891512244939804, -5.584463596343994, -0.013520513661205769, -0.17308439314365387, -0.5887754559516907, -0.8024846911430359, -0.9577310681343079, 0.06288214027881622, -0.4969585521826064, 0.7164093682377484, -4.067471236319703, 9362.0, 30146.0, 35388.0, 9362.0, 8.152067184448242, -0.03284434974193573, 0.31818073987960815, -0.008747842162847519, 0.008373674005270004, -0.0666353702545166, 0.9984729886054993, -0.05955515056848526, -0.12023735046386719, 1.486083984375, 1.590087890625, 0.3937835693359375, 1.496337890625, 1.236328125, 10.0, 1.477551817893982, 1.5, 1.477551817893982
20643, 2.4557557106018066, 0.21806755661964417, 0.6401492357254028, -0.002729372587054968, -0.034891512244939804, -5.584463596343994, -0.013520513661205769, -0.17308439314365387, -0.5887754559516907, -0.8024885058403015, -0.9577354788780212, 0.06288699805736542, -0.492419179516272, 0.7175246934023392, -4.067791755404073, 9362.0, 30146.0, 35388.0, 9362.0, 8.152067184448242, -0.03284434974193573, 0.31818073987960815, -0.008747842162847519, 0.008373674005270004, -0.0666353702545166, 0.9984729886054993, -0.05955515056848526, -0.12023735046386719, 1.486083984375, 1.590087890625, 0.3937835693359375, 1.496337890625, 1.223876953125, 10.0, 1.477935791015625, 1.5, 1.477935791015625
20653, 2.455125570297241, 0.21667362749576569, 0.6394128203392029, -0.002729372587054968, -0.034891512244939804, -5.584463596343994, -0.013520513661205769, -0.17308439314365387, -0.5887754559516907, -0.8024891018867493, -0.9577323198318481, 0.06288091838359833, -0.49894638613006553, 0.7103211757097085, -4.072802006461888, 9362.0, 30146.0, 35388.0, 9362.0, 8.152067184448242, -0.03284434974193573, 0.31818073987960815, -0.008747842162847519, 0.008373674005270004, -0.0666353702545166, 0.9984729886054993, -0.05955515056848526, -0.12023735046386719, 1.486083984375, 1.590087890625, 0.3937835693359375, 1.494140625, 1.223876953125, 10.0, 1.478355884552002, 1.5, 1.478355884552002
20663, 2.454914093017578, 0.21442420780658722, 0.6408545970916748, -0.002729372587054968, -0.034891512244939804, -5.584463596343994, -0.013520513661205769, -0.17308439314365387, -0.5887754559516907, -0.8024912476539612, -0.9577414393424988, 0.06286191195249557, -0.5039287695989118, 0.7240542534369467, -4.068655820458941, 9362.0, 30146.0, 35388.0, 9362.0, 8.152067184448242, 0.029146436601877213, 0.15003733336925507, -0.02117588371038437, 0.008373674005270004, -0.0666353702545166, 0.9984729886054993, -0.05955515056848526, -0.12023735046386719, 1.486083984375, 1.590087890625, 0.3937835693359375, 1.494140625, 1.57763671875, 10.0, 1.478355884552002, 1.5, 1.478355884552002
20673, 2.4546666145324707, 0.21155667304992676, 0.6407899260520935, -0.002729372587054968, -0.034891512244939804, -5.584463596343994, -0.013520513661205769, -0.17308439314365387, -0.5887754559516907, -0.802482545375824, -0.9577383995056152, 0.06287527084350586, -0.4985313023274655, 0.7224710430934635, -4.062137472587695, 9362.0, 30146.0, 35388.0, 9362.0, 8.152067184448242, -0.03576458990573883, -0.05040939897298813, -0.2528853416442871, 0.008373674005270004, -0.0666353702545166, 0.9984729886054993, -0.05955515056848526, -0.12023735046386719, 1.486083984375, 1.590087890625, 0.3937835693359375, 1.494140625, 1.53369140625, 10.0, 1.4790894985198975, 1.5, 1.4790894985198975
20683, 2.454929828643799, 0.21005453169345856, 0.641121506690979, -0.002729372587054968, -0.034891512244939804, -5.584463596343994, -0.013520513661205769, -0.17308439314365387, -0.5887754559516907, -0.8024997115135193, -0.9577406048774719, 0.06287731230258942, -0.5029742675004518, 0.716798247714479, -4.065469194298407, 9362.0, 30146.0, 35388.0, 9362.0, 8.152067184448242, -0.08146008849143982, 0.25728365778923035, 0.1404186636209488, 0.008373674005270004, -0.0666353702545166, 0.9984729886054993, -0.05955515056848526, -0.12023735046386719, 1.486083984375, 1.590087890625, 0.3937835693359375, 1.494140625, 1.150634765625, 10.0, 1.479463815689087, 1.5, 1.479463815689087
20693, 2.4549221992492676, 0.20856092870235443, 0.6416624784469604, -0.002729372587054968, -0.034891512244939804, -5.584463596343994, -0.013520513661205769, -0.17308439314365387, -0.5887754559516907, -0.8024957180023193, -0.9577333331108093, 0.06286321580410004, -0.5006695394652666, 0.7254553901715326, -4.078014536808659, 9362.0, 30146.0, 35388.0, 9362.0, 8.152067184448242, 0.07052657753229141, 0.07663362473249435, -0.05885779485106468, 0.008373674005270004, -0.0666353702545166, 0.9984729886054993, -0.05955515056848526, -0.12023735046386719, 1.486083984375, 1.590087890625, 0.3937835693359375, 1.494140625, 1.553466796875, 10.0, 1.4798089265823364, 1.5, 1.4798089265823364
20703, 2.4561283588409424, 0.2092849314212799, 0.6404289603233337, -0.002729372587054968, -0.034891512244939804, -5.584463596343994, -0.013520513661205769, -0.17308439314365387, -0.5887754559516907, -0.8024762868881226, -0.9577453136444092, 0.06285050511360168, -0.5094106905922987, 0.7307135775495794, -4.066647064136255, 9362.0, 30146.0, 35388.0, 9362.0, 8.152067184448242, -0.0017136854585260153, -0.21166163682937622, -0.0566893070936203, 0.008373674005270004, -0.0666353702545166, 0.9984729886054993, -0.05955515056848526, -0.12023735046386719, 1.486083984375, 1.590087890625, 0.3937835693359375, 1.494140625, 1.553466796875, 10.0, 1.4800224304199219, 1.5, 1.4800224304199219
20713, 2.4556610584259033, 0.2110118567943573, 0.6397932767868042, -0.002729372587054968, -0.034891512244939804, -5.584463596343994, -0.013520513661205769, -0.17308439314365387, -0.5887754559516907, -0.8024947047233582, -0.9577431082725525, 0.06283855438232422, -0.5033356047787299, 0.722118780023493, -4.066763914584403, 9362.0, 30146.0, 35388.0, 9362.0, 8.152067184448242, -0.17383721470832825, -0.03827660530805588, -0.1400342732667923, 0.008373674005270004, -0.0666353702545166, 0.9984729886054993, -0.05955515056848526, -0.12023735046386719, 1.486083984375, 1.590087890625, 0.3937835693359375, 1.494140625, 1.482421875, 10.0, 1.4789297580718994, 1.5, 1.4789297580718994
20733, 2.452636480331421, 0.20825879275798798, 0.6388562917709351, -0.004412572830915451, -0.056469447910785675, -5.64945125579834, -0.017040075734257698, -0.2192360907793045, -0.5927694439888, -0.8024982810020447, -0.9577376842498779, 0.06286242604255676, -0.5006653446424012, 0.7334765843767741, -4.075299508964125, 9362.0, 30146.0, 35388.0, 9362.0, 8.152067184448242, -0.1506781280040741, -0.12821908295154572, -0.1003573089838028, 0.008373674005270004, -0.0666353702545166, 0.9984729886054993, -0.05955515056848526, -0.12023735046386719, 1.486083984375, 1.62890625, 0.4867095947265625, 1.494140625, 1.389404296875, 10.0, 1.4795172214508057, 1.5, 1.4795172214508057
20783, 2.4529712200164795, 0.20567677915096283, 0.6408424377441406, -0.005490737501531839, -0.0703778862953186, -5.68508768081665, -0.018887940794229507, -0.24436552822589874, -0.5953153967857361, -0.8025156855583191, -0.9577478170394897, 0.06278333812952042, -0.5155776639191989, 0.7219033607368317, -4.057329699285182, 9362.0, 30146.0, 35388.0, 9362.0, 8.152067184448242, -0.0581970177590847, -0.17687977850437164, 0.062008634209632874, 0.008272984065115452, -0.06459353864192963, 0.9980363249778748, -0.05955515056848526, -0.12023735046386719, 1.486083984375, 1.62890625, 0.4867095947265625, 1.48974609375, 1.535888671875, 10.0, 1.4786441326141357, 1.5, 1.4786441326141357
20803, 2.4513797760009766, 0.2105608880519867, 0.6396178603172302, -0.005490737501531839, -0.0703778862953186, -5.68508768081665, -0.018887940794229507, -0.24436552822589874, -0.5953153967857361, -0.8025407195091248, -0.9577375650405884, 0.06278380751609802, -0.5089381346322973, 0.7193333969586604, -4.067179223476996, 9362.0, 30146.0, 35388.0, 9362.0, 8.152067184448242, -0.06304972618818283, -0.3810230493545532, -0.1546073704957962, 0.010968015529215336, -0.06636252254247665, 0.9974390864372253, -0.05955515056848526, -0.12023735046386719, 1.486083984375, 1.62890625, 0.4867095947265625, 1.48974609375, 1.56005859375, 10.0, 1.4786441326141357, 1.5, 1.4786441326141357
20813, 2.450955867767334, 0.2139142006635666, 0.6383271813392639, -0.005490737501531839, -0.0703778862953186, -5.68508768081665, -0.018887940794229507, -0.24436552822589874, -0.5953153967857361, -0.8025354743003845, -0.9577224850654602, 0.06281068921089172, -0.5083401990686706, 0.7172529449635761, -4.05974445196588, 9362.0, 30146.0, 35388.0, 9362.0, 8.152067184448242, -0.16509371995925903, -0.3074200749397278, -0.35137873888015747, 0.010968015529215336, -0.06636252254247665, 0.9974390864372253, -0.05955515056848526, -0.12023735046386719, 1.486083984375, 1.62890625, 0.4867095947265625, 1.48974609375, 1.55419921875, 10.0, 1.4786441326141357, 1.5, 1.4786441326141357
20823, 2.450805425643921, 0.21287143230438232, 0.636516273021698, -0.005490737501531839, -0.0703778862953186, -5.68508768081665, -0.018887940794229507, -0.24436552822589874, -0.5953153967857361, -0.8025407791137695, -0.9577365517616272, 0.06279020011425018, -0.5117362683247588, 0.7072380342718816, -4.05919575714918, 9362.0, 30146.0, 35388.0, 9362.0, 8.152067184448242, -0.16509371995925903, -0.3074200749397278, -0.35137873888015747, 0.010968015529215336, -0.06636252254247665, 0.9974390864372253, -0.05955515056848526, -0.12023735046386719, 1.486083984375, 1.62890625, 0.4867095947265625, 1.48974609375, 1.576171875, 10.0, 1.4786441326141357, 1.5, 1.4786441326141357
20833, 2.451934576034546, 0.2116575390100479, 0.6373820304870605, -0.006473391316831112, -0.08312013745307922, -5.714893817901611, -0.020433563739061356, -0.2653217315673828, -0.5969177484512329, -0.8025373816490173, -0.9577425122261047, 0.06277506798505783, -0.5221035636183803, 0.7194042349921119, -4.062460850465748, 9362.0, 30146.0, 35388.0, 9362.0, 8.152067184448242, -0.16509371995925903, -0.3074200749397278, -0.35137873888015747, 0.01000756211578846, -0.06475149095058441, 0.9982349276542664, -0.05955515056848526, -0.12023735046386719, 1.486083984375, 1.62890625, 0.4867095947265625, 1.48974609375, 1.576171875, 10.0, 1.4786441326141357, 1.5, 1.4786441326141357
20843, 2.4526314735412598, 0.21194614470005035, 0.6378740668296814, -0.006679311394691467, -0.08579430729150772, -5.720864295959473, -0.020750390365719795, -0.2695120573043823, -0.5972022414207458, -0.8025457859039307, -0.9577249884605408, 0.06277590990066528, -0.5116245212580448, 0.7138529467598005, -4.056995280573286, 9362.0, 30146.0, 35388.0, 9362.0, 8.152067184448242, -0.16509371995925903, -0.3074200749397278, -0.35137873888015747, 0.007428289391100407, -0.06734126806259155, 0.9989574551582336, -0.05955515056848526, -0.12023735046386719, 1.486083984375, 1.62890625, 0.4867095947265625, 1.48974609375, 1.576171875, 10.0, 1.4788728952407837, 1.5, 1.4788728952407837
20853, 2.4532976150512695, 0.21213915944099426, 0.6376513242721558, -0.006888390053063631, -0.08851040154695511, -5.726837158203125, -0.02106531523168087, -0.27370741963386536, -0.5974141955375671, -0.8025504946708679, -0.9577332139015198, 0.06278413534164429, -0.5080982084824006, 0.7121743588114384, -4.0616387248764445, 9362.0, 30146.0, 35388.0, 9362.0, 8.152067184448242, -0.16509371995925903, -0.3074200749397278, -0.35137873888015747, 0.007428289391100407, -0.06734126806259155, 0.9989574551582336, -0.05955515056848526, -0.12023735046386719, 1.486083984375, 1.62890625, 0.4867095947265625, 1.48974609375, 1.576171875, 10.0, 1.4782668352127075, 1.5, 1.4782668352127075
20863, 2.452298402786255, 0.21134191751480103, 0.6362795233726501, -0.007100620772689581, -0.09126846492290497, -5.732812404632568, -0.021380817517638206, -0.277905136346817, -0.5976001620292664, -0.8025418519973755, -0.9577239751815796, 0.06279289722442627, -0.5041538853492407, 0.7147578480445702, -4.064917496045118, 9362.0, 30146.0, 35388.0, 9362.0, 8.152067184448242, -0.16509371995925903, -0.3074200749397278, -0.35137873888015747, 0.010159924626350403, -0.0676606297492981, 0.9979773163795471, -0.0672120526432991, 0.05000114440917969, 1.5, 1.207763671875, 0.341400146484375, 1.48974609375, 1.579833984375, 10.0, 1.4782668352127075, 1.5, 1.4782668352127075
20873, 2.452436685562134, 0.21176397800445557, 0.6332143545150757, -0.007316007744520903, -0.0940685048699379, -5.7387895584106445, -0.021696677431464195, -0.28210312128067017, -0.5978066325187683, -0.8025292754173279, -0.9577224850654602, 0.06278583407402039, -0.511632951716905, 0.7169700769637757, -4.062467394475245, 9362.0, 30146.0, 35388.0, 9362.0, 8.152067184448242, 0.20682121813297272, 0.20778799057006836, 0.0700879618525505, 0.010159924626350403, -0.0676606297492981, 0.9979773163795471, -0.0672120526432991, 0.05000114440917969, 1.5, 1.207763671875, 0.341400146484375, 1.48974609375, 1.564453125, 10.0, 1.4787092208862305, 1.5, 1.4787092208862305
20883, 2.4516940116882324, 0.21205678582191467, 0.634169340133667, -0.007534546311944723, -0.0969105064868927, -5.744769096374512, -0.02201123535633087, -0.2862969934940338, -0.598068356513977, -0.8025341629981995, -0.9577409625053406, 0.06278689205646515, -0.5087835975906017, 0.7174388288915736, -4.062816232804579, 9362.0, 30146.0, 35388.0, 9362.0, 8.152067184448242, 0.20682121813297272, 0.20778799057006836, 0.0700879618525505, 0.010159924626350403, -0.0676606297492981, 0.9979773163795471, -0.0672120526432991, 0.05000114440917969, 1.5, 1.248046875, 0.169647216796875, 1.48974609375, 1.564453125, 10.0, 1.479149580001831, 1.5, 1.479149580001831
20893, 2.4506351947784424, 0.21185751259326935, 0.63533616065979, -0.007534546311944723, -0.0969105064868927, -5.744769096374512, -0.02201123535633087, -0.2862969934940338, -0.598068356513977, -0.8025436401367188, -0.9577381014823914, 0.06279441714286804, -0.514719477449063, 0.722261568817629, -4.053350828227596, 9362.0, 30146.0, 35388.0, 9362.0, 8.152067184448242, 0.20682121813297272, 0.20778799057006836, 0.0700879618525505, 0.010159924626350403, -0.0676606297492981, 0.9979773163795471, -0.0672120526432991, 0.05000114440917969, 1.5, 1.34912109375, 0.015380859375, 1.4912109375, 1.564453125, 10.0, 1.479318380355835, 1.5, 1.479318380355835
20903, 2.449256181716919, 0.21105223894119263, 0.6348397135734558, -0.007981077767908573, -0.10272031277418137, -5.756735801696777, -0.02264191024005413, -0.2946816086769104, -0.5986444354057312, -0.8025363087654114, -0.9577295780181885, 0.06281159818172455, -0.5088694930669222, 0.7093681797498164, -4.059329221739529, 9362.0, 30146.0, 35388.0, 9362.0, 8.152067184448242, 0.20682121813297272, 0.20778799057006836, 0.0700879618525505, 0.010159924626350403, -0.0676606297492981, 0.9979773163795471, -0.0672120526432991, 0.05000114440917969, 1.5, 1.20703125, 0.34527587890625, 1.4912109375, 1.564453125, 10.0, 1.4796403646469116, 1.5, 1.4796403646469116
20913, 2.4487786293029785, 0.21208852529525757, 0.6381629705429077, -0.00820907112210989, -0.10568805038928986, -5.76272439956665, -0.022956769913434982, -0.29886603355407715, -0.5990604162216187, -0.8025370240211487, -0.9577385783195496, 0.06280796974897385, -0.5164898210156535, 0.7229172539349804, -4.060811478662033, 9362.0, 30146.0, 35388.0, 9362.0, 8.152067184448242, 0.009816550649702549, -0.1424836665391922, -0.018712999299168587, 0.010159924626350403, -0.0676606297492981, 0.9979773163795471, -0.0672120526432991, 0.05000114440917969, 1.5, 1.20703125, 0.34527587890625, 1.493408203125, 1.564453125, 10.0, 1.479791283607483, 1.5, 1.479791283607483
20923, 2.4481518268585205, 0.21198312938213348, 0.6375790238380432, -0.00820907112210989, -0.10568805038928986, -5.76272439956665, -0.022956769913434982, -0.29886603355407715, -0.5990604162216187, -0.8025326728820801, -0.9577312469482422, 0.0627867728471756, -0.504914354645228, 0.7103408287957222, -4.052072397644408, 9362.0, 30146.0, 35388.0, 9362.0, 8.152067184448242, 0.009816550649702549, -0.1424836665391922, -0.018712999299168587, 0.010159924626350403, -0.0676606297492981, 0.9979773163795471, -0.0672120526432991, 0.05000114440917969, 1.5, 1.20703125, 0.34527587890625, 1.493408203125, 1.4208984375, 10.0, 1.4801093339920044, 1.5, 1.4801093339920044
20933, 2.4486660957336426, 0.21088658273220062, 0.6372278332710266, -0.00820907112210989, -0.10568805038928986, -5.76272439956665, -0.022956769913434982, -0.29886603355407715, -0.5990604162216187, -0.802531361579895, -0.9577440619468689, 0.06281135231256485, -0.5095783759000706, 0.6993449897116761, -4.060228791686979, 9362.0, 30146.0, 35388.0, 9362.0, 8.152067184448242, 0.009816550649702549, -0.1424836665391922, -0.018712999299168587, 0.010159924626350403, -0.0676606297492981, 0.9979773163795471, -0.0672120526432991, 0.05000114440917969, 1.5, 1.242919921875, 0.1873626708984375, 1.493408203125, 1.4208984375, 10.0, 1.480442762374878, 1.5, 1.480442762374878
20943, 2.448477268218994, 0.2084125280380249, 0.639279842376709, -0.00820907112210989, -0.10568805038928986, -5.76272439956665, -0.022956769913434982, -0.29886603355407715, -0.5990604162216187, -0.8025311231613159, -0.9577412009239197, 0.06276874244213104, -0.5175903198504128, 0.7166982486530173, -4.062919820949023, 9362.0, 30146.0, 35388.0, 9362.0, 8.152067184448242, -0.23482629656791687, -0.08573451638221741, 0.05478335916996002, 0.010159924626350403, -0.0676606297492981, 0.9979773163795471, -0.0672120526432991, 0.05000114440917969, 1.5, 1.20703125, 0.34527587890625, 1.493408203125, 1.53955078125, 10.0, 1.4805724620819092, 1.5, 1.4805724620819092
20953, 2.449152708053589, 0.20630180835723877, 0.6382899880409241, -0.00820907112210989, -0.10568805038928986, -5.76272439956665, -0.022956769913434982, -0.29886603355407715, -0.5990604162216187, -0.8025143146514893, -0.957736611366272, 0.06279963999986649, -0.5127430224913245, 0.71545674356841, -4.057019350721245, 9362.0, 30146.0, 35388.0, 9362.0, 8.152067184448242, 0.15676628053188324, 0.11410766839981079, -0.007523086853325367, 0.010159924626350403, -0.0676606297492981, 0.9979773163795471, -0.0672120526432991, 0.05000114440917969, 1.5, 1.20703125, 0.34527587890625, 1.49560546875, 1.53955078125, 10.0, 1.480941653251648, 1.5, 1.480941653251648
20963, 2.448524236679077, 0.20768696069717407, 0.639661967754364, -0.00820907112210989, -0.10568805038928986, -5.76272439956665, -0.022956769913434982, -0.29886603355407715, -0.5990604162216187, -0.8025257587432861, -0.9577267169952393, 0.06277593225240707, -0.5140823587646212, 0.7286220032879953, -4.059644749162274, 9362.0, 30146.0, 35388.0, 9362.0, 8.152067184448242, -0.1467934548854828, -0.6519893407821655, 0.1170184388756752, 0.010159924626350403, -0.0676606297492981, 0.9979773163795471, -0.0672120526432991, 0.05000114440917969, 1.5, 1.20703125, 0.34527587890625, 1.49560546875, 1.332275390625, 10.0, 1.480941653251648, 1.5, 1.480941653251648
20973, 2.447756767272949, 0.20975084602832794, 0.6378559470176697, -0.00820907112210989, -0.10568805038928986, -5.76272439956665, -0.022956769913434982, -0.29886603355407715, -0.5990604162216187, -0.8025175929069519, -0.9577344059944153, 0.06277670711278915, -0.5086260092049723, 0.7046538227298527, -4.062531184883943, 9362.0, 30146.0, 35388.0, 9362.0, 8.152067184448242, -0.1467934548854828, -0.6519893407821655, 0.1170184388756752, 0.008654656819999218, -0.06524918973445892, 0.9985696077346802, -0.0672120526432991, 0.05000114440917969, 1.5, 1.20703125, 0.34527587890625, 1.49560546875, 1.579833984375, 10.0, 1.481387734413147, 1.5, 1.481387734413147
20993, 2.447263479232788, 0.20563125610351562, 0.6404062509536743, -0.010145626030862331, -0.13093572854995728, -5.81077241897583, -0.025447485968470573, -0.3323412239551544, -0.6017357110977173, -0.8025367856025696, -0.957736611366272, 0.06279026716947556, -0.5091086013412505, 0.7064938444436564, -4.059232733010551, 9362.0, 30146.0, 35388.0, 9362.0, 8.152067184448242, -0.14964017271995544, -0.027013901621103287, -0.13052164018154144, 0.008654656819999218, -0.06524918973445892, 0.9985696077346802, -0.0672120526432991, 0.05000114440917969, 1.5, 1.20703125, 0.34527587890625, 1.4912109375, 1.53076171875, 10.0, 1.481553316116333, 1.5, 1.481553316116333
21003, 2.4476897716522217, 0.2065836489200592, 0.6408528685569763, -0.010145626030862331, -0.13093572854995728, -5.81077241897583, -0.025447485968470573, -0.3323412239551544, -0.6017357110977173, -0.802528977394104, -0.957730770111084, 0.06277118623256683, -0.511590818490915, 0.7279511449291078, -4.0649567516306435, 9362.0, 30146.0, 35388.0, 9362.0, 8.152067184448242, 0.0471552275121212, 0.10720697790384293, 0.2011333554983139, 0.008654656819999218, -0.06524918973445892, 0.9985696077346802, -0.0672120526432991, 0.05000114440917969, 1.5, 1.20703125, 0.34527587890625, 1.4912109375, 1.5380859375, 10.0, 1.481895923614502, 1.5, 1.481895923614502
21073, 2.4499945640563965, 0.20237019658088684, 0.6442830562591553, -0.012279383838176727, -0.1588621735572815, -5.859005928039551, -0.027893230319023132, -0.36582228541374207, -0.6042119264602661, -0.8025364279747009, -0.9577372670173645, 0.06278084218502045, -0.515223743280387, 0.711855259911971, -4.057504338602399, 9362.0, 30146.0, 35388.0, 9362.0, 8.152067184448242, -0.0484544113278389, -0.07381965219974518, -0.19014005362987518, 0.007819589227437973, -0.06397480517625809, 0.9968862533569336, -0.0672120526432991, 0.05000114440917969, 1.5, 1.20703125, 0.34527587890625, 1.49560546875, 1.165283203125, 10.0, 1.4813909530639648, 1.5, 1.4813909530639648
21083, 2.44989013671875, 0.20155580341815948, 0.6459324955940247, -0.012279383838176727, -0.1588621735572815, -5.859005928039551, -0.027893230319023132, -0.36582228541374207, -0.6042119264602661, -0.802539587020874, -0.9577282071113586, 0.06279277056455612, -0.5089510150511994, 0.710551389346108, -4.058344655679666, 9362.0, 30146.0, 35388.0, 9362.0, 8.152067184448242, -0.0484544113278389, -0.07381965219974518, -0.19014005362987518, 0.007819589227437973, -0.06397480517625809, 0.9968862533569336, -0.0672120526432991, 0.05000114440917969, 1.5, 1.20703125, 0.34527587890625, 1.49560546875, 1.572509765625, 10.0, 1.4808051586151123, 1.5, 1.4808051586151123
21113, 2.4494478702545166, 0.19996067881584167, 0.6465396285057068, -0.012843256816267967, -0.16626232862472534, -5.871097564697266, -0.02849246934056282, -0.3741927146911621, -0.6049712300300598, -0.802535355091095, -0.9577245712280273, 0.06279247254133224, -0.5101531215431799, 0.7094875798171643, -4.0550287052833225, 9362.0, 30146.0, 35388.0, 9362.0, 8.152067184448242, -0.04033263027667999, 0.1276024580001831, -0.17246219515800476, 0.007742971647530794, -0.06403747946023941, 0.996590256690979, -0.0672120526432991, 0.05000114440917969, 1.5, 1.20703125, 0.34527587890625, 1.49560546875, 1.52197265625, 10.0, 1.480746865272522, 1.5, 1.480746865272522
21123, 2.449265241622925, 0.1961875557899475, 0.6476982831954956, -0.012843256816267967, -0.16626232862472534, -5.871097564697266, -0.02849246934056282, -0.3741927146911621, -0.6049712300300598, -0.8025328516960144, -0.9577174186706543, 0.06280326098203659, -0.5114258420926325, 0.7282609087877745, -4.065089768526382, 9362.0, 30146.0, 35388.0, 9362.0, 8.152067184448242, -0.10947752743959427, 0.11882707476615906, 0.18503651022911072, 0.007742971647530794, -0.06403747946023941, 0.996590256690979, -0.0672120526432991, 0.05000114440917969, 1.5, 1.17333984375, 0.554962158203125, 1.49560546875, 1.52197265625, 10.0, 1.480746865272522, 1.5, 1.480746865272522
21133, 2.449704647064209, 0.19784823060035706, 0.6445523500442505, -0.014006610959768295, -0.1815648376941681, -5.89532470703125, -0.02967296727001667, -0.39092767238616943, -0.6064940094947815, -0.8025374412536621, -0.9577376246452332, 0.06277825683355331, -0.5103728725983321, 0.7045479116407591, -4.053274078295623, 9362.0, 30146.0, 35388.0, 9362.0, 8.152067184448242, -0.10947752743959427, 0.11882707476615906, 0.18503651022911072, 0.0076164426282048225, -0.06678152829408646, 0.9982383847236633, -0.0672120526432991, 0.05000114440917969, 1.5, 1.17333984375, 0.554962158203125, 1.49560546875, 1.564453125, 10.0, 1.480746865272522, 1.5, 1.480746865272522
21143, 2.449920415878296, 0.1991102397441864, 0.641869306564331, -0.014304778538644314, -0.1854950487613678, -5.90139102935791, -0.02996075712144375, -0.3951144516468048, -0.6067942976951599, -0.8025409579277039, -0.9577346444129944, 0.0627821832895279, -0.5092115457039182, 0.7182602690517683, -4.052542667724696, 9362.0, 30146.0, 35388.0, 9362.0, 8.152067184448242, -0.20520393550395966, -0.10007929056882858, -0.20327365398406982, 0.0076164426282048225, -0.06678152829408646, 0.9982383847236633, -0.0672120526432991, 0.05000114440917969, 1.5, 1.17333984375, 0.554962158203125, 1.49560546875, 1.564453125, 10.0, 1.4797024726867676, 1.5, 1.4797024726867676
21153, 2.4496405124664307, 0.20088422298431396, 0.6423346996307373, -0.014304778538644314, -0.1854950487613678, -5.90139102935791, -0.02996075712144375, -0.3951144516468048, -0.6067942976951599, -0.8025336861610413, -0.9577143788337708, 0.0627969428896904, -0.5128444292688749, 0.703261459272909, -4.062673152689232, 9362.0, 30146.0, 35388.0, 9362.0, 8.152067184448242, -0.20520393550395966, -0.10007929056882858, -0.20327365398406982, 0.009767149575054646, -0.06435933709144592, 0.9954771399497986, -0.0672120526432991, 0.05000114440917969, 1.5, 1.17333984375, 0.554962158203125, 1.4912109375, 1.564453125, 10.0, 1.4799623489379883, 1.5, 1.4799623489379883
21163, 2.4478225708007812, 0.20147718489170074, 0.643242359161377, -0.014304778538644314, -0.1854950487613678, -5.90139102935791, -0.02996075712144375, -0.3951144516468048, -0.6067942976951599, -0.8025270700454712, -0.9577193856239319, 0.06279128789901733, -0.5153691180755422, 0.7134945117188352, -4.05703539807275, 9362.0, 30146.0, 35388.0, 9362.0, 8.152067184448242, -0.20520393550395966, -0.10007929056882858, -0.20327365398406982, 0.009429880417883396, -0.06469045579433441, 0.9961302876472473, -0.0672120526432991, 0.05000114440917969, 1.5, 1.17333984375, 0.554962158203125, 1.4912109375, 1.56591796875, 10.0, 1.4799623489379883, 1.5, 1.4799623489379883
21173, 2.4488019943237305, 0.20108811557292938, 0.6454063057899475, -0.015216734260320663, -0.19753678143024445, -5.919612407684326, -0.030839303508400917, -0.4076620638370514, -0.6080561280250549, -0.80253005027771, -0.9577411413192749, 0.06279751658439636, -0.5206239394867714, 0.7222816916404895, -4.054928006401461, 9362.0, 30146.0, 35388.0, 9362.0, 8.152067184448242, -0.20520393550395966, -0.10007929056882858, -0.20327365398406982, 0.008940310217440128, -0.06439411640167236, 0.9963620901107788, -0.0672120526432991, 0.05000114440917969, 1.5, 1.17333984375, 0.554962158203125, 1.4912109375, 1.56591796875, 10.0, 1.4781938791275024, 1.5, 1.4781938791275024
21183, 2.4483225345611572, 0.2007226198911667, 0.6479450464248657, -0.015526609495282173, -0.20163428783416748, -5.925695419311523, -0.03113556280732155, -0.41183891892433167, -0.6085317134857178, -0.8025407791137695, -0.9577335715293884, 0.0627884790301323, -0.5124158496410232, 0.7123522785170735, -4.050749258914372, 9362.0, 30146.0, 35388.0, 9362.0, 8.152067184448242, -0.20520393550395966, -0.10007929056882858, -0.20327365398406982, 0.00808246061205864, -0.06723101437091827, 0.9967001080513, -0.0672120526432991, 0.05000114440917969, 1.5, 1.17333984375, 0.554962158203125, 1.4912109375, 1.56591796875, 10.0, 1.4775512218475342, 1.5, 1.4775512218475342
21193, 2.4476406574249268, 0.2010500580072403, 0.6472967267036438, -0.015526609495282173, -0.20163428783416748, -5.925695419311523, -0.03113556280732155, -0.41183891892433167, -0.6085317134857178, -0.8025321364402771, -0.9577321410179138, 0.06278979033231735, -0.5132400389671679, 0.7141876814349928, -4.058952441575312, 9362.0, 30146.0, 35388.0, 9362.0, 8.152067184448242, -0.20520393550395966, -0.10007929056882858, -0.20327365398406982, 0.010109905153512955, -0.06719037145376205, 0.9957411289215088, -0.0672120526432991, 0.05000114440917969, 1.5, 1.17333984375, 0.554962158203125, 1.4912109375, 1.5673828125, 10.0, 1.4762965440750122, 1.5, 1.4762965440750122
21203, 2.4462432861328125, 0.1983206570148468, 0.6465709209442139, -0.015526609495282173, -0.20163428783416748, -5.925695419311523, -0.03113556280732155, -0.41183891892433167, -0.6085317134857178, -0.8025164008140564, -0.9577251076698303, 0.06282200664281845, -0.5149682958977047, 0.7131435929194367, -4.058606677695707, 9362.0, 30146.0, 35388.0, 9362.0, 8.152067184448242, -0.20520393550395966, -0.10007929056882858, -0.20327365398406982, 0.01026198361068964, -0.06633543223142624, 0.9972959756851196, -0.0672120526432991, 0.05000114440917969, 1.5, 1.17333984375, 0.554962158203125, 1.4912109375, 1.14990234375, 10.0, 1.4757716655731201, 1.5, 1.4757716655731201
21213, 2.4462780952453613, 0.19898107647895813, 0.6473273634910583, -0.015526609495282173, -0.20163428783416748, -5.925695419311523, -0.03113556280732155, -0.41183891892433167, -0.6085317134857178, -0.8025244474411011, -0.9577275514602661, 0.06280096620321274, -0.5156211318286115, 0.7205438412313185, -4.059769467013752, 9362.0, 30146.0, 35388.0, 9362.0, 8.152067184448242, -0.20520393550395966, -0.10007929056882858, -0.20327365398406982, 0.01026198361068964, -0.06633543223142624, 0.9972959756851196, -0.0672120526432991, 0.05000114440917969, 1.5, 1.17333984375, 0.554962158203125, 1.4912109375, 1.14990234375, 10.0, 1.4747530221939087, 1.5, 1.4747530221939087
21223, 2.4464221000671387, 0.1973506361246109, 0.6494219899177551, -0.015526609495282173, -0.20163428783416748, -5.925695419311523, -0.03113556280732155, -0.41183891892433167, -0.6085317134857178, -0.8025195598602295, -0.9577262997627258, 0.06278249621391296, -0.5118731376639208, 0.7242058479911861, -4.067266332335363, 9362.0, 30146.0, 35388.0, 9362.0, 8.152067184448242, -0.20520393550395966, -0.10007929056882858, -0.20327365398406982, 0.01026198361068964, -0.06633543223142624, 0.9972959756851196, -0.0672120526432991, 0.05000114440917969, 1.5, 1.17333984375, 0.554962158203125, 1.4912109375, 1.14990234375, 10.0, 1.4749494791030884, 1.5, 1.4749494791030884
