timeTick, roll, pitch, yaw, stateX, stateY, stateZ, stateVX, stateVY, stateVZ, otX0, otY0, otZ0, otRoll0, otPitch0, otYaw0, left wing, pitch motor, yaw motor, right wing, voltage, roll rate, pitch rate, yaw rate, A_x, A_y, A_z, current, i_raw, v_raw, airflow_voltage, airflow_speed, pot_Pitch, voltage_nKF, kFFx, volt_KF_vel, kP, volt_KF_pos
23744, 1.2644697427749634, -5.061797618865967, -0.4830181896686554, 0, 0, 0, 0, 0, 0, -0.7905353903770447, -0.9765956997871399, 0.06278082728385925, -0.7359605685699653, -0.06091923346698991, -2.4847304635766374, 0, 0, 0, 0, 0, 0, 0, 0, 0, 0, 0, 0, 0, 0, 0, 0, 0, 0, 0, 0, 0, 0
23754, 1.2644954919815063, -5.060361385345459, -0.48410671949386597, -0.0004445411032065749, 0.00011506275041028857, -3.874662399291992, -0.013601892627775669, 0.003519506426528096, -0.349918007850647, -0.7905313372612, -0.9765956997871399, 0.06278276443481445, -0.7367580958640443, -0.050507214486856356, -2.486707716175817, 9362.0, 30146.0, 35388.0, 9362.0, 0, -0.10248765349388123, -0.557147204875946, -0.2075185626745224, 0.002356959506869316, -0.06805091351270676, 0.9971454739570618, 0, 0, 0, 0, 0, 0, 0, 0, 0, 0, 0
23764, 1.263814091682434, -5.056138038635254, -0.4870854616165161, -0.0005374590400606394, 0.00013908823893871158, -3.878164529800415, -0.004981725011020899, 0.001285427832044661, -0.35048815608024597, -0.7905586957931519, -0.9766061305999756, 0.0627700686454773, -0.7353091626549353, -0.053342942690278505, -2.4836276186609516, 9362.0, 30146.0, 35388.0, 9362.0, 0, -0.11471905559301376, -0.1542632132768631, -0.00752099696546793, 0.003730075666680932, -0.06925100088119507, 0.9972473382949829, 0, 0, 0, 1.51611328125, 0.2286224365234375, 0, 1.275146484375, 10.0, 1.5766782760620117, 1.5, 1.5766782760620117
23774, 1.26290762424469, -5.054215908050537, -0.4879570007324219, -0.0005442336550913751, 0.00014078391541261226, -3.8816728591918945, 0.0036267342511564493, -0.0009467381751164794, -0.3511616885662079, -0.7904924154281616, -0.976591169834137, 0.06280623376369476, -0.7282159949020224, -0.035275049299855255, -2.517772362247265, 9362.0, 30146.0, 35388.0, 9362.0, 0, -0.07848107814788818, -0.18487483263015747, -0.12805843353271484, 0.003390930825844407, -0.06842038035392761, 0.9978742599487305, 0, 0, 0, 1.5732421875, 0.354736328125, 1.490478515625, 1.83544921875, 10.0, 1.5773391723632812, 1.5, 1.5773391723632812
23784, 1.2621214389801025, -5.053342342376709, -0.48798418045043945, -0.00046493811532855034, 0.00012015610991511494, -3.8851876258850098, 0.012232370674610138, -0.0031789520289748907, -0.35178497433662415, -0.7905522584915161, -0.9765834808349609, 0.06276918947696686, -0.7351562529046519, -0.04793982392629914, -2.4974551460567374, 9362.0, 30146.0, 35388.0, 9362.0, 0, -0.21282468736171722, 0.049686748534440994, 0.029232285916805267, 0.0015202249633148313, -0.06831464171409607, 0.9953133463859558, 0, 0, 0, 1.65673828125, 0.55560302734375, 1.490478515625, 1.50732421875, 10.0, 1.5780744552612305, 1.5, 1.5780744552612305
23794, 1.2608975172042847, -5.053802967071533, -0.4898480176925659, -0.00029964750865474343, 7.722501322859898e-05, -3.88870906829834, 0.020825767889618874, -0.005407270509749651, -0.3525097072124481, -0.7905502319335938, -0.9766044616699219, 0.06277329474687576, -0.7359596116540412, -0.04951175192800861, -2.487610452658131, 9362.0, 30146.0, 35388.0, 9362.0, 0, 0.02487175725400448, -0.031211789697408676, -0.3699394166469574, 0.0018112367251887918, -0.07081856578588486, 0.9971191883087158, 0, 0, 0, 1.53515625, 0.2692413330078125, 1.489013671875, 1.81201171875, 10.0, 1.5786405801773071, 1.5, 1.5786405801773071
23804, 1.2611141204833984, -5.054823875427246, -0.49472764134407043, -4.8468762543052435e-05, 1.2027456250507385e-05, -3.892238140106201, 0.02940991334617138, -0.007632519118487835, -0.35332179069519043, -0.7905024886131287, -0.9766015410423279, 0.06279934197664261, -0.7304632548947977, -0.033296984394667106, -2.517304778481935, 9362.0, 30146.0, 35388.0, 9362.0, 0, -0.2712816894054413, 0.1495129019021988, -0.34060972929000854, 0.003677534172311425, -0.06906446069478989, 0.9975445866584778, 0, 0, 0, 1.837646484375, 1.118377685546875, 1.489013671875, 1.60400390625, 10.0, 1.579387903213501, 1.5, 1.579387903213501
23814, 1.2602829933166504, -5.056277751922607, -0.49517887830734253, 0.0002886212896555662, -7.543071114923805e-05, -3.8957746028900146, 0.03800788149237633, -0.009859850630164146, -0.3539840579032898, -0.7904989123344421, -0.9765928983688354, 0.06280537694692612, -0.7309553315865747, -0.03461845617979975, -2.5138906721663488, 9362.0, 30146.0, 35388.0, 9362.0, 0, 0.004610591102391481, 0.16923601925373077, 0.016798829659819603, 0.0027973614633083344, -0.0683145821094513, 0.9973453283309937, 0, 0, 0, 1.4033203125, 0.043182373046875, 1.49560546875, 1.831787109375, 10.0, 1.5789839029312134, 1.5, 1.5789839029312134
23824, 1.2600233554840088, -5.057431697845459, -0.4972251057624817, 0.0007117092609405518, -0.0001851705164881423, -3.899317741394043, 0.046609681099653244, -0.012088174000382423, -0.3546225428581238, -0.7905552983283997, -0.9765912294387817, 0.06278487294912338, -0.7371453886826272, -0.04024810247747723, -2.4914893550984774, 9362.0, 30146.0, 35388.0, 9362.0, 0, 0.04725329950451851, 0.017268400639295578, -0.2684515714645386, 0.001021285424940288, -0.06838496029376984, 0.9983512759208679, 0, 0, 0, 1.811279296875, 1.0143890380859375, 1.49560546875, 1.56884765625, 10.0, 1.5783889293670654, 1.5, 1.5783889293670654
23834, 1.2605937719345093, -5.059061527252197, -0.4962460398674011, 0.0012208297848701477, -0.0003171874559484422, -3.902867078781128, 0.05521434172987938, -0.014315526932477951, -0.35525619983673096, -0.7904819250106812, -0.9766064286231995, 0.06277284026145935, -0.7334288757081, -0.05789140403035731, -2.511756720958279, 9362.0, 30146.0, 35388.0, 9362.0, 0, -0.007259146310389042, 0.09908327460289001, 0.005644189193844795, 0.002368535613641143, -0.06936387717723846, 0.9979640245437622, 0, 0, 0, 1.74462890625, 0.793792724609375, 1.491943359375, 1.58349609375, 10.0, 1.5786992311477661, 1.5, 1.5786992311477661
23844, 1.2609825134277344, -5.06020450592041, -0.4962042570114136, 0.001816055504605174, -0.0004714900569524616, -3.9064221382141113, 0.06383082270622253, -0.016544846817851067, -0.35577893257141113, -0.7905954718589783, -0.9766068458557129, 0.06280780583620071, -0.7313368996663059, -0.06574276236912624, -2.474230506190046, 9362.0, 30146.0, 35388.0, 9362.0, 8.132232666015625, 0.11978697031736374, 0.32102733850479126, -0.3650887608528137, 0.00196564057841897, -0.06713232398033142, 0.9968639016151428, -0.05881466716527939, -0.0037593841552734375, 1.49560546875, 1.5234375, 0.2439727783203125, 1.491943359375, 1.3857421875, 10.0, 1.5781538486480713, 1.5, 1.5781538486480713
23854, 1.2609331607818604, -5.062062740325928, -0.49764734506607056, 0.0024974022526293993, -0.0006480751326307654, -3.9099831581115723, 0.07243849337100983, -0.018772166222333908, -0.35643279552459717, -0.7903918027877808, -0.9765818119049072, 0.06290402263402939, -0.7000770314782558, -0.005837419123025711, -2.5610404127845596, 9362.0, 30146.0, 35388.0, 9362.0, 8.132232666015625, 0.220162495970726, 0.11372552812099457, -0.14617615938186646, 0.0035673840902745724, -0.06992331147193909, 0.9978940486907959, -0.05881466716527939, -0.0037593841552734375, 1.49560546875, 1.694091796875, 0.6522369384765625, 1.493408203125, 1.4091796875, 10.0, 1.5786988735198975, 1.5, 1.5786988735198975
23864, 1.2606490850448608, -5.062811851501465, -0.4991852641105652, 0.003264824626967311, -0.0008469340391457081, -3.913550853729248, 0.08104591071605682, -0.020999832078814507, -0.3571111261844635, -0.7903988361358643, -0.9765745401382446, 0.0629127249121666, -0.6986666404015771, -0.010149081293633344, -2.554428392939539, 9362.0, 30146.0, 35388.0, 9362.0, 8.132232666015625, -0.04871886596083641, 0.2158919721841812, 0.08251123875379562, 0.004005684517323971, -0.07029583305120468, 0.9994899034500122, -0.05881466716527939, -0.0037593841552734375, 1.49560546875, 1.38427734375, 0.027099609375, 1.493408203125, 1.80615234375, 10.0, 1.5793393850326538, 1.5, 1.5793393850326538
23874, 1.2611351013183594, -5.064449310302734, -0.49753373861312866, 0.004118378274142742, -0.0010680812411010265, -3.9171249866485596, 0.08966477960348129, -0.023229820653796196, -0.35769516229629517, -0.790391743183136, -0.9765728116035461, 0.06291145831346512, -0.6950864523727308, -0.0107739188637197, -2.5630131516712, 9362.0, 30146.0, 35388.0, 9362.0, 8.132232666015625, 0.2163587361574173, 0.3068664073944092, 0.1422463357448578, 0.0026592155918478966, -0.06948335468769073, 0.9997997283935547, -0.05881466716527939, -0.0037593841552734375, 1.49560546875, 1.5498046875, 0.3014678955078125, 1.4912109375, 1.34912109375, 10.0, 1.57994544506073, 1.5, 1.57994544506073
23884, 1.2620211839675903, -5.06591796875, -0.49892112612724304, 0.005058192647993565, -0.001311544212512672, -3.9207041263580322, 0.09829818457365036, -0.02546251192688942, -0.3581300675868988, -0.790401041507721, -0.9765874147415161, 0.06290014088153839, -0.7001074406924824, -0.013671842972257764, -2.5607948507220697, 9362.0, 30146.0, 35388.0, 9362.0, 8.132232666015625, -0.15574701130390167, 0.2908037006855011, -0.3052078187465668, 0.002014782978221774, -0.0684317797422409, 0.9967586398124695, -0.05881466716527939, -0.0037593841552734375, 1.49560546875, 1.62890625, 0.4867095947265625, 1.4912109375, 1.6171875, 10.0, 1.5803619623184204, 1.5, 1.5803619623184204
23894, 1.2614303827285767, -5.069108486175537, -0.5001143217086792, 0.0060843201354146, -0.0015773279592394829, -3.924288034439087, 0.10692727565765381, -0.027694446966052055, -0.3586452007293701, -0.7903913855552673, -0.9765750765800476, 0.06292647868394852, -0.700929064208953, -0.0063655039302261684, -2.559761498912256, 9362.0, 30146.0, 35388.0, 9362.0, 8.132232666015625, 0.002948882756754756, 0.1549971103668213, -0.0726114884018898, 0.0017920421669259667, -0.06749144196510315, 0.99773770570755, -0.05881466716527939, -0.0037593841552734375, 1.49560546875, 1.869873046875, 1.2633209228515625, 1.49267578125, 1.70947265625, 10.0, 1.580916166305542, 1.5, 1.580916166305542
23904, 1.2616487741470337, -5.069753170013428, -0.5009151101112366, 0.007196657359600067, -0.0018654154846444726, -3.9278781414031982, 0.11554006487131119, -0.029923250898718834, -0.3593721389770508, -0.790379524230957, -0.9765712022781372, 0.06291303783655167, -0.6957083486178451, -0.004484147418253315, -2.559492109342246, 9362.0, 30146.0, 35388.0, 9362.0, 8.132232666015625, 0.11249649524688721, -0.07298921048641205, -0.02982672117650509, 0.003078205045312643, -0.06974921375513077, 0.9990147352218628, -0.05881466716527939, -0.0037593841552734375, 1.49560546875, 1.72705078125, 0.742584228515625, 1.49267578125, 1.62890625, 10.0, 1.5806208848953247, 1.5, 1.5806208848953247
23914, 1.2615631818771362, -5.070858955383301, -0.5016757249832153, 0.008395199663937092, -0.002175800269469619, -3.9314749240875244, 0.12416840344667435, -0.03215382993221283, -0.3599849045276642, -0.790385365486145, -0.9765716195106506, 0.06291964650154114, -0.6894339022638789, -0.009769586592085489, -2.565359347175091, 9362.0, 30146.0, 35388.0, 9362.0, 8.132232666015625, 0.08472283184528351, 0.10268469899892807, 0.015314850024878979, 0.0013272478245198727, -0.06937827914953232, 0.9987553358078003, -0.05881466716527939, -0.0037593841552734375, 1.49560546875, 1.669921875, 0.589080810546875, 1.49267578125, 1.883056640625, 10.0, 1.5798563957214355, 1.5, 1.5798563957214355
23924, 1.2609379291534424, -5.070257663726807, -0.5008915066719055, 0.009680094197392464, -0.0025085099041461945, -3.93507719039917, 0.1328105628490448, -0.03438819572329521, -0.36045366525650024, -0.7903944253921509, -0.9765681624412537, 0.06291311979293823, -0.6997022652306745, -0.002468860475858037, -2.561157881647675, 9362.0, 30146.0, 35388.0, 9362.0, 8.132232666015625, -0.10246467590332031, -0.1275087594985962, -0.2546803057193756, 0.003629167564213276, -0.06912049651145935, 0.9957469701766968, -0.05881466716527939, -0.0037593841552734375, 1.49560546875, 1.808349609375, 1.0036163330078125, 1.49267578125, 1.36669921875, 10.0, 1.5801087617874146, 1.5, 1.5801087617874146
23934, 1.2615805864334106, -5.070835590362549, -0.501089334487915, 0.011051361449062824, -0.002863547997549176, -3.9386847019195557, 0.14144298434257507, -0.03661929816007614, -0.3610544204711914, -0.7903854250907898, -0.9765693545341492, 0.06293953210115433, -0.6954995166150516, -0.0077664031161930325, -2.554987351603964, 9362.0, 30146.0, 35388.0, 9362.0, 8.132232666015625, 0.002818277571350336, -0.0741492435336113, 0.1941506415605545, 0.00265084533020854, -0.06708256155252457, 0.9965686202049255, -0.05881466716527939, -0.0037593841552734375, 1.49560546875, 1.6171875, 0.4583282470703125, 1.494873046875, 1.833984375, 10.0, 1.5808513164520264, 1.5, 1.5808513164520264
23944, 1.2628034353256226, -5.07020378112793, -0.5010592937469482, 0.012508840300142765, -0.0032408633269369602, -3.9422993659973145, 0.15005278587341309, -0.0388437882065773, -0.36189860105514526, -0.7903958559036255, -0.9765668511390686, 0.06291335821151733, -0.6975420551772169, -0.0004331565497182055, -2.55336762165769, 9362.0, 30146.0, 35388.0, 9362.0, 8.132232666015625, 0.24176332354545593, 0.18082964420318604, -0.025016700848937035, 0.001623569754883647, -0.06767527014017105, 0.9991067051887512, -0.05733095481991768, 0.023120880126953125, 1.497802734375, 1.78564453125, 0.9235076904296875, 1.494873046875, 1.2333984375, 10.0, 1.581012487411499, 1.5, 1.581012487411499
23954, 1.2647076845169067, -5.0720133781433105, -0.5023334622383118, 0.014052501879632473, -0.0036404498387128115, -3.9459216594696045, 0.15867957472801208, -0.0410735085606575, -0.3625625967979431, -0.7903978824615479, -0.9765701293945312, 0.06290686875581741, -0.700397775044607, -0.0033690362707545773, -2.5593336970968217, 9362.0, 30146.0, 35388.0, 9362.0, 8.132232666015625, 0.22989951074123383, 0.058594509959220886, -0.18826936185359955, 0.0010067714611068368, -0.06882338225841522, 0.9962798953056335, -0.05733095481991768, 0.023120880126953125, 1.497802734375, 1.839111328125, 1.1245574951171875, 1.491943359375, 1.62744140625, 10.0, 1.581451177597046, 1.5, 1.581451177597046
23964, 1.2657711505889893, -5.073404788970947, -0.5031092762947083, 0.015682466328144073, -0.004062354099005461, -3.949550151824951, 0.16731314361095428, -0.04330756887793541, -0.3631368577480316, -0.7903913259506226, -0.976570188999176, 0.06292887032032013, -0.7028410597105078, 0.003910175321095721, -2.5542001694016827, 9362.0, 30146.0, 35388.0, 9362.0, 8.132232666015625, -0.01474746409803629, 0.14878523349761963, -0.12306598573923111, 0.002754280576482415, -0.06925733387470245, 0.996799886226654, -0.05733095481991768, 0.023120880126953125, 1.497802734375, 1.408447265625, 0.0485382080078125, 1.491943359375, 1.714599609375, 10.0, 1.5811704397201538, 1.5, 1.5811704397201538
23974, 1.2652387619018555, -5.075293064117432, -0.5035762190818787, 0.017398696392774582, -0.004506594501435757, -3.9531853199005127, 0.17593297362327576, -0.04554067179560661, -0.36390024423599243, -0.7903947234153748, -0.9765591621398926, 0.06291937828063965, -0.6959611307406978, 0.001050454933022138, -2.5599316810349997, 9362.0, 30146.0, 35388.0, 9362.0, 8.132232666015625, -0.01944584585726261, 0.21973927319049835, 0.09670159965753555, 0.003259181510657072, -0.06841631978750229, 0.9985791444778442, -0.05733095481991768, 0.023120880126953125, 1.497802734375, 1.8076171875, 1.0009613037109375, 1.493408203125, 1.377685546875, 10.0, 1.5807863473892212, 1.5, 1.5807863473892212
23984, 1.2663748264312744, -5.076050281524658, -0.5021233558654785, 0.019201179966330528, -0.004973187111318111, -3.9568276405334473, 0.18456386029720306, -0.04777795076370239, -0.364565372467041, -0.7904127240180969, -0.9765675663948059, 0.06293827295303345, -0.6913025210054791, -0.0043128736963922165, -2.547167303184855, 9362.0, 30146.0, 35388.0, 9362.0, 8.132232666015625, -0.0781676173210144, -0.024571320042014122, -0.11272215098142624, 0.002181129762902856, -0.07033143937587738, 0.9988785982131958, -0.05733095481991768, 0.023120880126953125, 1.497802734375, 1.191650390625, 0.4329986572265625, 1.493408203125, 1.7548828125, 10.0, 1.5814526081085205, 1.5, 1.5814526081085205
23994, 1.2657301425933838, -5.075440406799316, -0.5038759708404541, 0.021090054884552956, -0.005462165456265211, -3.9604759216308594, 0.19321101903915405, -0.05001748353242874, -0.3650844693183899, -0.790400505065918, -0.9765761494636536, 0.06292333453893661, -0.6944911282983173, -0.006859530208032538, -2.5514261241664253, 9362.0, 30146.0, 35388.0, 9362.0, 8.132232666015625, -0.12609046697616577, 0.0428379625082016, -0.02493872679769993, 0.0008106694440357387, -0.0678091049194336, 0.9964513778686523, -0.05733095481991768, 0.023120880126953125, 1.497802734375, 1.330078125, 0.0206298828125, 1.493408203125, 1.842041015625, 10.0, 1.5818736553192139, 1.5, 1.5818736553192139
24004, 1.2656868696212769, -5.0762457847595215, -0.5054111480712891, 0.023065371438860893, -0.005973538383841515, -3.964129686355591, 0.20185235142707825, -0.05225740745663643, -0.36568278074264526, -0.7903520464897156, -0.9765903949737549, 0.06292310357093811, -0.6812706975669329, -0.03611459288822516, -2.562336858685539, 9362.0, 30146.0, 35388.0, 9362.0, 8.132232666015625, 0.09429201483726501, -0.003960950765758753, -0.23587100207805634, 0.0002225488715339452, -0.06747070699930191, 0.9969643354415894, -0.05733095481991768, 0.023120880126953125, 1.497802734375, 1.276611328125, 0.0910186767578125, 1.493408203125, 1.680908203125, 10.0, 1.5823187828063965, 1.5, 1.5823187828063965
24014, 1.2662155628204346, -5.075209140777588, -0.5070428252220154, 0.025127030909061432, -0.006507289595901966, -3.967790126800537, 0.2104795128107071, -0.05449308082461357, -0.36642855405807495, -0.7903956174850464, -0.9765677452087402, 0.06291256844997406, -0.7028803749511904, -0.003124333406333335, -2.5555286288035512, 9362.0, 30146.0, 35388.0, 9362.0, 8.132232666015625, 0.10879591852426529, -0.39292481541633606, 0.13138042390346527, 0.00016773559036664665, -0.06705199927091599, 0.9973998665809631, -0.05733095481991768, 0.023120880126953125, 1.497802734375, 1.71240234375, 0.70159912109375, 1.48974609375, 1.8017578125, 10.0, 1.5827300548553467, 1.5, 1.5827300548553467
24024, 1.267113208770752, -5.0748066902160645, -0.506715714931488, 0.02727498859167099, -0.0070634037256240845, -3.9714579582214355, 0.21911205351352692, -0.056729964911937714, -0.36712905764579773, -0.7903973460197449, -0.9765653014183044, 0.06293053925037384, -0.702089276123092, -0.007548322901499205, -2.5466391285074335, 9362.0, 30146.0, 35388.0, 9362.0, 8.132232666015625, -0.14895354211330414, 0.2923385500907898, -0.0884934738278389, 0.0010280385613441467, -0.067744180560112, 0.997650146484375, -0.05733095481991768, 0.023120880126953125, 1.497802734375, 1.28173828125, 0.0802001953125, 1.48974609375, 1.70361328125, 10.0, 1.583441138267517, 1.5, 1.583441138267517
24034, 1.2668882608413696, -5.076100826263428, -0.5079779028892517, 0.029509302228689194, -0.007641902193427086, -3.9751322269439697, 0.2277504950761795, -0.05896969884634018, -0.3677423894405365, -0.7903904914855957, -0.9765672087669373, 0.06292801350355148, -0.7027443753147317, 0.0014071668032045181, -2.5509147929308553, 9362.0, 30146.0, 35388.0, 9362.0, 8.132232666015625, -0.018744859844446182, 0.1771438866853714, -0.09574591368436813, 0.001563021563924849, -0.06838144361972809, 0.9971556663513184, -0.05733095481991768, 0.023120880126953125, 1.497802734375, 1.8134765625, 1.0226898193359375, 1.4912109375, 1.281005859375, 10.0, 1.5831587314605713, 1.5, 1.5831587314605713
24044, 1.26687753200531, -5.075646877288818, -0.508254885673523, 0.03182995691895485, -0.008242795243859291, -3.9788131713867188, 0.23638029396533966, -0.061209097504615784, -0.3684447705745697, -0.7904354333877563, -0.9765586853027344, 0.06287306547164917, -0.6918758449918921, -0.001028637067292948, -2.5717286881935744, 9362.0, 30146.0, 35388.0, 9362.0, 8.132232666015625, -0.08229809254407883, -0.3775547742843628, 0.11030247062444687, 0.003553899470716715, -0.06763017922639847, 0.9975395202636719, -0.0794483870267868, -0.20087814331054688, 1.4794921875, 1.692626953125, 0.648193359375, 1.4912109375, 1.7607421875, 10.0, 1.5838243961334229, 1.5, 1.5838243961334229
24054, 1.2672759294509888, -5.0753493309021, -0.5056122541427612, 0.03423692658543587, -0.0088660828769207, -3.9825010299682617, 0.24501347541809082, -0.063448466360569, -0.36913442611694336, -0.7904305458068848, -0.9765591621398926, 0.0628938302397728, -0.6899897743335885, -0.0052791284418560736, -2.5677622681729746, 9362.0, 30146.0, 35388.0, 9362.0, 8.132232666015625, -0.06212093308568001, 0.2976846992969513, 0.11197829991579056, 0.0028298727702349424, -0.06955158710479736, 0.9964739680290222, -0.0794483870267868, -0.20087814331054688, 1.4794921875, 1.619384765625, 0.4635009765625, 1.49267578125, 1.786376953125, 10.0, 1.5844602584838867, 1.5, 1.5844602584838867
24064, 1.2689090967178345, -5.075316905975342, -0.5051820278167725, 0.036730218678712845, -0.009511763229966164, -3.9861958026885986, 0.25364530086517334, -0.06568725407123566, -0.3698309659957886, -0.7904354929924011, -0.9765752553939819, 0.06289051473140717, -0.6914798940570709, -0.0010072949396260356, -2.5747992259410695, 9362.0, 30146.0, 35388.0, 9362.0, 8.132232666015625, 0.13122014701366425, -0.3711687922477722, 0.04917614534497261, 0.0020305125508457422, -0.06824018061161041, 0.9977888464927673, -0.0794483870267868, -0.20087814331054688, 1.4794921875, 1.767333984375, 0.8634033203125, 1.49267578125, 1.777587890625, 10.0, 1.5850963592529297, 1.5, 1.5850963592529297
24074, 1.2689573764801025, -5.073431015014648, -0.5054522156715393, 0.03930981457233429, -0.010179828852415085, -3.9898977279663086, 0.2622736394405365, -0.06792587041854858, -0.37056171894073486, -0.7904295921325684, -0.9765726923942566, 0.06289391219615936, -0.6903495598025539, -0.005410293496538543, -2.5733869260956803, 9362.0, 30146.0, 35388.0, 9362.0, 8.132232666015625, 0.3141370713710785, -0.06397867947816849, 0.022318443283438683, 0.002700923243537545, -0.06719472259283066, 0.9975863695144653, -0.0794483870267868, -0.20087814331054688, 1.4794921875, 1.644287109375, 0.524505615234375, 1.491943359375, 1.68896484375, 10.0, 1.585880994796753, 1.5, 1.585880994796753
24084, 1.2696565389633179, -5.074063777923584, -0.5041444897651672, 0.041975729167461395, -0.010870303958654404, -3.9936065673828125, 0.2709093987941742, -0.07016925513744354, -0.3712073266506195, -0.7904309034347534, -0.9765593409538269, 0.06289125233888626, -0.6874675319965945, -0.004690548345479328, -2.577478210978299, 9362.0, 30146.0, 35388.0, 9362.0, 8.132232666015625, -0.02053993195295334, -0.21038180589675903, 0.24465630948543549, 0.0029843070078641176, -0.06835105270147324, 0.9962059259414673, -0.0794483870267868, -0.20087814331054688, 1.4794921875, 1.77392578125, 0.8846893310546875, 1.491943359375, 1.76953125, 10.0, 1.5860332250595093, 1.5, 1.5860332250595093
24094, 1.2714357376098633, -5.073810577392578, -0.5033471584320068, 0.044727977365255356, -0.011583210900425911, -3.9973220825195312, 0.27954015135765076, -0.07241202145814896, -0.37187421321868896, -0.790442168712616, -0.9765740633010864, 0.0629095733165741, -0.6855706715384113, 0.004984823055906418, -2.5769393393231677, 9362.0, 30146.0, 35388.0, 9362.0, 8.132232666015625, 0.14318229258060455, 0.05174676701426506, 0.07580383121967316, 0.002669690176844597, -0.06823281198740005, 0.9961099624633789, -0.0794483870267868, -0.20087814331054688, 1.4794921875, 1.82080078125, 1.0506591796875, 1.48974609375, 1.37548828125, 10.0, 1.585219383239746, 1.5, 1.585219383239746
24104, 1.2715481519699097, -5.072841644287109, -0.5022243857383728, 0.0475664921104908, -0.012318539433181286, -4.001044750213623, 0.28816285729408264, -0.0746534988284111, -0.37264400720596313, -0.790444016456604, -0.9765641093254089, 0.0628790408372879, -0.690327436530117, 0.0017925349231973087, -2.571710394631991, 9362.0, 30146.0, 35388.0, 9362.0, 8.132232666015625, -0.2361053079366684, -0.40104061365127563, 0.3168851435184479, 0.002860991982743144, -0.06840797513723373, 0.9967924356460571, -0.0794483870267868, -0.20087814331054688, 1.4794921875, 1.27734375, 0.0894012451171875, 1.48974609375, 1.806884765625, 10.0, 1.584421992301941, 1.5, 1.584421992301941
24124, 1.270469069480896, -5.068209648132324, -0.4976983666419983, 0.050491224974393845, -0.013076295144855976, -4.004775047302246, 0.296783983707428, -0.07689753919839859, -0.3734264075756073, -0.7904092073440552, -0.9765650629997253, 0.06283535063266754, -0.6978349973005118, -0.024253596582383352, -2.580996546543318, 9362.0, 30146.0, 35388.0, 9362.0, 8.132232666015625, -0.2361053079366684, -0.40104061365127563, 0.3168851435184479, 0.0020653128158301115, -0.06735464930534363, 0.9974452257156372, -0.0794483870267868, -0.20087814331054688, 1.4794921875, 1.540283203125, 0.280364990234375, 1.48974609375, 1.806884765625, 10.0, 1.5854222774505615, 1.5, 1.5854222774505615
24154, 1.2716282606124878, -5.071244716644287, -0.48829829692840576, 0.06305275857448578, -0.01633186638355255, -4.0197649002075195, 0.3312932252883911, -0.0858784094452858, -0.37605199217796326, -0.7905492186546326, -0.9765725135803223, 0.06271433085203171, -0.7317177253814139, -0.016909802246715344, -2.5377666537977013, 9362.0, 30146.0, 35388.0, 9362.0, 8.132232666015625, 0.03803907334804535, 0.023117413744330406, -0.001594684668816626, 0.0025116202887147665, -0.07011960446834564, 0.9982934594154358, -0.0794483870267868, -0.20087814331054688, 1.4794921875, 1.094970703125, 1.3307952880859375, 1.494140625, 1.806884765625, 10.0, 1.5858705043792725, 1.5, 1.5858705043792725
24164, 1.2715195417404175, -5.0712714195251465, -0.48593229055404663, 0.06305275857448578, -0.01633186638355255, -4.0197649002075195, 0.3312932252883911, -0.0858784094452858, -0.37605199217796326, -0.7906087636947632, -0.9765660166740417, 0.06269528716802597, -0.734288594469291, -0.027730293785054982, -2.5036978047480902, 9362.0, 30146.0, 35388.0, 9362.0, 8.132232666015625, 0.03803907334804535, 0.023117413744330406, -0.001594684668816626, 0.0036727027036249638, -0.07089021056890488, 0.9973724484443665, -0.0794483870267868, -0.20087814331054688, 1.4794921875, 1.094970703125, 1.3307952880859375, 1.494140625, 1.806884765625, 10.0, 1.5857356786727905, 1.5, 1.5857356786727905
24184, 1.27281653881073, -5.072624683380127, -0.48192232847213745, 0.07338011264801025, -0.019009286537766457, -4.031073093414307, 0.35718846321105957, -0.09261421859264374, -0.3779337406158447, -0.7905484437942505, -0.9765779376029968, 0.06271637976169586, -0.7351432102311309, -0.020450735919609997, -2.533215072363082, 9362.0, 30146.0, 35388.0, 9362.0, 8.132232666015625, 0.03803907334804535, 0.023117413744330406, -0.001594684668816626, 0.002813367871567607, -0.06861008703708649, 0.9976965188980103, -0.0794483870267868, -0.20087814331054688, 1.4794921875, 1.620849609375, 0.4671783447265625, 1.4912109375, 1.806884765625, 10.0, 1.5866369009017944, 1.5, 1.5866369009017944
24234, 1.2693520784378052, -5.072526454925537, -0.4727833867073059, 0.09231804311275482, -0.02392052486538887, -4.050053596496582, 0.40032675862312317, -0.10382691770792007, -0.38137704133987427, -0.7906004190444946, -0.9765706062316895, 0.0626944750547409, -0.7337077916236399, -0.03411009860997183, -2.5047670790369354, 9362.0, 30146.0, 35388.0, 9362.0, 8.132232666015625, -0.004455086309462786, -0.07131804525852203, 0.3129982352256775, 0.0020624941680580378, -0.06841081380844116, 0.9980434775352478, -0.0794483870267868, -0.20087814331054688, 1.4794921875, 1.34912109375, 0.015380859375, 1.4912109375, 1.806884765625, 10.0, 1.5870717763900757, 1.5, 1.5870717763900757
24254, 1.2698719501495361, -5.073772430419922, -0.46842047572135925, 0.10049702227115631, -0.02604181505739689, -4.0576958656311035, 0.4175773561000824, -0.10830283910036087, -0.3828137218952179, -0.7905492782592773, -0.9765752553939819, 0.06272076815366745, -0.7330023992006818, -0.01916486775331805, -2.5339461749582455, 9362.0, 30146.0, 35388.0, 9362.0, 8.132232666015625, -0.017827412113547325, 0.0200409684330225, 0.2512136995792389, 0.003173731965944171, -0.06786515563726425, 0.9952279925346375, -0.0725088119506836, -0.24567794799804688, 1.475830078125, 1.646484375, 0.5300445556640625, 1.494873046875, 1.806884765625, 10.0, 1.588429570198059, 1.5, 1.588429570198059
24274, 1.269848108291626, -5.0730133056640625, -0.4684148132801056, 0.10902088135480881, -0.028252551332116127, -4.06536865234375, 0.4348136782646179, -0.11277253180742264, -0.3844415843486786, -0.7905974984169006, -0.9765796661376953, 0.06269458681344986, -0.7407359369919111, -0.033953340084167394, -2.506628399183493, 9362.0, 30146.0, 35388.0, 9362.0, 8.132232666015625, 0.04868697747588158, 0.08501143753528595, -0.15024203062057495, 0.001521095517091453, -0.06940749287605286, 0.9985066652297974, -0.0725088119506836, -0.24567794799804688, 1.475830078125, 1.21728515625, 0.2937164306640625, 1.493408203125, 1.806884765625, 10.0, 1.5882872343063354, 1.5, 1.5882872343063354
24294, 1.27011239528656, -5.072262763977051, -0.4692728817462921, 0.10902088135480881, -0.028252551332116127, -4.06536865234375, 0.4348136782646179, -0.11277253180742264, -0.3844415843486786, -0.7906131744384766, -0.9765644669532776, 0.0626976415514946, -0.7397809454108333, -0.029286940181521004, -2.509079837268444, 9362.0, 30146.0, 35388.0, 9362.0, 8.132232666015625, -0.08005262911319733, 0.24732784926891327, -0.25169840455055237, 0.001227760105393827, -0.06894657015800476, 0.9975618720054626, -0.0725088119506836, -0.24567794799804688, 1.475830078125, 1.711669921875, 0.6996002197265625, 1.493408203125, 1.806884765625, 10.0, 1.5873692035675049, 1.5, 1.5873692035675049
24304, 1.26895010471344, -5.072929859161377, -0.4705605208873749, 0.10902088135480881, -0.028252551332116127, -4.06536865234375, 0.4348136782646179, -0.11277253180742264, -0.3844415843486786, -0.7906008362770081, -0.9765729308128357, 0.06268341839313507, -0.7393318696827144, -0.038434364538460386, -2.5038677844033073, 9362.0, 30146.0, 35388.0, 9362.0, 8.132232666015625, -0.08005262911319733, 0.24732784926891327, -0.25169840455055237, 0.002432237844914198, -0.06681197136640549, 0.9957500100135803, -0.0725088119506836, -0.24567794799804688, 1.475830078125, 1.281005859375, 0.0816650390625, 1.493408203125, 1.806884765625, 10.0, 1.5879056453704834, 1.5, 1.5879056453704834
24364, 1.2706961631774902, -5.070019245147705, -0.48755890130996704, 0.1366635411977768, -0.03542201220989227, -4.088552474975586, 0.4865719676017761, -0.1261988878250122, -0.388766884803772, -0.7906080484390259, -0.9765603542327881, 0.06270530819892883, -0.7426446543762268, -0.04017686861595848, -2.498745848801215, 9362.0, 30146.0, 35388.0, 9362.0, 8.132232666015625, 0.17956559360027313, -0.24792274832725525, -0.7894800305366516, 0.003040286712348461, -0.07017635554075241, 0.996722400188446, -0.0804065465927124, -0.06647872924804688, 1.490478515625, 1.3681640625, 0.0185394287109375, 1.494140625, 1.806884765625, 10.0, 1.5881032943725586, 1.5, 1.5881032943725586
24464, 1.2726887464523315, -5.074281692504883, -0.4936683773994446, 0.19540834426879883, -0.050659775733947754, -4.131709575653076, 0.5815325379371643, -0.15088100731372833, -0.395629346370697, -0.7905462980270386, -0.9765865802764893, 0.06271588802337646, -0.7395972230197937, -0.02434744415899104, -2.530256039223431, 9362.0, 30146.0, 35388.0, 9362.0, 8.132232666015625, -0.24500922858715057, 0.09420076012611389, 0.27767059206962585, 0.003306062426418066, -0.06632356345653534, 0.9961329102516174, -0.06993041187524796, 0.014162063598632812, 1.4970703125, 1.587890625, 0.38861083984375, 1.4912109375, 1.573974609375, 10.0, 1.5895991325378418, 1.5, 1.5895991325378418
24474, 1.2724062204360962, -5.076676845550537, -0.48913052678108215, 0.19540834426879883, -0.050659775733947754, -4.131709575653076, 0.5815325379371643, -0.15088100731372833, -0.395629346370697, -0.7905519604682922, -0.9765754342079163, 0.06269510835409164, -0.7324734934262185, -0.02467282311334884, -2.537751641391526, 9362.0, 30146.0, 35388.0, 9362.0, 8.132232666015625, -0.24500922858715057, 0.09420076012611389, 0.27767059206962585, 0.00252872915007174, -0.06799078732728958, 1.0006471872329712, -0.06993041187524796, 0.014162063598632812, 1.4970703125, 1.738037109375, 0.77423095703125, 1.493408203125, 1.573974609375, 10.0, 1.5895991325378418, 1.5, 1.5895991325378418
24494, 1.2731598615646362, -5.080298900604248, -0.480358749628067, 0.22556401789188385, -0.058484889566898346, -4.151568412780762, 0.6247339844703674, -0.1621294766664505, -0.39840251207351685, -0.790601909160614, -0.9765781164169312, 0.0626702830195427, -0.7360956249259468, -0.04780808954407689, -2.5075608114184122, 9362.0, 30146.0, 35388.0, 9362.0, 8.132232666015625, -0.03141754865646362, 0.2557421922683716, 0.3838658034801483, 0.001653311075642705, -0.07088922709226608, 0.995836079120636, -0.06993041187524796, 0.014162063598632812, 1.4970703125, 1.43994140625, 0.089324951171875, 1.493408203125, 1.573974609375, 10.0, 1.5910755395889282, 1.5, 1.5910755395889282
24524, 1.2708632946014404, -5.078705787658691, -0.4653834104537964, 0.24469487369060516, -0.06344981491565704, -4.163551330566406, 0.6506611108779907, -0.16886499524116516, -0.40039727091789246, -0.7905455231666565, -0.9765841364860535, 0.06271567195653915, -0.7394871012131329, -0.03286070199794722, -2.5336783604456197, 9362.0, 30146.0, 35388.0, 9362.0, 8.132232666015625, -0.16836147010326385, 0.23683331906795502, 0.653098464012146, 0.0019086553948000073, -0.0660802498459816, 0.9992579221725464, -0.06993041187524796, 0.014162063598632812, 1.4970703125, 1.36669921875, 0.01806640625, 1.493408203125, 1.573974609375, 10.0, 1.592352032661438, 1.5, 1.592352032661438
24534, 1.2712088823318481, -5.080648422241211, -0.46133601665496826, 0.25124478340148926, -0.0651496946811676, -4.167557716369629, 0.6593204736709595, -0.17111089825630188, -0.40090933442115784, -0.7905521988868713, -0.9765647649765015, 0.06268051266670227, -0.7357995871012969, -0.022709417358413475, -2.5352665383975284, 9362.0, 30146.0, 35388.0, 9362.0, 8.132232666015625, 0.0828050747513771, -0.034438468515872955, 0.17828984558582306, 0.00028891873080283403, -0.06832365691661835, 0.9975793957710266, -0.06993041187524796, 0.014162063598632812, 1.4970703125, 1.5966796875, 0.409210205078125, 1.48974609375, 1.573974609375, 10.0, 1.592824101448059, 1.5, 1.592824101448059
24554, 1.2696678638458252, -5.085748195648193, -0.45599547028541565, 0.2578812539577484, -0.0668720230460167, -4.171569347381592, 0.6679730415344238, -0.17335344851016998, -0.401449590921402, -0.7906031012535095, -0.9765816330909729, 0.06267654895782471, -0.7410563957027078, -0.034635519919049784, -2.5055803607425515, 9362.0, 30146.0, 35388.0, 9362.0, 8.132232666015625, -0.007890022359788418, -0.07858168333768845, -0.08778426051139832, 0.002610839670524001, -0.0689351037144661, 0.9963439702987671, -0.048155687749385834, -0.07543754577636719, 1.48974609375, 1.69921875, 0.665863037109375, 1.490478515625, 1.600341796875, 10.0, 1.5939363241195679, 1.5, 1.5939363241195679
24584, 1.2701419591903687, -5.086917877197266, -0.45673543214797974, 0.28529202938079834, -0.07398529350757599, -4.187680244445801, 0.7025682926177979, -0.18230506777763367, -0.4041367173194885, -0.7905974388122559, -0.9765662550926208, 0.06269263476133347, -0.7400169457513145, -0.041776445191402445, -2.511153212226293, 9362.0, 30146.0, 35388.0, 9362.0, 8.132232666015625, 0.12674441933631897, -0.03126958757638931, -0.22835589945316315, 0.003019411116838455, -0.06728705018758774, 0.9968205690383911, -0.048155687749385834, -0.07543754577636719, 1.48974609375, 1.688232421875, 0.6366729736328125, 1.491943359375, 1.305908203125, 10.0, 1.5949307680130005, 1.5, 1.5949307680130005
24594, 1.2702398300170898, -5.088278293609619, -0.4571484923362732, 0.28529202938079834, -0.07398529350757599, -4.187680244445801, 0.7025682926177979, -0.18230506777763367, -0.4041367173194885, -0.7906020283699036, -0.9765672087669373, 0.06268403679132462, -0.73604579652547, -0.03862980019431461, -2.509937894906602, 9362.0, 30146.0, 35388.0, 9362.0, 8.132232666015625, 0.12674441933631897, -0.03126958757638931, -0.22835589945316315, 0.001090758596546948, -0.07096593081951141, 0.9992450475692749, -0.048155687749385834, -0.07543754577636719, 1.48974609375, 1.688232421875, 0.6366729736328125, 1.487548828125, 1.305908203125, 10.0, 1.5956261157989502, 1.5, 1.5956261157989502
24604, 1.2709509134292603, -5.0883965492248535, -0.45993947982788086, 0.28529202938079834, -0.07398529350757599, -4.187680244445801, 0.7025682926177979, -0.18230506777763367, -0.4041367173194885, -0.7905945777893066, -0.9765693545341492, 0.0626859962940216, -0.7389577610744624, -0.03759892307968471, -2.5145386136117582, 9362.0, 30146.0, 35388.0, 9362.0, 8.132232666015625, 0.08906690031290054, 0.05495506152510643, 0.18210706114768982, 0.001090758596546948, -0.07096593081951141, 0.9992450475692749, -0.048155687749385834, -0.07543754577636719, 1.48974609375, 1.38720703125, 0.0291900634765625, 1.487548828125, 1.305908203125, 10.0, 1.595314621925354, 1.5, 1.595314621925354
24614, 1.2718400955200195, -5.091371059417725, -0.45973488688468933, 0.28529202938079834, -0.07398529350757599, -4.187680244445801, 0.7025682926177979, -0.18230506777763367, -0.4041367173194885, -0.7905493378639221, -0.9765797853469849, 0.0627102479338646, -0.7325593352901498, -0.023815118888279585, -2.533312735810097, 9362.0, 30146.0, 35388.0, 9362.0, 8.132232666015625, 0.08906690031290054, 0.05495506152510643, 0.18210706114768982, 0.0022839957382529974, -0.06974566727876663, 0.9970691204071045, -0.048155687749385834, -0.07543754577636719, 1.48974609375, 1.38720703125, 0.0291900634765625, 1.491943359375, 1.305908203125, 10.0, 1.5959184169769287, 1.5, 1.5959184169769287
24624, 1.271353006362915, -5.092761039733887, -0.4612077474594116, 0.28529202938079834, -0.07398529350757599, -4.187680244445801, 0.7025682926177979, -0.18230506777763367, -0.4041367173194885, -0.7905458211898804, -0.9765758514404297, 0.0627361312508583, -0.736852530676296, -0.0247165198428263, -2.5362792690489173, 9362.0, 30146.0, 35388.0, 9362.0, 8.132232666015625, 0.07674241065979004, -0.22838559746742249, -0.15280753374099731, 0.0022839957382529974, -0.06974566727876663, 0.9970691204071045, -0.048155687749385834, -0.07543754577636719, 1.48974609375, 1.38720703125, 0.0291900634765625, 1.491943359375, 1.664794921875, 10.0, 1.5959184169769287, 1.5, 1.5959184169769287
24654, 1.2705985307693481, -5.091598033905029, -0.4689759612083435, 0.3290053606033325, -0.08532674610614777, -4.212038040161133, 0.7545556426048279, -0.19574902951717377, -0.4077880084514618, -0.7905445694923401, -0.9765871167182922, 0.06269372999668121, -0.7327121163431998, -0.028343934648518143, -2.5314225194582076, 9362.0, 30146.0, 35388.0, 9362.0, 8.132232666015625, -0.22133535146713257, 0.15180827677249908, -0.029315972700715065, 0.0022337264381349087, -0.06770451366901398, 0.9972450733184814, -0.048155687749385834, -0.07543754577636719, 1.48974609375, 1.6171875, 0.4583282470703125, 1.491943359375, 1.664794921875, 10.0, 1.595489740371704, 1.5, 1.595489740371704
24674, 1.2711334228515625, -5.091908931732178, -0.4738313853740692, 0.3290053606033325, -0.08532674610614777, -4.212038040161133, 0.7545556426048279, -0.19574902951717377, -0.4077880084514618, -0.7906091213226318, -0.976589024066925, 0.06268559396266937, -0.7386800145974363, -0.045049147752251884, -2.505377994758082, 9362.0, 30146.0, 35388.0, 9362.0, 8.132232666015625, -0.22133535146713257, 0.15180827677249908, -0.029315972700715065, 0.0013643082929775119, -0.06940564513206482, 0.9968801140785217, -0.048155687749385834, -0.07543754577636719, 1.48974609375, 1.2451171875, 0.1796875, 1.491943359375, 1.664794921875, 10.0, 1.5966638326644897, 1.5, 1.5966638326644897
24684, 1.2722805738449097, -5.092397689819336, -0.4747040867805481, 0.3290053606033325, -0.08532674610614777, -4.212038040161133, 0.7545556426048279, -0.19574902951717377, -0.4077880084514618, -0.7905511260032654, -0.9765897989273071, 0.06269080936908722, -0.7277279421302356, -0.014809805363199757, -2.5376222748315334, 9362.0, 30146.0, 35388.0, 9362.0, 8.132232666015625, -0.22133535146713257, 0.15180827677249908, -0.029315972700715065, 0.0011342252837494016, -0.06988133490085602, 0.9969688057899475, -0.048155687749385834, -0.07543754577636719, 1.48974609375, 1.2451171875, 0.1796875, 1.491943359375, 1.664794921875, 10.0, 1.596476435661316, 1.5, 1.596476435661316
24704, 1.273658037185669, -5.0953521728515625, -0.47432592511177063, 0.3758400082588196, -0.09747559577226639, -4.236605644226074, 0.8065716028213501, -0.20920921862125397, -0.4114314913749695, -0.7906056046485901, -0.9765830039978027, 0.06270840018987656, -0.7301837142721911, -0.03668526713184406, -2.5023184203906212, 9362.0, 30146.0, 35388.0, 9362.0, 8.132232666015625, 0.16318894922733307, 0.5017011761665344, -0.06272687017917633, 0.0011342252837494016, -0.06988133490085602, 0.9969688057899475, -0.048155687749385834, -0.07543754577636719, 1.48974609375, 1.2451171875, 0.1796875, 1.489013671875, 1.664794921875, 10.0, 1.596476435661316, 1.5, 1.596476435661316
24724, 1.275484561920166, -5.09956169128418, -0.4729359745979309, 0.3839491009712219, -0.09957892447710037, -4.240723133087158, 0.8152451515197754, -0.21145622432231903, -0.41203010082244873, -0.7905488014221191, -0.9765931367874146, 0.06268433481454849, -0.730344063000754, -0.024171071867471028, -2.5337507982290584, 9362.0, 30146.0, 35388.0, 9362.0, 8.132232666015625, 0.03333836793899536, 0.4268202781677246, 0.08374986797571182, 0.002187971258535981, -0.06795825064182281, 0.9978163242340088, -0.048155687749385834, -0.07543754577636719, 1.48974609375, 1.597412109375, 0.4110870361328125, 1.49560546875, 1.664794921875, 10.0, 1.596476435661316, 1.5, 1.596476435661316
24734, 1.276523470878601, -5.100537300109863, -0.47255685925483704, 0.4004274904727936, -0.1038530170917511, -4.248976230621338, 0.832595944404602, -0.2159547060728073, -0.41327252984046936, -0.7906001806259155, -0.9765819311141968, 0.06269122660160065, -0.7395737570642265, -0.04247747162392557, -2.5064997433474643, 9362.0, 30146.0, 35388.0, 9362.0, 8.132232666015625, 0.03333836793899536, 0.4268202781677246, 0.08374986797571182, 0.0030927357729524374, -0.06946112215518951, 0.9954304099082947, -0.048155687749385834, -0.07543754577636719, 1.48974609375, 1.597412109375, 0.4110870361328125, 1.48974609375, 1.664794921875, 10.0, 1.597447395324707, 1.5, 1.597447395324707
24754, 1.276879906654358, -5.106759071350098, -0.47156113386154175, 0.41725292801856995, -0.10821710526943207, -4.257255554199219, 0.8499398827552795, -0.2204529047012329, -0.4147304594516754, -0.7906031012535095, -0.9765698313713074, 0.06269992142915726, -0.7398477196922183, -0.04078815830607141, -2.51837248874064, 9362.0, 30146.0, 35388.0, 9362.0, 8.132232666015625, -0.11092793196439743, -0.04638860747218132, -0.031188691034913063, 0.004663035273551941, -0.06950157880783081, 0.9959930777549744, -0.048155687749385834, -0.07543754577636719, 1.48974609375, 1.597412109375, 0.4110870361328125, 1.48974609375, 1.664794921875, 10.0, 1.596703052520752, 1.5, 1.596703052520752
24794, 1.2739518880844116, -5.106101036071777, -0.46920910477638245, 0.44314202666282654, -0.11493203788995743, -4.269726276397705, 0.8760280609130859, -0.2272147685289383, -0.4163967967033386, -0.7906029224395752, -0.9765687584877014, 0.06268519908189774, -0.740523033132369, -0.039493588056160434, -2.505281228985344, 9362.0, 30146.0, 35388.0, 9362.0, 8.132232666015625, -0.11092793196439743, -0.04638860747218132, -0.031188691034913063, 0.001749731949530542, -0.06953473389148712, 0.9955632090568542, -0.048155687749385834, -0.07543754577636719, 1.48974609375, 1.412109375, 0.0526123046875, 1.49267578125, 1.664794921875, 10.0, 1.5991617441177368, 1.5, 1.5991617441177368
24804, 1.2739694118499756, -5.104366779327393, -0.46769535541534424, 0.44314202666282654, -0.11493203788995743, -4.269726276397705, 0.8760280609130859, -0.2272147685289383, -0.4163967967033386, -0.7905933856964111, -0.9765879511833191, 0.06267260015010834, -0.7405883433587703, -0.04039941775982925, -2.518127047675705, 9362.0, 30146.0, 35388.0, 9362.0, 8.132232666015625, -0.03858335688710213, -0.08975418657064438, 0.01799418218433857, 0.001749731949530542, -0.06953473389148712, 0.9955632090568542, -0.048155687749385834, -0.07543754577636719, 1.48974609375, 1.412109375, 0.0526123046875, 1.49267578125, 1.664794921875, 10.0, 1.5979363918304443, 1.5, 1.5979363918304443
24834, 1.2727593183517456, -5.100811958312988, -0.47011715173721313, 0.44314202666282654, -0.11493203788995743, -4.269726276397705, 0.8760280609130859, -0.2272147685289383, -0.4163967967033386, -0.7905994057655334, -0.9765753746032715, 0.06269492954015732, -0.7344286131939947, -0.03644018445001507, -2.5101717596155764, 9362.0, 30146.0, 35388.0, 9362.0, 8.132232666015625, 0.04740986227989197, -0.24437744915485382, -0.36625736951828003, 0.000496184453368187, -0.07188066095113754, 0.9975272417068481, -0.048155687749385834, -0.07543754577636719, 1.48974609375, 1.4853515625, 0.1669921875, 1.496337890625, 1.664794921875, 10.0, 1.5966250896453857, 1.5, 1.5966250896453857
24904, 1.2733354568481445, -5.10406494140625, -0.47297951579093933, 0.5545153021812439, -0.1438148021697998, -4.320199012756348, 0.9801770448684692, -0.25414931774139404, -0.4247419238090515, -0.7905579209327698, -0.9765771627426147, 0.06273279339075089, -0.7385423060108007, -0.021689601757969967, -2.533067310898851, 9362.0, 30146.0, 35388.0, 9362.0, 8.132232666015625, -0.04300874099135399, 0.07651067525148392, 0.23219382762908936, 0.0021077257115393877, -0.06904930621385574, 1.000375747680664, -0.048155687749385834, -0.07543754577636719, 1.48974609375, 1.67431640625, 0.6003570556640625, 1.486083984375, 1.598876953125, 10.0, 1.5983593463897705, 1.5, 1.5983593463897705
24914, 1.2729231119155884, -5.104114055633545, -0.4733676612377167, 0.5545153021812439, -0.1438148021697998, -4.320199012756348, 0.9801770448684692, -0.25414931774139404, -0.4247419238090515, -0.7905438542366028, -0.9765639901161194, 0.06272945553064346, -0.738103340029792, -0.016668858590549007, -2.5348782882528504, 9362.0, 30146.0, 35388.0, 9362.0, 8.132232666015625, -0.04300874099135399, 0.07651067525148392, 0.23219382762908936, 0.0021077257115393877, -0.06904930621385574, 1.000375747680664, -0.048155687749385834, -0.07543754577636719, 1.48974609375, 1.6318359375, 0.4938812255859375, 1.49267578125, 1.598876953125, 10.0, 1.5990321636199951, 1.5, 1.5990321636199951
24954, 1.2743207216262817, -5.099720478057861, -0.4783267080783844, 0.6046116948127747, -0.1568034589290619, -4.341497421264648, 1.023660659790039, -0.265394389629364, -0.42730048298835754, -0.7906114459037781, -0.9765635132789612, 0.06270997226238251, -0.7421042599037925, -0.030944400950545514, -2.5036935130854543, 9362.0, 30146.0, 35388.0, 9362.0, 8.132232666015625, 0.197001650929451, 0.08423089236021042, -0.01832587644457817, 0.002481557196006179, -0.06920120865106583, 0.9962950348854065, -0.048155687749385834, -0.07543754577636719, 1.48974609375, 1.198974609375, 0.38958740234375, 1.494140625, 1.598876953125, 10.0, 1.5975381135940552, 1.5, 1.5975381135940552
24974, 1.2739214897155762, -5.098391532897949, -0.4783626198768616, 0.6046116948127747, -0.1568034589290619, -4.341497421264648, 1.023660659790039, -0.265394389629364, -0.42730048298835754, -0.7906103730201721, -0.9765748977661133, 0.06266685575246811, -0.742447323024186, -0.04488715561691947, -2.502911805246673, 9362.0, 30146.0, 35388.0, 9362.0, 8.132232666015625, 0.197001650929451, 0.08423089236021042, -0.01832587644457817, 0.0008556445827707648, -0.06649324297904968, 0.9978364706039429, -0.048155687749385834, -0.07543754577636719, 1.48974609375, 1.573974609375, 0.35626220703125, 1.493408203125, 1.598876953125, 10.0, 1.5980746746063232, 1.5, 1.5980746746063232
25014, 1.2757842540740967, -5.092268943786621, -0.4807707369327545, 0.6462520360946655, -0.16759894788265228, -4.358646869659424, 1.0583596229553223, -0.27438288927078247, -0.43007567524909973, -0.7905506491661072, -0.976570725440979, 0.06271342188119888, -0.7393722517775108, -0.016504030779401546, -2.5297036131000916, 9362.0, 30146.0, 35388.0, 9362.0, 8.132232666015625, 0.039817001670598984, -0.12604445219039917, -0.09094017744064331, 0.0007115069311112165, -0.06919261068105698, 0.9971681833267212, -0.048155687749385834, -0.07543754577636719, 1.48974609375, 1.609130859375, 0.4388580322265625, 1.48681640625, 1.598876953125, 10.0, 1.5977481603622437, 1.5, 1.5977481603622437
25064, 1.2743892669677734, -5.092733860015869, -0.47950279712677, 0.722461462020874, -0.1873571276664734, -4.388904094696045, 1.119028925895691, -0.29013746976852417, -0.43459582328796387, -0.7906094193458557, -0.9765806198120117, 0.0626901313662529, -0.7409865304611933, -0.042390081508216326, -2.501517011320208, 9362.0, 30146.0, 35388.0, 9362.0, 8.132232666015625, -0.11069284379482269, -0.3552601933479309, -0.11732052266597748, 0.0014698021113872528, -0.06735984981060028, 0.997573971748352, -0.048155687749385834, -0.07543754577636719, 1.48974609375, 1.541748046875, 0.2835540771484375, 1.48974609375, 1.598876953125, 10.0, 1.5988845825195312, 1.5, 1.5988845825195312
25074, 1.2741594314575195, -5.093966960906982, -0.47954061627388, 0.722461462020874, -0.1873571276664734, -4.388904094696045, 1.119028925895691, -0.29013746976852417, -0.43459582328796387, -0.790601909160614, -0.9765628576278687, 0.06271268427371979, -0.7406042995765109, -0.03963327075842926, -2.5075367347240944, 9362.0, 30146.0, 35388.0, 9362.0, 8.132232666015625, -0.11069284379482269, -0.3552601933479309, -0.11732052266597748, 0.003030715975910425, -0.07013192772865295, 0.9967812895774841, -0.048155687749385834, -0.07543754577636719, 1.48974609375, 1.541748046875, 0.2835540771484375, 1.490478515625, 1.598876953125, 10.0, 1.598419427871704, 1.5, 1.598419427871704
25104, 1.2711635828018188, -5.0915985107421875, -0.4774669110774994, 0.7564223408699036, -0.19616247713565826, -4.401971817016602, 1.1450273990631104, -0.296884149312973, -0.4366110563278198, -0.7906079292297363, -0.9765656590461731, 0.06269438564777374, -0.7397859277476012, -0.043321662797438876, -2.506705626882745, 9362.0, 30146.0, 35388.0, 9362.0, 8.132232666015625, -0.11069284379482269, -0.3552601933479309, -0.11732052266597748, 0.002104175044223666, -0.06865447759628296, 0.9970150589942932, -0.048155687749385834, -0.07543754577636719, 1.48974609375, 1.427490234375, 0.0716400146484375, 1.48974609375, 1.598876953125, 10.0, 1.5997120141983032, 1.5, 1.5997120141983032
25164, 1.2658238410949707, -5.090867519378662, -0.48073333501815796, 0.8386963605880737, -0.21749386191368103, -4.432704448699951, 1.2056716680526733, -0.3125729262828827, -0.44123005867004395, -0.7905634045600891, -0.9765705466270447, 0.06273526698350906, -0.7371312248560697, -0.01795631343952664, -2.5219621799869585, 9362.0, 30146.0, 35388.0, 9362.0, 8.132232666015625, -0.05261414125561714, 0.06732173264026642, -0.1464737057685852, 0.0014363185036927462, -0.06933930516242981, 0.9954665899276733, -0.0620865598320961, 0.06792068481445312, 1.50146484375, 1.25830078125, 0.137664794921875, 1.49560546875, 1.598876953125, 10.0, 1.600829839706421, 1.5, 1.600829839706421
25184, 1.2677372694015503, -5.089349746704102, -0.4806569218635559, 0.862982988357544, -0.2237900048494339, -4.441542625427246, 1.2229845523834229, -0.31703993678092957, -0.4426809847354889, -0.790504515171051, -0.9765921235084534, 0.06274024397134781, -0.7251453732746469, -0.04912884455899302, -2.5424848029032794, 9362.0, 30146.0, 35388.0, 9362.0, 8.132232666015625, 0.10886133462190628, 0.06798748672008514, 0.13181830942630768, 0.002384183229878545, -0.06960936635732651, 0.999041736125946, -0.0620865598320961, 0.06792068481445312, 1.50146484375, 1.25830078125, 0.137664794921875, 1.4912109375, 1.598876953125, 10.0, 1.6016196012496948, 1.5, 1.6016196012496948
25204, 1.267716407775879, -5.089549541473389, -0.4826821982860565, 0.862982988357544, -0.2237900048494339, -4.441542625427246, 1.2229845523834229, -0.31703993678092957, -0.4426809847354889, -0.790554940700531, -0.9765783548355103, 0.06270406395196915, -0.7328112883750572, -0.0169156674567148, -2.532201091522416, 9362.0, 30146.0, 35388.0, 9362.0, 8.132232666015625, -0.05712532624602318, 0.13338425755500793, -0.3091691732406616, 0.002888128161430359, -0.06957370042800903, 0.9952989816665649, -0.0620865598320961, 0.06792068481445312, 1.50146484375, 1.63623046875, 0.504730224609375, 1.4912109375, 1.598876953125, 10.0, 1.601571798324585, 1.5, 1.601571798324585
25214, 1.268022060394287, -5.0901641845703125, -0.4823034405708313, 0.9000627994537354, -0.23340198397636414, -4.454847812652588, 1.2489954233169556, -0.3237590193748474, -0.44437140226364136, -0.7906126976013184, -0.9765709638595581, 0.06272687762975693, -0.7356920939084768, -0.03778629696930125, -2.50727249153052, 9362.0, 30146.0, 35388.0, 9362.0, 8.132232666015625, -0.05712532624602318, 0.13338425755500793, -0.3091691732406616, 0.002035256940871477, -0.06680159270763397, 0.9957993030548096, -0.0620865598320961, 0.06792068481445312, 1.50146484375, 1.63623046875, 0.504730224609375, 1.5, 1.598876953125, 10.0, 1.6008065938949585, 1.5, 1.6008065938949585
25234, 1.2678619623184204, -5.08892822265625, -0.4797718822956085, 0.9000627994537354, -0.23340198397636414, -4.454847812652588, 1.2489954233169556, -0.3237590193748474, -0.44437140226364136, -0.7906156778335571, -0.9765661954879761, 0.06268849968910217, -0.7369146102221508, -0.03238540193603967, -2.499821907530416, 9362.0, 30146.0, 35388.0, 9362.0, 8.132232666015625, -0.05712532624602318, 0.13338425755500793, -0.3091691732406616, 0.002195641165599227, -0.06837295740842819, 1.0006526708602905, -0.0620865598320961, 0.06792068481445312, 1.50146484375, 1.524169921875, 0.2455596923828125, 1.49267578125, 1.598876953125, 10.0, 1.601967692375183, 1.5, 1.601967692375183
25274, 1.2692641019821167, -5.0956315994262695, -0.4744925796985626, 0.9635949730873108, -0.249869704246521, -4.477149486541748, 1.2923270463943481, -0.334959477186203, -0.44731444120407104, -0.790621280670166, -0.976568341255188, 0.06268685311079025, -0.741574973097649, -0.032561698543162265, -2.5045157360887718, 9362.0, 30146.0, 35388.0, 9362.0, 8.132232666015625, -0.08949320763349533, 0.16502927243709564, 0.6883676052093506, 0.00212165922857821, -0.0694320946931839, 0.997241199016571, -0.08408281952142715, -0.23671722412109375, 1.4765625, 1.486083984375, 0.16845703125, 1.49267578125, 1.609130859375, 10.0, 1.6022971868515015, 1.5, 1.6022971868515015
25294, 1.2679839134216309, -5.097996711730957, -0.4720921814441681, 1.0027538537979126, -0.26001906394958496, -4.4906086921691895, 1.31829035282135, -0.34166932106018066, -0.4496954679489136, -0.7906162142753601, -0.9765681028366089, 0.06269896030426025, -0.7383487236340492, -0.030721662595226462, -2.5090662641122075, 9362.0, 30146.0, 35388.0, 9362.0, 8.132232666015625, -0.17986899614334106, 0.23131613433361053, 0.11481747031211853, 0.002553432248532772, -0.06578759104013443, 1.0006577968597412, -0.08408281952142715, -0.23671722412109375, 1.4765625, 1.45166015625, 0.107452392578125, 1.49267578125, 1.609130859375, 10.0, 1.6026427745819092, 1.5, 1.6026427745819092
25304, 1.2664246559143066, -5.097705364227295, -0.4724774658679962, 1.0027538537979126, -0.26001906394958496, -4.4906086921691895, 1.31829035282135, -0.34166932106018066, -0.4496954679489136, -0.7905685901641846, -0.9765669107437134, 0.06272163987159729, -0.7388247837851593, -0.015813516048694964, -2.5237823273828885, 9362.0, 30146.0, 35388.0, 9362.0, 8.132232666015625, -0.07794170826673508, 0.10582868754863739, -0.013332118280231953, 0.002553432248532772, -0.06578759104013443, 1.0006577968597412, -0.08408281952142715, -0.23671722412109375, 1.4765625, 1.400390625, 0.04034423828125, 1.49267578125, 1.609130859375, 10.0, 1.602784276008606, 1.5, 1.602784276008606
25364, 1.2650820016860962, -5.099695205688477, -0.46869683265686035, 1.0561801195144653, -0.2738649845123291, -4.508641242980957, 1.3529942035675049, -0.35061562061309814, -0.45223382115364075, -0.790559709072113, -0.9765642881393433, 0.06272802501916885, -0.7381516996042425, -0.02280937036644559, -2.533847966068979, 9362.0, 30146.0, 35388.0, 9362.0, 8.132232666015625, 0.13675306737422943, 0.29620206356048584, -0.03275057673454285, 0.0024965587072074413, -0.06915795803070068, 0.9940356016159058, -0.05733433738350868, -0.0037593841552734375, 1.49560546875, 1.16015625, 0.6554412841796875, 1.491943359375, 1.609130859375, 10.0, 1.6024428606033325, 1.5, 1.6024428606033325
25394, 1.266038179397583, -5.106472492218018, -0.471076637506485, 1.1249148845672607, -0.2916751503944397, -4.531327247619629, 1.3963767290115356, -0.3617820739746094, -0.4554844796657562, -0.7906261682510376, -0.9765765070915222, 0.06268414109945297, -0.7452087899403168, -0.042984378482429975, -2.504284270490372, 9362.0, 30146.0, 35388.0, 9362.0, 8.132232666015625, 0.13675306737422943, 0.29620206356048584, -0.03275057673454285, 0.0020015800837427378, -0.06928783655166626, 0.9972332119941711, -0.05733433738350868, -0.0037593841552734375, 1.49560546875, 1.519775390625, 0.236236572265625, 1.493408203125, 1.609130859375, 10.0, 1.6043002605438232, 1.5, 1.6043002605438232
25424, 1.2665480375289917, -5.107602119445801, -0.4667421877384186, 1.1814652681350708, -0.30632513761520386, -4.549593925476074, 1.4311184883117676, -0.3707107901573181, -0.45816147327423096, -0.7906128168106079, -0.9765720367431641, 0.06268946826457977, -0.7398668558574432, -0.04136886463939504, -2.500185189698019, 9362.0, 30146.0, 35388.0, 9362.0, 8.132232666015625, -0.10209386795759201, -0.1377534121274948, 0.14608857035636902, 0.001596406800672412, -0.0666125938296318, 0.9988051652908325, -0.05733433738350868, -0.0037593841552734375, 1.49560546875, 1.395263671875, 0.035675048828125, 1.493408203125, 1.609130859375, 10.0, 1.603730320930481, 1.5, 1.603730320930481
25464, 1.2693217992782593, -5.105459690093994, -0.46481066942214966, 1.224790096282959, -0.3175469934940338, -4.5633673667907715, 1.457213282585144, -0.37741851806640625, -0.45995280146598816, -0.790550947189331, -0.9765657186508179, 0.06270751357078552, -0.7380116499797859, -0.023105276048141832, -2.5452066719602047, 9362.0, 30146.0, 35388.0, 9362.0, 8.132232666015625, 0.18708674609661102, 0.15467466413974762, 0.052946414798498154, 0.003266705898568034, -0.06919988989830017, 0.992496132850647, -0.05733433738350868, -0.0037593841552734375, 1.49560546875, 1.472900390625, 0.1439361572265625, 1.493408203125, 1.609130859375, 10.0, 1.6050177812576294, 1.5, 1.6050177812576294
25474, 1.2707957029342651, -5.106449127197266, -0.465330570936203, 1.224790096282959, -0.3175469934940338, -4.5633673667907715, 1.457213282585144, -0.37741851806640625, -0.45995280146598816, -0.7905483245849609, -0.976574182510376, 0.06272157281637192, -0.7375228965788208, -0.021158501269411545, -2.5299072266460763, 9362.0, 30146.0, 35388.0, 9362.0, 8.132232666015625, 0.14733430743217468, -0.4162939190864563, 0.16290438175201416, 0.003266705898568034, -0.06919988989830017, 0.992496132850647, -0.05733433738350868, -0.0037593841552734375, 1.49560546875, 1.472900390625, 0.1439361572265625, 1.49267578125, 1.609130859375, 10.0, 1.6043273210525513, 1.5, 1.6043273210525513
