timeTick, roll, pitch, yaw, stateX, stateY, stateZ, stateVX, stateVY, stateVZ, otX0, otY0, otZ0, otRoll0, otPitch0, otYaw0, left wing, pitch motor, yaw motor, right wing, voltage, roll rate, pitch rate, yaw rate, A_x, A_y, A_z, current, i_raw, v_raw, airflow_voltage, airflow_speed, pot_Pitch, voltage_nKF, kFFx, volt_KF_vel, kP, volt_KF_pos
16630, 0.7858613729476929, 0.1777072697877884, -2.8181490898132324, 0, 0, 0, 0, 0, 0, -0.7908737063407898, -0.9535983800888062, 0.06528237462043762, -0.45222057844529734, 0.6325906295622019, -6.991855629954105, 0, 0, 0, 0, 0, 0, 0, 0, 0, 0, 0, 0, 0, 0, 0, 0, 0, 0, 0, 0, 0, 0
16640, 0.7849275469779968, 0.17759793996810913, -2.81687068939209, 2.6650193831301294e-05, 9.501092426944524e-05, -3.360269546508789, 0.0009617884061299264, 0.003419807879254222, -0.44765225052833557, -0.7908475399017334, -0.9535883665084839, 0.06531904637813568, -0.4583680182830266, 0.6109389191698256, -6.980594155678056, 9362.0, 30146.0, 35388.0, 9362.0, 0, -0.13272725045681, 0.003904997603967786, 0.12304636090993881, 0.010480060242116451, -0.06327039748430252, 0.9993823170661926, 0, 0, 0, 0, 0, 0, 0, 0, 0, 0, 0
16650, 0.7856870293617249, 0.1780943125486374, -2.8168318271636963, 3.441825901973061e-05, 0.00012256552872713655, -3.36474609375, 0.0005918540409766138, 0.0020911030005663633, -0.4476765990257263, -0.7908574342727661, -0.953556478023529, 0.06530977040529251, -0.4496948975378125, 0.6376296799669774, -6.975105123377843, 9362.0, 30146.0, 35388.0, 9362.0, 0, 0.02162359468638897, 0.1951928436756134, 0.2322492003440857, 0.010709349997341633, -0.06179366260766983, 0.9995964765548706, 0, 0, 0, 1.613525390625, 0.44940185546875, 0, 1.163818359375, 10.0, 1.469630241394043, 1.5, 1.469630241394043
16660, 0.7840136289596558, 0.17433856427669525, -2.816488027572632, 3.848890992230736e-05, 0.00013684261648450047, -3.369223117828369, 0.00022227774024941027, 0.0007643154240213335, -0.4477251172065735, -0.7908371090888977, -0.9535595774650574, 0.06530765444040298, -0.4445057178285138, 0.6307790070197257, -6.9821096551330495, 9362.0, 30146.0, 35388.0, 9362.0, 0, -0.08820879459381104, 0.2275262475013733, -0.09354125708341599, 0.012471027672290802, -0.06149356812238693, 0.9964054226875305, 0, 0, 0, 1.4853515625, 0.1669921875, 1.49560546875, 1.506591796875, 10.0, 1.4698115587234497, 1.5, 1.4698115587234497
16670, 0.7845225930213928, 0.17497733235359192, -2.8162808418273926, 3.886117701767944e-05, 0.00013785247574560344, -3.3737010955810547, -0.00014782587822992355, -0.0005623489851132035, -0.4478759765625, -0.7908479571342468, -0.9535737037658691, 0.06532283872365952, -0.4463916717303831, 0.6359385565792195, -6.987714736163187, 9362.0, 30146.0, 35388.0, 9362.0, 0, 0.06431061774492264, -0.06828127801418304, 0.036149732768535614, 0.010828870348632336, -0.061641763895750046, 0.9970309734344482, 0, 0, 0, 1.467041015625, 0.1334686279296875, 1.49560546875, 1.12060546875, 10.0, 1.4702244997024536, 1.5, 1.4702244997024536
16680, 0.7836887836456299, 0.17508657276630402, -2.8163657188415527, 3.556929004844278e-05, 0.0001256232353625819, -3.3781816959381104, -0.000510542537085712, -0.0018834975780919194, -0.4482465982437134, -0.7908759713172913, -0.9535852074623108, 0.06528302282094955, -0.457280725567532, 0.6247742013765674, -6.989307087954288, 9362.0, 30146.0, 35388.0, 9362.0, 0, -0.006776744499802589, 0.07729610800743103, 0.2163059264421463, 0.011218440718948841, -0.0620892271399498, 0.9978380799293518, 0, 0, 0, 1.107421875, 1.1766510009765625, 1.493408203125, 1.573974609375, 10.0, 1.4704582691192627, 1.5, 1.4704582691192627
16690, 0.7843755483627319, 0.17572036385536194, -2.8160057067871094, 2.8641889002756216e-05, 0.00010016857413575053, -3.3826653957366943, -0.0008749394328333437, -0.0032074383925646544, -0.44847118854522705, -0.7908163070678711, -0.9535801410675049, 0.06528583914041519, -0.4509191622349024, 0.6388752210767734, -6.970278399404955, 9362.0, 30146.0, 35388.0, 9362.0, 0, 0.055260177701711655, -0.2107819765806198, -0.3294324278831482, 0.010007341392338276, -0.06208334490656853, 0.9978610277175903, 0, 0, 0, 1.4560546875, 0.1147003173828125, 1.493408203125, 1.6376953125, 10.0, 1.4696367979049683, 1.5, 1.4696367979049683
16700, 0.7836071252822876, 0.17641222476959229, -2.8161494731903076, 1.806981526897289e-05, 6.148124521132559e-05, -3.3871512413024902, -0.0012394642690196633, -0.0045300256460905075, -0.4486897587776184, -0.7908130884170532, -0.9535515904426575, 0.06530926376581192, -0.4429778934828901, 0.6423101355413792, -6.970771482115829, 9362.0, 30146.0, 35388.0, 9362.0, 0, -0.14656540751457214, 0.010539143346250057, 0.11350040882825851, 0.010331339202821255, -0.06608451902866364, 0.9978531002998352, 0, 0, 0, 1.301513671875, 0.046966552734375, 1.494873046875, 1.178466796875, 10.0, 1.4688465595245361, 1.5, 1.4688465595245361
16710, 0.7826327681541443, 0.17759546637535095, -2.815890073776245, 3.847208972729277e-06, 9.563780622556806e-06, -3.391639232635498, -0.001605057972483337, -0.0058534699492156506, -0.4489281177520752, -0.7907630801200867, -0.9536004066467285, 0.06537984311580658, -0.4757525397195216, 0.6223288095956718, -6.906652525420017, 9362.0, 30146.0, 35388.0, 9362.0, 0, -0.08660470694303513, -0.21726424992084503, 0.0202768687158823, 0.011693466454744339, -0.06649269163608551, 0.9972237348556519, 0, 0, 0, 1.48388671875, 0.1642303466796875, 1.494873046875, 1.505859375, 10.0, 1.4691699743270874, 1.5, 1.4691699743270874
16720, 0.7821335792541504, 0.1786314994096756, -2.8151695728302, -1.4037304026714992e-05, -5.558262637350708e-05, -3.396129608154297, -0.001971834572032094, -0.007175815757364035, -0.44914647936820984, -0.7908076047897339, -0.9535547494888306, 0.06533773243427277, -0.4379869641477082, 0.6458327065320191, -6.974315906271133, 9362.0, 30146.0, 35388.0, 9362.0, 0, -0.008310246281325817, -0.1945468932390213, 0.08285237848758698, 0.00994148664176464, -0.0639340952038765, 0.9969806671142578, 0, 0, 0, 1.679443359375, 0.613677978515625, 1.494140625, 1.52197265625, 10.0, 1.4686846733093262, 1.5, 1.4686846733093262
16730, 0.7809856534004211, 0.1777908056974411, -2.81463623046875, -3.559717515599914e-05, -0.0001339362934231758, -3.400622606277466, -0.0023401177022606134, -0.008494928479194641, -0.4494743049144745, -0.7908062934875488, -0.9535521268844604, 0.0653161033987999, -0.44360555361515974, 0.649599360833804, -6.965450052110603, 9362.0, 30146.0, 35388.0, 9362.0, 8.370248794555664, 0.0005163640016689897, -0.030550405383110046, 0.2061985284090042, 0.011181090027093887, -0.06395360082387924, 0.9972566962242126, -0.06814724951982498, -0.10231781005859375, 1.487548828125, 1.4267578125, 0.070709228515625, 1.494140625, 1.216552734375, 10.0, 1.467921495437622, 1.5, 1.467921495437622
16740, 0.7811314463615417, 0.1786724328994751, -2.8138437271118164, -6.084923370508477e-05, -0.00022547933622263372, -3.405118703842163, -0.0027102867607027292, -0.00981369148939848, -0.4497587978839874, -0.7908154726028442, -0.953551173210144, 0.0652938261628151, -0.4415734206468815, 0.6459655218400542, -6.973486165472003, 9362.0, 30146.0, 35388.0, 9362.0, 8.370248794555664, 0.06285684555768967, 0.02370421588420868, 0.18773624300956726, 0.011128588579595089, -0.06205124408006668, 0.9957407116889954, -0.06814724951982498, -0.10231781005859375, 1.487548828125, 1.3681640625, 0.0185394287109375, 1.490478515625, 1.1865234375, 10.0, 1.4670116901397705, 1.5, 1.4670116901397705
16750, 0.7816323637962341, 0.1762954443693161, -2.8127923011779785, -8.97939462447539e-05, -0.00033019587863236666, -3.4096181392669678, -0.003078632289543748, -0.011129617691040039, -0.45011383295059204, -0.7908127903938293, -0.953548014163971, 0.06530315428972244, -0.4375397805601524, 0.646160679545261, -6.968703340041549, 9362.0, 30146.0, 35388.0, 9362.0, 8.370248794555664, -0.01767665147781372, -0.006060401443392038, 0.33969932794570923, 0.011602552607655525, -0.06393145769834518, 0.9967865347862244, -0.06814724951982498, -0.10231781005859375, 1.487548828125, 1.60400390625, 0.4266204833984375, 1.490478515625, 1.4765625, 10.0, 1.4663867950439453, 1.5, 1.4663867950439453
16760, 0.7812336087226868, 0.17789150774478912, -2.8113462924957275, -0.00012242936645634472, -0.0004480717470869422, -3.414121150970459, -0.0034484434872865677, -0.012445562519133091, -0.45048072934150696, -0.7907865047454834, -0.9535471200942993, 0.06532641500234604, -0.4424779848341145, 0.6452100665910336, -6.968026197224566, 9362.0, 30146.0, 35388.0, 9362.0, 8.370248794555664, 0.10941210389137268, -0.0860542431473732, -0.12541861832141876, 0.011610341258347034, -0.06448250263929367, 0.9975235462188721, -0.06814724951982498, -0.10231781005859375, 1.487548828125, 1.5439453125, 0.2884979248046875, 1.493408203125, 1.421630859375, 10.0, 1.465489387512207, 1.5, 1.465489387512207
16770, 0.7814571857452393, 0.17884409427642822, -2.8119654655456543, -0.0001587446458870545, -0.0005791192525066435, -3.4186272621154785, -0.0038145713042467833, -0.013763943687081337, -0.4507460296154022, -0.7906864285469055, -0.9535486698150635, 0.06550337374210358, -0.41778279909484933, 0.6842459564652472, -6.999981668777861, 9362.0, 30146.0, 35388.0, 9362.0, 8.370248794555664, -0.0665469691157341, -0.18313784897327423, -0.03731239214539528, 0.00942312739789486, -0.06371702998876572, 0.9968407154083252, -0.06814724951982498, -0.10231781005859375, 1.487548828125, 1.60546875, 0.43011474609375, 1.493408203125, 1.4970703125, 10.0, 1.4649665355682373, 1.5, 1.4649665355682373
16780, 0.7799086570739746, 0.1792607605457306, -2.8114023208618164, -0.00019873480778187513, -0.0007233476499095559, -3.423135995864868, -0.004183470271527767, -0.015081731602549553, -0.4509944021701813, -0.7906849980354309, -0.9535540342330933, 0.06548696011304855, -0.41433234324792295, 0.6796080012769039, -6.997939719307853, 9362.0, 30146.0, 35388.0, 9362.0, 8.370248794555664, -0.004291311837732792, 0.17659124732017517, 0.16145987808704376, 0.008940457366406918, -0.06283915787935257, 0.9965260028839111, -0.06814724951982498, -0.10231781005859375, 1.487548828125, 1.431884765625, 0.07769775390625, 1.4970703125, 1.235595703125, 10.0, 1.465382695198059, 1.5, 1.465382695198059
16790, 0.7807849645614624, 0.17826877534389496, -2.811100959777832, -0.00024242106883320957, -0.0008807512931525707, -3.427647590637207, -0.004553767386823893, -0.016399001702666283, -0.4513046443462372, -0.790698766708374, -0.9535568952560425, 0.0655074417591095, -0.4125263484909984, 0.6736319190036681, -6.99427192440894, 9362.0, 30146.0, 35388.0, 9362.0, 8.370248794555664, 0.006279670167714357, -0.21505101025104523, 0.11425800621509552, 0.010687640868127346, -0.06325116753578186, 0.9987539649009705, -0.06814724951982498, -0.10231781005859375, 1.487548828125, 1.644287109375, 0.524505615234375, 1.4970703125, 1.4619140625, 10.0, 1.465899109840393, 1.5, 1.465899109840393
16800, 0.7807754874229431, 0.17862863838672638, -2.8103466033935547, -0.0002898142265621573, -0.0010513181332498789, -3.432161808013916, -0.004924858920276165, -0.017714349552989006, -0.451557993888855, -0.7906951904296875, -0.9535525441169739, 0.06547306478023529, -0.4123078314753223, 0.6847347787257831, -6.995337305905165, 9362.0, 30146.0, 35388.0, 9362.0, 8.370248794555664, -0.05996086075901985, -0.10979951918125153, -0.01957285962998867, 0.010822850279510021, -0.06165294349193573, 0.9972245693206787, -0.06814724951982498, -0.10231781005859375, 1.487548828125, 1.588623046875, 0.390350341796875, 1.494140625, 1.4267578125, 10.0, 1.466451644897461, 1.5, 1.466451644897461
16810, 0.7814497947692871, 0.17815028131008148, -2.8090224266052246, -0.00034091094858013093, -0.001235049101524055, -3.436678409576416, -0.005294470116496086, -0.019031856209039688, -0.4517689645290375, -0.7906589508056641, -0.9536004662513733, 0.06558268517255783, -0.44746187714891783, 0.6608175675342238, -6.934327532718501, 9362.0, 30146.0, 35388.0, 9362.0, 8.370248794555664, -0.13083580136299133, -0.007103631738573313, 0.009583004750311375, 0.01006629690527916, -0.06292702257633209, 0.9972556233406067, -0.06814724951982498, -0.10231781005859375, 1.487548828125, 1.569580078125, 0.3462371826171875, 1.494140625, 1.423828125, 10.0, 1.4668556451797485, 1.5, 1.4668556451797485
16820, 0.7803307175636292, 0.18023791909217834, -2.8115010261535645, -0.000395705399569124, -0.0014319501351565123, -3.441197633743286, -0.005664393305778503, -0.020348351448774338, -0.4520523250102997, -0.7906904816627502, -0.9535486102104187, 0.06549055129289627, -0.4063453185474551, 0.6840483362233556, -7.000799795771585, 9362.0, 30146.0, 35388.0, 9362.0, 8.370248794555664, -0.10474438965320587, -0.04568524286150932, -0.2422913908958435, 0.010523769073188305, -0.06461521238088608, 0.9972947835922241, -0.06814724951982498, -0.10231781005859375, 1.487548828125, 1.24365234375, 0.1847381591796875, 1.491943359375, 1.612060546875, 10.0, 1.4658746719360352, 1.5, 1.4658746719360352
16830, 0.7794830203056335, 0.17975132167339325, -2.810915946960449, -0.00045419647358357906, -0.0016420268220826983, -3.4457192420959473, -0.006033871788531542, -0.02166697382926941, -0.45226457715034485, -0.790684700012207, -0.9535505771636963, 0.06550423800945282, -0.4120852801422303, 0.6812617745059129, -6.998959142065398, 9362.0, 30146.0, 35388.0, 9362.0, 8.370248794555664, -0.06294278800487518, 0.039536718279123306, 0.11763246357440948, 0.012295014224946499, -0.06132260337471962, 0.9986100792884827, -0.07967476546764374, -0.04855918884277344, 1.491943359375, 1.4033203125, 0.043182373046875, 1.491943359375, 1.609130859375, 10.0, 1.4665004014968872, 1.5, 1.4665004014968872
16840, 0.7796194553375244, 0.18144400417804718, -2.8110296726226807, -0.0005163990426808596, -0.001865276019088924, -3.4502432346343994, -0.006406631786376238, -0.022982871159911156, -0.4525254964828491, -0.7906907796859741, -0.9535356760025024, 0.06551191210746765, -0.4072231535186726, 0.6869833583732543, -7.003738689548144, 9362.0, 30146.0, 35388.0, 9362.0, 8.370248794555664, 0.21788102388381958, -0.21456113457679749, -0.07057344913482666, 0.011886644177138805, -0.06275424361228943, 0.9979440569877625, -0.07967476546764374, -0.04855918884277344, 1.491943359375, 1.251708984375, 0.1577606201171875, 1.494140625, 1.622314453125, 10.0, 1.465374231338501, 1.5, 1.465374231338501
16850, 0.7809156179428101, 0.1814592480659485, -2.811521291732788, -0.0005823271349072456, -0.0021016858518123627, -3.4547691345214844, -0.006778983399271965, -0.02429911121726036, -0.452656090259552, -0.7906781435012817, -0.9535543322563171, 0.06554712355136871, -0.4174057872501956, 0.6812109527938048, -6.995634020579935, 9362.0, 30146.0, 35388.0, 9362.0, 8.370248794555664, -0.15580950677394867, 0.16136744618415833, -0.031479962170124054, 0.010559684596955776, -0.0639035776257515, 0.9979122877120972, -0.07967476546764374, -0.04855918884277344, 1.491943359375, 1.623046875, 0.4723663330078125, 1.494140625, 1.341796875, 10.0, 1.4644410610198975, 1.5, 1.4644410610198975
16860, 0.7803766131401062, 0.1805173009634018, -2.8126766681671143, -0.0006519908783957362, -0.0023512502666562796, -3.459296941757202, -0.007153777405619621, -0.02561376430094242, -0.45291033387184143, -0.7906836867332458, -0.9535551071166992, 0.06552942097187042, -0.4143228174758391, 0.6865572322776359, -6.9931327141479604, 9362.0, 30146.0, 35388.0, 9362.0, 8.370248794555664, 0.18347856402397156, 0.04625546932220459, -0.27833738923072815, 0.012817436829209328, -0.06312112510204315, 1.0010604858398438, -0.07967476546764374, -0.04855918884277344, 1.491943359375, 1.658203125, 0.5592803955078125, 1.490478515625, 1.45458984375, 10.0, 1.4650806188583374, 1.5, 1.4650806188583374
16870, 0.7811753153800964, 0.18142561614513397, -2.811638116836548, -0.0007254062802530825, -0.0026139828842133284, -3.4638264179229736, -0.007529335096478462, -0.026932742446660995, -0.45300760865211487, -0.7906985282897949, -0.9535450339317322, 0.06551677733659744, -0.41438468791091293, 0.6831947404503751, -6.993622854995711, 9362.0, 30146.0, 35388.0, 9362.0, 8.370248794555664, 0.05401455610990524, 0.2519974708557129, 0.14908355474472046, 0.009354546666145325, -0.062462083995342255, 0.9993148446083069, -0.07967476546764374, -0.04855918884277344, 1.491943359375, 1.64501953125, 0.5263671875, 1.490478515625, 1.36669921875, 10.0, 1.465398907661438, 1.5, 1.465398907661438
16880, 0.7825356721878052, 0.1790313720703125, -2.810685396194458, -0.0008025727001950145, -0.0028899135068058968, -3.468356132507324, -0.007903923280537128, -0.028253382071852684, -0.45291927456855774, -0.7906937599182129, -0.9535459280014038, 0.0655231699347496, -0.41660868460762807, 0.6812906191099728, -6.998968651011936, 9362.0, 30146.0, 35388.0, 9362.0, 8.370248794555664, -0.01137213222682476, -0.13108308613300323, -0.16531795263290405, 0.009675080887973309, -0.06435263901948929, 0.998468279838562, -0.07967476546764374, -0.04855918884277344, 1.491943359375, 1.645751953125, 0.5281219482421875, 1.497802734375, 1.42529296875, 10.0, 1.4659501314163208, 1.5, 1.4659501314163208
16890, 0.7823582887649536, 0.1790345311164856, -2.8127193450927734, -0.0008834892068989575, -0.0031790437642484903, -3.472885847091675, -0.008279358968138695, -0.029572665691375732, -0.4530283808708191, -0.7906789779663086, -0.9535468220710754, 0.06553640216588974, -0.411288788273448, 0.6798771666278753, -6.993335190393341, 9362.0, 30146.0, 35388.0, 9362.0, 8.370248794555664, 0.008865605108439922, 0.047923192381858826, -0.07620368897914886, 0.011955318041145802, -0.0638488307595253, 0.9970957040786743, -0.07967476546764374, -0.04855918884277344, 1.491943359375, 1.610595703125, 0.442352294921875, 1.497802734375, 1.62158203125, 10.0, 1.4661592245101929, 1.5, 1.4661592245101929
16900, 0.7818816304206848, 0.17726095020771027, -2.8115508556365967, -0.0009681382216513157, -0.0034813727252185345, -3.477417230606079, -0.008650490082800388, -0.03089313395321369, -0.45323479175567627, -0.7906954288482666, -0.9535495042800903, 0.06551255285739899, -0.41254663343780307, 0.6764030712133717, -7.000770560804065, 9362.0, 30146.0, 35388.0, 9362.0, 8.370248794555664, -0.06617499887943268, 0.17744284868240356, 0.14826291799545288, 0.012064850889146328, -0.061367765069007874, 0.9980437159538269, -0.07967476546764374, -0.04855918884277344, 1.491943359375, 1.59375, 0.4024658203125, 1.49560546875, 1.509521484375, 10.0, 1.464699625968933, 1.5, 1.464699625968933
16910, 0.7813675403594971, 0.17665907740592957, -2.809281587600708, -0.001056496985256672, -0.0037968987599015236, -3.4819509983062744, -0.009021240286529064, -0.03221205994486809, -0.4535347521305084, -0.7906942367553711, -0.9535397291183472, 0.06551942229270935, -0.4122623923283525, 0.6827573599266259, -6.9906657955245395, 9362.0, 30146.0, 35388.0, 9362.0, 8.370248794555664, 0.11699945479631424, -0.01034415140748024, 0.061898574233055115, 0.011180339381098747, -0.06159491837024689, 0.9979009628295898, -0.07967476546764374, -0.04855918884277344, 1.491943359375, 1.210693359375, 0.326202392578125, 1.49560546875, 1.601806640625, 10.0, 1.464038610458374, 1.5, 1.464038610458374
16920, 0.7807841300964355, 0.1777247190475464, -2.8104019165039062, -0.0011485496070235968, -0.004125617444515228, -3.48648738861084, -0.009389243088662624, -0.03353168070316315, -0.45373478531837463, -0.7906835079193115, -0.9535398483276367, 0.06552358716726303, -0.41018019464169325, 0.681958242234316, -6.998155277835562, 9362.0, 30146.0, 35388.0, 9362.0, 8.370248794555664, -0.004902224987745285, -0.3965241611003876, -0.022595714777708054, 0.01045513991266489, -0.06358106434345245, 0.9978591799736023, -0.07967476546764374, -0.04855918884277344, 1.491943359375, 1.52783203125, 0.253387451171875, 1.4912109375, 1.506591796875, 10.0, 1.463011384010315, 1.5, 1.463011384010315
16930, 0.7818832993507385, 0.17845970392227173, -2.811436653137207, -0.0012442757142707705, -0.004467524588108063, -3.491025924682617, -0.009756005369126797, -0.034849781543016434, -0.4539855122566223, -0.7906914353370667, -0.9535461664199829, 0.06550440192222595, -0.4168382047216064, 0.6778746508453537, -6.998146394296086, 9362.0, 30146.0, 35388.0, 9362.0, 8.370248794555664, -0.14168986678123474, -0.19209767878055573, -0.24124424159526825, 0.012694666162133217, -0.06423338502645493, 0.9979907870292664, -0.0807792991399765, -0.08439826965332031, 1.489013671875, 1.59814453125, 0.4127655029296875, 1.4912109375, 1.25537109375, 10.0, 1.4635958671569824, 1.5, 1.4635958671569824
16940, 0.7816818952560425, 0.17984534800052643, -2.8117990493774414, -0.001343679497949779, -0.004822611343115568, -3.4955668449401855, -0.010124767199158669, -0.03616752102971077, -0.45418161153793335, -0.7906880974769592, -0.9535531401634216, 0.06549307703971863, -0.41500952712420014, 0.6731763242939053, -7.000350766185076, 9362.0, 30146.0, 35388.0, 9362.0, 8.370248794555664, -0.07352714240550995, -0.05567274987697601, -0.0720105692744255, 0.011037060990929604, -0.061964116990566254, 0.9976187944412231, -0.0807792991399765, -0.08439826965332031, 1.489013671875, 1.63916015625, 0.51190185546875, 1.491943359375, 1.128662109375, 10.0, 1.4629387855529785, 1.5, 1.4629387855529785
16950, 0.780842661857605, 0.1771085560321808, -2.812814474105835, -0.001446777256205678, -0.005190882831811905, -3.5001096725463867, -0.010494787245988846, -0.03748674318194389, -0.45440253615379333, -0.7907010316848755, -0.953541100025177, 0.06551150977611542, -0.41750819474281253, 0.6777017361118851, -6.998182528204842, 9362.0, 30146.0, 35388.0, 9362.0, 8.370248794555664, -0.06062448024749756, 0.21830879151821136, 0.20422036945819855, 0.009046894498169422, -0.06116832047700882, 0.9985975027084351, -0.0807792991399765, -0.08439826965332031, 1.489013671875, 1.300048828125, 0.0489654541015625, 1.491943359375, 1.62158203125, 10.0, 1.4633344411849976, 1.5, 1.4633344411849976
16960, 0.7816468477249146, 0.17729385197162628, -2.814666271209717, -0.0015535871498286724, -0.005572344642132521, -3.5046546459198, -0.010867229662835598, -0.038805630058050156, -0.4546140134334564, -0.7906957864761353, -0.9535398483276367, 0.06548618525266647, -0.4144949245546933, 0.6819541035646921, -7.00443002506288, 9362.0, 30146.0, 35388.0, 9362.0, 8.370248794555664, 0.3074219524860382, 0.13721781969070435, -0.19821420311927795, 0.011824293062090874, -0.06417132169008255, 0.9988880753517151, -0.0807792991399765, -0.08439826965332031, 1.489013671875, 1.617919921875, 0.4600677490234375, 1.49267578125, 1.546875, 10.0, 1.4621920585632324, 1.5, 1.4621920585632324
16970, 0.7822207808494568, 0.17730142176151276, -2.8145852088928223, -0.0016640993999317288, -0.005966994911432266, -3.5092015266418457, -0.011235271580517292, -0.04012439399957657, -0.4547438323497772, -0.7907042503356934, -0.953534722328186, 0.06547955423593521, -0.42010253202424663, 0.6800282473262769, -6.997693374444965, 9362.0, 30146.0, 35388.0, 9362.0, 8.370248794555664, -0.08846801519393921, 0.08036082237958908, -0.21138837933540344, 0.011677686125040054, -0.06359069049358368, 0.9984821677207947, -0.0807792991399765, -0.08439826965332031, 1.489013671875, 1.17626953125, 0.534088134765625, 1.49267578125, 1.5146484375, 10.0, 1.461700201034546, 1.5, 1.461700201034546
16990, 0.7824865579605103, 0.17766298353672028, -2.8176212310791016, -0.0016640993999317288, -0.005966994911432266, -3.5092015266418457, -0.011235271580517292, -0.04012439399957657, -0.4547438323497772, -0.7907031774520874, -0.9535454511642456, 0.06550217419862747, -0.409708499998304, 0.6837300853314332, -6.997803029572221, 9362.0, 30146.0, 35388.0, 9362.0, 8.370248794555664, 0.013199009001255035, 0.04797740280628204, 0.043798960745334625, 0.010940413922071457, -0.06433325260877609, 0.9969152212142944, -0.0807792991399765, -0.08439826965332031, 1.489013671875, 1.17626953125, 0.534088134765625, 1.49267578125, 1.34765625, 10.0, 1.4620997905731201, 1.5, 1.4620997905731201
17020, 0.7817472815513611, 0.17220035195350647, -2.8165321350097656, -0.002271897392347455, -0.008138157427310944, -3.5319647789001465, -0.013073672540485859, -0.04672269895672798, -0.45576876401901245, -0.7906907200813293, -0.9535331726074219, 0.0654832124710083, -0.4159487245284433, 0.6856963286959683, -6.999832830162787, 9362.0, 30146.0, 35388.0, 9362.0, 8.370248794555664, -0.08694498986005783, -0.008083334192633629, 0.22820080816745758, 0.009957099333405495, -0.06226539611816406, 0.9992833733558655, -0.0807792991399765, -0.08439826965332031, 1.489013671875, 1.17626953125, 0.534088134765625, 1.490478515625, 1.625244140625, 10.0, 1.4615602493286133, 1.5, 1.4615602493286133
17050, 0.7814918756484985, 0.16889987885951996, -2.8165700435638428, -0.0026803333312273026, -0.009599179029464722, -3.545646905899048, -0.014154003001749516, -0.050680700689554214, -0.4562924802303314, -0.7907049059867859, -0.953544557094574, 0.06547143310308456, -0.41249328575591127, 0.6858242971276525, -6.998283890913193, 9362.0, 30146.0, 35388.0, 9362.0, 8.370248794555664, -0.03504200652241707, 0.37315118312835693, 0.0019689465407282114, 0.011052533984184265, -0.06326734274625778, 0.9971081614494324, -0.0807792991399765, -0.08439826965332031, 1.489013671875, 1.17626953125, 0.534088134765625, 1.494140625, 1.625244140625, 10.0, 1.4624332189559937, 1.5, 1.4624332189559937
17060, 0.7808744311332703, 0.16799034178256989, -2.8170595169067383, -0.0026803333312273026, -0.009599179029464722, -3.545646905899048, -0.014154003001749516, -0.050680700689554214, -0.4562924802303314, -0.7907090783119202, -0.953559160232544, 0.06548501551151276, -0.41423806771482513, 0.6741942752934733, -6.991016072395444, 9362.0, 30146.0, 35388.0, 9362.0, 8.370248794555664, -0.10836225748062134, 0.08685849606990814, 0.14299286901950836, 0.011052533984184265, -0.06326734274625778, 0.9971081614494324, -0.0807792991399765, -0.08439826965332031, 1.489013671875, 1.17626953125, 0.534088134765625, 1.494140625, 1.623046875, 10.0, 1.4628607034683228, 1.5, 1.4628607034683228
17100, 0.7835006713867188, 0.16441266238689423, -2.8150038719177246, -0.003432242665439844, -0.012297997251152992, -3.5684945583343506, -0.01591455191373825, -0.057272933423519135, -0.4575969874858856, -0.7907103300094604, -0.9535393118858337, 0.06549064069986343, -0.413901273216288, 0.6745205814648614, -7.002257442955068, 9362.0, 30146.0, 35388.0, 9362.0, 8.370248794555664, -0.14845982193946838, -0.2548114061355591, -0.056406594812870026, 0.010640928521752357, -0.06215893104672432, 0.9999330043792725, -0.0807792991399765, -0.08439826965332031, 1.489013671875, 1.17626953125, 0.534088134765625, 1.494140625, 1.657470703125, 10.0, 1.4615745544433594, 1.5, 1.4615745544433594
17110, 0.7829859852790833, 0.16501252353191376, -2.8165152072906494, -0.003432242665439844, -0.012297997251152992, -3.5684945583343506, -0.01591455191373825, -0.057272933423519135, -0.4575969874858856, -0.7907084226608276, -0.9535457491874695, 0.06550002098083496, -0.4144953794833647, 0.6799507690307678, -7.003485468239331, 9362.0, 30146.0, 35388.0, 9362.0, 8.370248794555664, -0.1902865618467331, 0.000320987484883517, -0.05916444957256317, 0.010692247189581394, -0.061332929879426956, 0.9994857311248779, -0.0807792991399765, -0.08439826965332031, 1.489013671875, 1.17626953125, 0.534088134765625, 1.494140625, 1.48828125, 10.0, 1.4615745544433594, 1.5, 1.4615745544433594
17120, 0.781461775302887, 0.16802211105823517, -2.8174540996551514, -0.0037574695888906717, -0.013469933532178402, -3.577648162841797, -0.016608303412795067, -0.059922125190496445, -0.4577152132987976, -0.790761411190033, -0.9535612463951111, 0.06548120826482773, -0.4236224812493883, 0.67354919766791, -7.014444136358855, 9362.0, 30146.0, 35388.0, 9362.0, 8.370248794555664, -0.25428465008735657, -0.29586854577064514, -0.05770031735301018, 0.010223884135484695, -0.06241975724697113, 1.0000383853912354, -0.0807792991399765, -0.08439826965332031, 1.489013671875, 1.17626953125, 0.534088134765625, 1.494140625, 1.48828125, 10.0, 1.461465835571289, 1.5, 1.461465835571289
17160, 0.7829380631446838, 0.16775135695934296, -2.8128018379211426, -0.004449839238077402, -0.01597260683774948, -3.595963716506958, -0.018013058230280876, -0.0652071088552475, -0.45822620391845703, -0.7907648682594299, -0.9535717368125916, 0.06549755483865738, -0.4256079521886656, 0.6653805077027357, -7.007731152196775, 9362.0, 30146.0, 35388.0, 9362.0, 8.370248794555664, -0.25172558426856995, 0.07851661741733551, 0.07680631428956985, 0.012213005684316158, -0.062372151762247086, 0.9977478384971619, -0.0807792991399765, -0.08439826965332031, 1.489013671875, 1.17626953125, 0.534088134765625, 1.494140625, 1.6611328125, 10.0, 1.4614782333374023, 1.5, 1.4614782333374023
17190, 0.7830653190612793, 0.16861777007579803, -2.816272020339966, -0.005006140563637018, -0.017988258972764015, -3.6097207069396973, -0.019070712849497795, -0.06917010247707367, -0.4589042067527771, -0.7907537817955017, -0.9535669088363647, 0.06548755615949631, -0.42520515151777477, 0.6642224202282989, -7.006721148457002, 9362.0, 30146.0, 35388.0, 9362.0, 8.370248794555664, -0.004600025247782469, 0.08976568281650543, -0.25358808040618896, 0.011373460292816162, -0.06268219649791718, 0.9985039830207825, -0.0807792991399765, -0.08439826965332031, 1.489013671875, 1.17626953125, 0.534088134765625, 1.49267578125, 1.582763671875, 10.0, 1.4617549180984497, 1.5, 1.4617549180984497
17210, 0.7833395600318909, 0.16646374762058258, -2.8173351287841797, -0.005394632462412119, -0.019398091360926628, -3.618903160095215, -0.01977846771478653, -0.07181442528963089, -0.4592688977718353, -0.7907628417015076, -0.953572154045105, 0.06549417227506638, -0.4293426984112122, 0.6667000179451747, -7.010368700784154, 9362.0, 30146.0, 35388.0, 9362.0, 8.370248794555664, 0.10034342110157013, 0.03734348341822624, -0.5585079193115234, 0.0109670115634799, -0.061488933861255646, 0.9997726678848267, -0.0807792991399765, -0.08439826965332031, 1.489013671875, 1.17626953125, 0.534088134765625, 1.487548828125, 1.10595703125, 10.0, 1.4611568450927734, 1.5, 1.4611568450927734
17240, 0.787436306476593, 0.16694557666778564, -2.819195032119751, -0.005394632462412119, -0.019398091360926628, -3.618903160095215, -0.01977846771478653, -0.07181442528963089, -0.4592688977718353, -0.7907887697219849, -0.9535401463508606, 0.0654025599360466, -0.43461971363056556, 0.6791074132333961, -7.01477645302962, 9362.0, 30146.0, 35388.0, 9362.0, 8.370248794555664, 0.010960743762552738, 0.33207637071609497, -0.07067498564720154, 0.010621174238622189, -0.06271907687187195, 0.9985547661781311, -0.05913689360022545, -0.1291980743408203, 1.4853515625, 1.17626953125, 0.534088134765625, 1.494873046875, 1.10595703125, 10.0, 1.462277889251709, 1.5, 1.462277889251709
17280, 0.7874709963798523, 0.16000695526599884, -2.818458080291748, -0.006864918861538172, -0.024750135838985443, -3.65108585357666, -0.022224053740501404, -0.08111049234867096, -0.4601876437664032, -0.7907962799072266, -0.9535549283027649, 0.06541787832975388, -0.43753703628408935, 0.6785369690980758, -7.006039732309448, 9362.0, 30146.0, 35388.0, 9362.0, 8.370248794555664, -0.12606044113636017, 0.2497493028640747, 0.17021819949150085, 0.011759964749217033, -0.06248992681503296, 0.9974337220191956, -0.05913689360022545, -0.1291980743408203, 1.4853515625, 1.17626953125, 0.534088134765625, 1.494873046875, 1.584228515625, 10.0, 1.4599393606185913, 1.5, 1.4599393606185913
17290, 0.7870860695838928, 0.1604546457529068, -2.815556764602661, -0.006864918861538172, -0.024750135838985443, -3.65108585357666, -0.022224053740501404, -0.08111049234867096, -0.4601876437664032, -0.7907938957214355, -0.9535585641860962, 0.06541335582733154, -0.43109390444758955, 0.6819371663395088, -7.005209956242513, 9362.0, 30146.0, 35388.0, 9362.0, 8.370248794555664, -0.07557255029678345, -0.08901084959506989, 0.1639791876077652, 0.011759964749217033, -0.06248992681503296, 0.9974337220191956, -0.05913689360022545, -0.1291980743408203, 1.4853515625, 1.17626953125, 0.534088134765625, 1.494873046875, 1.584228515625, 10.0, 1.459263801574707, 1.5, 1.459263801574707
17340, 0.785230278968811, 0.15888623893260956, -2.814105987548828, -0.00825947429984808, -0.029856134206056595, -3.6787381172180176, -0.024258285760879517, -0.08908376842737198, -0.4618692994117737, -0.7909221053123474, -0.9535830020904541, 0.06522274762392044, -0.473530507617455, 0.6316031277333423, -6.984616031155833, 9362.0, 30146.0, 35388.0, 9362.0, 8.370248794555664, 0.15672150254249573, 0.17795364558696747, 0.02627451904118061, 0.012807454913854599, -0.06396587938070297, 0.9971228241920471, -0.05913689360022545, -0.1291980743408203, 1.4853515625, 1.17626953125, 0.534088134765625, 1.494873046875, 1.61865234375, 10.0, 1.4582561254501343, 1.5, 1.4582561254501343
17350, 0.7846413850784302, 0.15703964233398438, -2.814218759536743, -0.00825947429984808, -0.029856134206056595, -3.6787381172180176, -0.024258285760879517, -0.08908376842737198, -0.4618692994117737, -0.7908954620361328, -0.9535529017448425, 0.0652473047375679, -0.46128400306187445, 0.6409876754445349, -6.9792383198701895, 9362.0, 30146.0, 35388.0, 9362.0, 8.370248794555664, -0.1876669079065323, 0.027155593037605286, -0.2788444459438324, 0.011790777556598186, -0.06445791572332382, 0.9990237951278687, -0.05913689360022545, -0.1291980743408203, 1.4853515625, 1.17626953125, 0.534088134765625, 1.494873046875, 1.57470703125, 10.0, 1.4582561254501343, 1.5, 1.4582561254501343
17380, 0.7845447659492493, 0.15583862364292145, -2.81158709526062, -0.009256727993488312, -0.03352561220526695, -3.697232961654663, -0.02560042217373848, -0.09438948333263397, -0.4627075791358948, -0.7909166216850281, -0.9535772204399109, 0.06522076576948166, -0.46795122556078, 0.6409196768333061, -6.9837890324424325, 9362.0, 30146.0, 35388.0, 9362.0, 8.370248794555664, -0.06449741870164871, -0.10852634906768799, 0.20229487121105194, 0.01215329673141241, -0.06268705427646637, 0.9970310926437378, -0.05913689360022545, -0.1291980743408203, 1.4853515625, 1.17626953125, 0.534088134765625, 1.4853515625, 1.623779296875, 10.0, 1.4587535858154297, 1.5, 1.4587535858154297
17400, 0.7836098670959473, 0.15431231260299683, -2.8113934993743896, -0.009775377810001373, -0.035439930856227875, -3.706490993499756, -0.02626427635550499, -0.09704160690307617, -0.46313905715942383, -0.7908644080162048, -0.9535542726516724, 0.06528212875127792, -0.45379929561164783, 0.637958236090725, -6.985169894781263, 9362.0, 30146.0, 35388.0, 9362.0, 8.370248794555664, -0.04616611450910568, 0.3829353153705597, 0.1978825330734253, 0.010756940580904484, -0.06184244155883789, 0.9973307251930237, -0.05913689360022545, -0.1291980743408203, 1.4853515625, 1.17626953125, 0.534088134765625, 1.4853515625, 1.597412109375, 10.0, 1.4585241079330444, 1.5, 1.4585241079330444
17410, 0.7837164998054504, 0.1534990817308426, -2.812286376953125, -0.01003968808799982, -0.03641697019338608, -3.71112322807312, -0.026597680523991585, -0.09836659580469131, -0.46332821249961853, -0.7908948063850403, -0.9535515904426575, 0.06524714082479477, -0.4584303046262911, 0.6410349186380415, -6.990556775020653, 9362.0, 30146.0, 35388.0, 9362.0, 8.370248794555664, -0.016018884256482124, -0.1542816013097763, -0.5598570704460144, 0.00979889091104269, -0.06113438308238983, 0.9985403418540955, -0.05913689360022545, -0.1291980743408203, 1.4853515625, 1.17626953125, 0.534088134765625, 1.4853515625, 1.597412109375, 10.0, 1.4587113857269287, 1.5, 1.4587113857269287
17470, 0.7803050875663757, 0.1585623323917389, -2.8097901344299316, -0.0114108482375741, -0.041500940918922424, -3.7343058586120605, -0.028256794437766075, -0.10499221831560135, -0.46373850107192993, -0.7908921837806702, -0.953549861907959, 0.06525690853595734, -0.45814699264364633, 0.6450941646311037, -6.9812592692897795, 9362.0, 30146.0, 35388.0, 9362.0, 8.370248794555664, -0.08576180040836334, -0.3396998345851898, 0.17928484082221985, 0.010202859528362751, -0.06190939620137215, 0.9977074861526489, -0.05913689360022545, -0.1291980743408203, 1.4853515625, 1.17626953125, 0.534088134765625, 1.4912109375, 1.417236328125, 10.0, 1.458858609199524, 1.5, 1.458858609199524
17480, 0.7794033885002136, 0.15892040729522705, -2.809965133666992, -0.0114108482375741, -0.041500940918922424, -3.7343058586120605, -0.028256794437766075, -0.10499221831560135, -0.46373850107192993, -0.7908809781074524, -0.9535537362098694, 0.06528109312057495, -0.45442599346917084, 0.6332673241890348, -6.982120806464004, 9362.0, 30146.0, 35388.0, 9362.0, 8.370248794555664, 0.08568456768989563, 0.051522985100746155, 0.052122894674539566, 0.010742753744125366, -0.06148449704051018, 0.9989519119262695, -0.05913689360022545, -0.1291980743408203, 1.4853515625, 1.17626953125, 0.534088134765625, 1.4912109375, 1.417236328125, 10.0, 1.459202766418457, 1.5, 1.459202766418457
17500, 0.7817338109016418, 0.16037045419216156, -2.809455394744873, -0.012567996978759766, -0.045806072652339935, -3.752877712249756, -0.02960183657705784, -0.11026419699192047, -0.4646889269351959, -0.7908903956413269, -0.9535393714904785, 0.06527256220579147, -0.45709679329444114, 0.648432845949543, -6.986848545099598, 9362.0, 30146.0, 35388.0, 9362.0, 8.370248794555664, 0.2662696838378906, 0.03276412561535835, 0.21248960494995117, 0.0105690723285079, -0.059464726597070694, 0.9970884919166565, -0.05913689360022545, -0.1291980743408203, 1.4853515625, 1.17626953125, 0.534088134765625, 1.4912109375, 1.6083984375, 10.0, 1.4600452184677124, 1.5, 1.4600452184677124
17540, 0.7806034684181213, 0.1620449721813202, -2.8083791732788086, -0.01347131934016943, -0.04917335882782936, -3.766828775405884, -0.03061876818537712, -0.11422376334667206, -0.4653632342815399, -0.7908923029899597, -0.9535519480705261, 0.06524064391851425, -0.4534216006081496, 0.6480731433953792, -6.98609010684427, 9362.0, 30146.0, 35388.0, 9362.0, 8.370248794555664, -0.1383364200592041, 0.09929154813289642, -0.32441073656082153, 0.011877362616360188, -0.06307760626077652, 0.9985886812210083, -0.0832156240940094, -0.14711761474609375, 1.48388671875, 1.17626953125, 0.534088134765625, 1.494140625, 1.4677734375, 10.0, 1.4595787525177002, 1.5, 1.4595787525177002
17550, 0.780372679233551, 0.16147729754447937, -2.8096396923065186, -0.01347131934016943, -0.04917335882782936, -3.766828775405884, -0.03061876818537712, -0.11422376334667206, -0.4653632342815399, -0.7909107804298401, -0.9535861611366272, 0.06524424254894257, -0.46625010231848735, 0.633451405220228, -6.9820845631631485, 9362.0, 30146.0, 35388.0, 9362.0, 8.370248794555664, 0.03880537301301956, 0.12215153127908707, -0.16792435944080353, 0.011495308019220829, -0.06274237483739853, 0.9968976974487305, -0.0832156240940094, -0.14711761474609375, 1.48388671875, 1.17626953125, 0.534088134765625, 1.494140625, 1.4677734375, 10.0, 1.4600234031677246, 1.5, 1.4600234031677246
17590, 0.7777928709983826, 0.1603708118200302, -2.8056604862213135, -0.015044880099594593, -0.055049482733011246, -3.7901198863983154, -0.03232109919190407, -0.12081535905599594, -0.46639084815979004, -0.7909023761749268, -0.9535815715789795, 0.06521008163690567, -0.4699090972592898, 0.6398950220003314, -6.989203831413183, 9362.0, 30146.0, 35388.0, 9362.0, 8.370248794555664, -0.04874936491250992, 0.3013375401496887, -0.10616327822208405, 0.012574098072946072, -0.06391182541847229, 0.9985589385032654, -0.0832156240940094, -0.14711761474609375, 1.48388671875, 1.17626953125, 0.534088134765625, 1.494140625, 1.64501953125, 10.0, 1.4577372074127197, 1.5, 1.4577372074127197
17600, 0.7784383296966553, 0.16107740998268127, -2.8057775497436523, -0.015044880099594593, -0.055049482733011246, -3.7901198863983154, -0.03232109919190407, -0.12081535905599594, -0.46639084815979004, -0.7909072637557983, -0.9535545110702515, 0.06524919718503952, -0.4606394939505143, 0.6421450050203532, -6.985845936100746, 9362.0, 30146.0, 35388.0, 9362.0, 8.370248794555664, 0.08252938836812973, 0.18758752942085266, 0.1062300056219101, 0.011448653414845467, -0.061827823519706726, 0.9977998733520508, -0.0832156240940094, -0.14711761474609375, 1.48388671875, 1.17626953125, 0.534088134765625, 1.494140625, 1.64501953125, 10.0, 1.4583929777145386, 1.5, 1.4583929777145386
17610, 0.7794241905212402, 0.15980349481105804, -2.8051536083221436, -0.01602984219789505, -0.058733146637678146, -3.8041183948516846, -0.03334227576851845, -0.12476088851690292, -0.46686801314353943, -0.790886402130127, -0.9535405039787292, 0.06527223438024521, -0.45569823771157164, 0.6435122222870007, -6.987073346198296, 9362.0, 30146.0, 35388.0, 9362.0, 8.370248794555664, -0.16037920117378235, 0.13975819945335388, 0.13321715593338013, 0.010245677083730698, -0.06052191182971001, 0.9965035915374756, -0.0832156240940094, -0.14711761474609375, 1.48388671875, 1.17626953125, 0.534088134765625, 1.494140625, 1.64501953125, 10.0, 1.4581533670425415, 1.5, 1.4581533670425415
17650, 0.7805288434028625, 0.1574927717447281, -2.806333303451538, -0.01739061437547207, -0.06382890790700912, -3.8228087425231934, -0.03469547629356384, -0.13003453612327576, -0.4673144519329071, -0.7909110188484192, -0.9535709619522095, 0.06523764133453369, -0.469502327747675, 0.6324655799581365, -6.9815105184403645, 9362.0, 30146.0, 35388.0, 9362.0, 8.370248794555664, 0.11491434276103973, -0.0020184828899800777, -0.06872668117284775, 0.010356821119785309, -0.06295482069253922, 1.0010994672775269, -0.0832156240940094, -0.14711761474609375, 1.48388671875, 1.17626953125, 0.534088134765625, 1.49560546875, 1.62890625, 10.0, 1.4574590921401978, 1.5, 1.4574590921401978
17660, 0.7805295586585999, 0.1574677675962448, -2.806915521621704, -0.01739061437547207, -0.06382890790700912, -3.8228087425231934, -0.03469547629356384, -0.13003453612327576, -0.4673144519329071, -0.7909080982208252, -0.9535704255104065, 0.06524204462766647, -0.47108175654201195, 0.6416047155394438, -6.979320293562353, 9362.0, 30146.0, 35388.0, 9362.0, 8.370248794555664, -0.03478194773197174, 0.11715871840715408, 0.1266946792602539, 0.009399170987308025, -0.06276320666074753, 0.9969196915626526, -0.0832156240940094, -0.14711761474609375, 1.48388671875, 1.17626953125, 0.534088134765625, 1.49267578125, 1.62890625, 10.0, 1.4578975439071655, 1.5, 1.4578975439071655
17670, 0.7813494205474854, 0.15796086192131042, -2.8091797828674316, -0.01739061437547207, -0.06382890790700912, -3.8228087425231934, -0.03469547629356384, -0.13003453612327576, -0.4673144519329071, -0.7909074425697327, -0.95355224609375, 0.06525713205337524, -0.4610933921433174, 0.642230476108665, -6.983282202791169, 9362.0, 30146.0, 35388.0, 9362.0, 8.370248794555664, 0.1514434516429901, 0.12780135869979858, -0.2626183032989502, 0.01080554910004139, -0.06321627646684647, 0.9962918162345886, -0.0832156240940094, -0.14711761474609375, 1.48388671875, 1.17626953125, 0.534088134765625, 1.49267578125, 1.62890625, 10.0, 1.458538293838501, 1.5, 1.458538293838501
17690, 0.7801792621612549, 0.15607504546642303, -2.807173252105713, -0.01739061437547207, -0.06382890790700912, -3.8228087425231934, -0.03469547629356384, -0.13003453612327576, -0.4673144519329071, -0.7909265160560608, -0.9535754919052124, 0.06525435298681259, -0.46659337771925957, 0.6336918298321166, -6.985097168255715, 9362.0, 30146.0, 35388.0, 9362.0, 8.370248794555664, -0.25996363162994385, -0.1648862063884735, 0.05324656516313553, 0.01011662743985653, -0.06172950938344002, 0.9957571029663086, -0.0832156240940094, -0.14711761474609375, 1.48388671875, 1.17626953125, 0.534088134765625, 1.49267578125, 1.603271484375, 10.0, 1.4578148126602173, 1.5, 1.4578148126602173
17710, 0.7798495888710022, 0.15453985333442688, -2.8076179027557373, -0.019532708451151848, -0.07186838239431381, -3.8508834838867188, -0.036701422184705734, -0.1379457265138626, -0.4687623679637909, -0.790906548500061, -0.9535521268844604, 0.06528041511774063, -0.46456734378063314, 0.6364991760815428, -6.981663247397304, 9362.0, 30146.0, 35388.0, 9362.0, 8.370248794555664, -0.11373576521873474, 0.23277828097343445, 0.23357345163822174, 0.010402877815067768, -0.06199497729539871, 0.997090756893158, -0.0832156240940094, -0.14711761474609375, 1.48388671875, 1.17626953125, 0.534088134765625, 1.496337890625, 1.468505859375, 10.0, 1.4582871198654175, 1.5, 1.4582871198654175
17720, 0.7799438238143921, 0.15289849042892456, -2.8068954944610596, -0.019532708451151848, -0.07186838239431381, -3.8508834838867188, -0.036701422184705734, -0.1379457265138626, -0.4687623679637909, -0.7909005284309387, -0.9535439014434814, 0.06524553894996643, -0.4560366379526923, 0.6460963754002762, -6.983502305883619, 9362.0, 30146.0, 35388.0, 9362.0, 8.370248794555664, 0.07870224118232727, -0.05790135636925697, 0.05485863983631134, 0.009889115579426289, -0.05874180421233177, 0.9992949366569519, -0.0832156240940094, -0.14711761474609375, 1.48388671875, 1.17626953125, 0.534088134765625, 1.496337890625, 1.468505859375, 10.0, 1.457417607307434, 1.5, 1.457417607307434
17780, 0.7780701518058777, 0.14986109733581543, -2.802067518234253, -0.02179376780986786, -0.08038219809532166, -3.8790485858917236, -0.03865690156817436, -0.14584758877754211, -0.4700360894203186, -0.7908940315246582, -0.9535499811172485, 0.06526995450258255, -0.4601423665835671, 0.6410350641198761, -6.9781448067352265, 9362.0, 30146.0, 35388.0, 9362.0, 8.370248794555664, -0.023298971354961395, -0.07261189073324203, -0.03607305884361267, 0.00991112645715475, -0.0620422326028347, 0.996715247631073, -0.08797838538885117, -0.030637741088867188, 1.493408203125, 1.17626953125, 0.534088134765625, 1.491943359375, 1.680908203125, 10.0, 1.4572346210479736, 1.5, 1.4572346210479736
17880, 0.780674159526825, 0.1389087289571762, -2.7968761920928955, -0.025818966329097748, -0.09562529623508453, -3.9261906147003174, -0.04184295982122421, -0.15902486443519592, -0.47249314188957214, -0.7908875346183777, -0.9535490274429321, 0.06526640057563782, -0.46265355727819035, 0.6401887923507275, -6.9818417600502825, 9362.0, 30146.0, 35388.0, 9362.0, 8.370248794555664, 0.08979400992393494, 0.033221904188394547, -0.15965822339057922, 0.012869787402451038, -0.06449561566114426, 0.998104989528656, -0.07665226608514786, -0.05751800537109375, 1.4912109375, 1.17626953125, 0.534088134765625, 1.494140625, 1.6494140625, 10.0, 1.4572598934173584, 1.5, 1.4572598934173584
17890, 0.780945897102356, 0.1362096071243286, -2.7984695434570312, -0.025818966329097748, -0.09562529623508453, -3.9261906147003174, -0.04184295982122421, -0.15902486443519592, -0.47249314188957214, -0.79090815782547, -0.9535645842552185, 0.06524411588907242, -0.46678150662965306, 0.6382515655377858, -6.977612451959319, 9362.0, 30146.0, 35388.0, 9362.0, 8.370248794555664, 0.1654944121837616, 0.0816415324807167, -0.26855528354644775, 0.011171162128448486, -0.06229393929243088, 0.997452437877655, -0.07665226608514786, -0.05751800537109375, 1.4912109375, 1.17626953125, 0.534088134765625, 1.494140625, 1.6494140625, 10.0, 1.4577285051345825, 1.5, 1.4577285051345825
17960, 0.7796613574028015, 0.137023463845253, -2.7991232872009277, -0.029707392677664757, -0.11047295480966568, -3.968794345855713, -0.04454473406076431, -0.17092759907245636, -0.47413426637649536, -0.790886640548706, -0.9535444974899292, 0.06525648385286331, -0.46106584855704885, 0.6396177835922856, -6.980089265231587, 9362.0, 30146.0, 35388.0, 9362.0, 8.370248794555664, 0.15496571362018585, 0.18214662373065948, -0.11633538454771042, 0.012141790241003036, -0.06304159015417099, 0.9992778301239014, -0.07665226608514786, -0.05751800537109375, 1.4912109375, 1.17626953125, 0.534088134765625, 1.48681640625, 1.428955078125, 10.0, 1.456528902053833, 1.5, 1.456528902053833
17970, 0.7804944515228271, 0.13594947755336761, -2.7996649742126465, -0.029707392677664757, -0.11047295480966568, -3.968794345855713, -0.04454473406076431, -0.17092759907245636, -0.47413426637649536, -0.7908788323402405, -0.9535478949546814, 0.06526584178209305, -0.45578790606721614, 0.6408143653821412, -6.9817671464870195, 9362.0, 30146.0, 35388.0, 9362.0, 8.370248794555664, 0.06390935182571411, -0.11068285256624222, -0.26272842288017273, 0.011485625989735126, -0.06261563301086426, 1.0002678632736206, -0.07665226608514786, -0.05751800537109375, 1.4912109375, 1.17626953125, 0.534088134765625, 1.48681640625, 1.428955078125, 10.0, 1.455928921699524, 1.5, 1.455928921699524
17980, 0.7806782722473145, 0.1348557025194168, -2.799984931945801, -0.029707392677664757, -0.11047295480966568, -3.968794345855713, -0.04454473406076431, -0.17092759907245636, -0.47413426637649536, -0.7908753156661987, -0.9535411596298218, 0.06525049358606339, -0.4572358040050032, 0.6465066140984845, -6.984456118627406, 9362.0, 30146.0, 35388.0, 9362.0, 8.370248794555664, 0.0340842604637146, 0.3960198163986206, 0.1175621896982193, 0.011485625989735126, -0.06261563301086426, 1.0002678632736206, -0.07665226608514786, -0.05751800537109375, 1.4912109375, 1.17626953125, 0.534088134765625, 1.49560546875, 1.428955078125, 10.0, 1.456583857536316, 1.5, 1.456583857536316
18020, 0.7808492183685303, 0.13528360426425934, -2.7979254722595215, -0.03197203576564789, -0.1191844642162323, -3.9925124645233154, -0.04603250324726105, -0.17753171920776367, -0.474884957075119, -0.7909023761749268, -0.9535848498344421, 0.06522143632173538, -0.4666175291259635, 0.6347870442688759, -6.986121754532849, 9362.0, 30146.0, 35388.0, 9362.0, 8.370248794555664, -0.0417524017393589, 0.03908452019095421, -0.29446330666542053, 0.011323885060846806, -0.06122061610221863, 0.9977011680603027, -0.07665226608514786, -0.05751800537109375, 1.4912109375, 1.17626953125, 0.534088134765625, 1.49560546875, 1.40478515625, 10.0, 1.4553685188293457, 1.5, 1.4553685188293457
18040, 0.781356692314148, 0.13486801087856293, -2.8006069660186768, -0.03197203576564789, -0.1191844642162323, -3.9925124645233154, -0.04603250324726105, -0.17753171920776367, -0.474884957075119, -0.7908813953399658, -0.9535353183746338, 0.06526271253824234, -0.4602036449178626, 0.6427300909439282, -6.985141137440841, 9362.0, 30146.0, 35388.0, 9362.0, 8.370248794555664, -0.07584083080291748, 0.12612074613571167, 0.13881774246692657, 0.010750101879239082, -0.06211293116211891, 0.9991224408149719, -0.08099661767482758, -0.08439826965332031, 1.489013671875, 1.17626953125, 0.534088134765625, 1.49560546875, 1.708740234375, 10.0, 1.4562689065933228, 1.5, 1.4562689065933228
18060, 0.7809001803398132, 0.13430364429950714, -2.7996532917022705, -0.034310441464185715, -0.12822620570659637, -4.01628303527832, -0.04750516638159752, -0.18414117395877838, -0.47575193643569946, -0.7908929586410522, -0.9535535573959351, 0.06525404006242752, -0.4579484285794022, 0.6439976675135881, -6.984337225053569, 9362.0, 30146.0, 35388.0, 9362.0, 8.370248794555664, 0.0692502111196518, 0.06992413848638535, 0.028545673936605453, 0.01086273230612278, -0.062497206032276154, 0.9981646537780762, -0.08099661767482758, -0.08439826965332031, 1.489013671875, 1.17626953125, 0.534088134765625, 1.49560546875, 1.6435546875, 10.0, 1.456312894821167, 1.5, 1.456312894821167
18070, 0.7813326120376587, 0.13497842848300934, -2.8026986122131348, -0.034310441464185715, -0.12822620570659637, -4.01628303527832, -0.04750516638159752, -0.18414117395877838, -0.47575193643569946, -0.7908802628517151, -0.9535478949546814, 0.06525403261184692, -0.46185951795526986, 0.6417445997714708, -6.973937071039934, 9362.0, 30146.0, 35388.0, 9362.0, 8.370248794555664, 0.4108385145664215, 0.17536276578903198, -0.405882328748703, 0.01224207691848278, -0.06146969273686409, 0.9991586804389954, -0.08099661767482758, -0.08439826965332031, 1.489013671875, 1.17626953125, 0.534088134765625, 1.49560546875, 1.60546875, 10.0, 1.456312894821167, 1.5, 1.456312894821167
18080, 0.7815402150154114, 0.13473889231681824, -2.801961898803711, -0.034310441464185715, -0.12822620570659637, -4.01628303527832, -0.04750516638159752, -0.18414117395877838, -0.47575193643569946, -0.7908885478973389, -0.9535452127456665, 0.06525034457445145, -0.4635383088120944, 0.64690027862639, -6.983471531250761, 9362.0, 30146.0, 35388.0, 9362.0, 8.370248794555664, 0.02509775012731552, -0.12553051114082336, 0.04724004119634628, 0.011667709797620773, -0.06299985945224762, 0.9988588094711304, -0.08099661767482758, -0.08439826965332031, 1.489013671875, 1.17626953125, 0.534088134765625, 1.49560546875, 1.60546875, 10.0, 1.4573725461959839, 1.5, 1.4573725461959839
18090, 0.7821481823921204, 0.1363365352153778, -2.8019936084747314, -0.034310441464185715, -0.12822620570659637, -4.01628303527832, -0.04750516638159752, -0.18414117395877838, -0.47575193643569946, -0.7908930778503418, -0.9535382986068726, 0.0652545765042305, -0.4578761059494357, 0.6426729644106217, -6.980576205033707, 9362.0, 30146.0, 35388.0, 9362.0, 8.370248794555664, -0.1917358785867691, 0.15047761797904968, -0.19981041550636292, 0.011667709797620773, -0.06299985945224762, 0.9988588094711304, -0.08099661767482758, -0.08439826965332031, 1.489013671875, 1.17626953125, 0.534088134765625, 1.49560546875, 1.60546875, 10.0, 1.4579219818115234, 1.5, 1.4579219818115234
18140, 0.7817202806472778, 0.13006193935871124, -2.7974915504455566, -0.0377083383500576, -0.14144013822078705, -4.049624443054199, -0.04957832768559456, -0.19340308010578156, -0.47693583369255066, -0.7909009456634521, -0.9535778760910034, 0.0652131512761116, -0.4769940354153178, 0.6343068014302844, -6.981956985801984, 9362.0, 30146.0, 35388.0, 9362.0, 8.370248794555664, 0.3175390958786011, -0.13490702211856842, 0.2625313699245453, 0.0109437620267272, -0.06307297945022583, 0.9989354014396667, -0.08673322200775146, -0.18295860290527344, 1.48095703125, 1.540283203125, 0.280364990234375, 1.48974609375, 1.61865234375, 10.0, 1.4587174654006958, 1.5, 1.4587174654006958
18150, 0.7827021479606628, 0.13007749617099762, -2.7985074520111084, -0.0377083383500576, -0.14144013822078705, -4.049624443054199, -0.04957832768559456, -0.19340308010578156, -0.47693583369255066, -0.7908815741539001, -0.9535475373268127, 0.0652456134557724, -0.46444431799718006, 0.6411518597011252, -6.979126690728256, 9362.0, 30146.0, 35388.0, 9362.0, 8.370248794555664, 0.059103600680828094, 0.09692990034818649, -0.24722327291965485, 0.013117601163685322, -0.06177372485399246, 0.9992513060569763, -0.08673322200775146, -0.18295860290527344, 1.48095703125, 1.540283203125, 0.280364990234375, 1.48974609375, 1.61865234375, 10.0, 1.4590405225753784, 1.5, 1.4590405225753784
18170, 0.7827877402305603, 0.12446963787078857, -2.7981956005096436, -0.03971463069319725, -0.14928215742111206, -4.068713188171387, -0.05073276162147522, -0.19869980216026306, -0.4775379002094269, -0.7908778786659241, -0.9535457491874695, 0.06523990631103516, -0.4582321787959903, 0.6409368412598724, -6.985352578648823, 9362.0, 30146.0, 35388.0, 9362.0, 8.370248794555664, -0.005557416472584009, -0.1495271474123001, -0.05356086790561676, 0.01251603476703167, -0.06494969129562378, 0.9987166523933411, -0.08673322200775146, -0.18295860290527344, 1.48095703125, 1.540283203125, 0.280364990234375, 1.48974609375, 1.64794921875, 10.0, 1.4589893817901611, 1.5, 1.4589893817901611
18190, 0.7818276882171631, 0.1238989308476448, -2.798732280731201, -0.03971463069319725, -0.14928215742111206, -4.068713188171387, -0.05073276162147522, -0.19869980216026306, -0.4775379002094269, -0.7909068465232849, -0.9535636901855469, 0.06522290408611298, -0.46947607907149036, 0.6308794827685063, -6.985151867910929, 9362.0, 30146.0, 35388.0, 9362.0, 8.370248794555664, 0.0600673146545887, -0.21642856299877167, 0.08772251754999161, 0.0119579853489995, -0.06239016726613045, 0.9967466592788696, -0.08673322200775146, -0.18295860290527344, 1.48095703125, 1.540283203125, 0.280364990234375, 1.48974609375, 1.64794921875, 10.0, 1.4582581520080566, 1.5, 1.4582581520080566
18220, 0.7818064093589783, 0.1213548555970192, -2.7967498302459717, -0.04228604957461357, -0.15938282012939453, -4.092616081237793, -0.05212090536952019, -0.2053256630897522, -0.47855910658836365, -0.7909010052680969, -0.9535444378852844, 0.06522512435913086, -0.45918944268448597, 0.6414231113875815, -6.982789415963305, 9362.0, 30146.0, 35388.0, 9362.0, 8.370248794555664, 0.02268076501786709, -0.08163623511791229, -0.0020194456446915865, 0.011732356622815132, -0.06322699785232544, 0.9986544847488403, -0.08673322200775146, -0.18295860290527344, 1.48095703125, 1.540283203125, 0.280364990234375, 1.49267578125, 1.50732421875, 10.0, 1.4591116905212402, 1.5, 1.4591116905212402
18310, 0.7826396226882935, 0.11864180862903595, -2.793745994567871, -0.04708853363990784, -0.17839832603931427, -4.1357574462890625, -0.05459735542535782, -0.2172420173883438, -0.48036426305770874, -0.7908856272697449, -0.9535523653030396, 0.06525862962007523, -0.4619383897229204, 0.6381100625681597, -6.9856239472354265, 9362.0, 30146.0, 35388.0, 9362.0, 8.370248794555664, 0.00469841668382287, -0.03995706886053085, -0.23096594214439392, 0.010689734481275082, -0.062042806297540665, 0.9984973073005676, -0.08673322200775146, -0.18295860290527344, 1.48095703125, 1.540283203125, 0.280364990234375, 1.48681640625, 1.64501953125, 10.0, 1.4587657451629639, 1.5, 1.4587657451629639
18360, 0.7812805771827698, 0.12042934447526932, -2.7963979244232178, -0.04708853363990784, -0.17839832603931427, -4.1357574462890625, -0.05459735542535782, -0.2172420173883438, -0.48036426305770874, -0.7909145951271057, -0.9535054564476013, 0.06522523611783981, -0.4601056105742429, 0.6331535537325124, -6.993450544794555, 9362.0, 30146.0, 35388.0, 9362.0, 8.370248794555664, 0.20723144710063934, -0.02295958623290062, -0.010918485932052135, 0.012094189412891865, -0.06347671151161194, 0.9966997504234314, -0.07730318605899811, 0.023120880126953125, 1.497802734375, 1.540283203125, 0.280364990234375, 1.49267578125, 1.64501953125, 10.0, 1.459659457206726, 1.5, 1.459659457206726
18370, 0.7812958359718323, 0.11856468766927719, -2.797175407409668, -0.050412870943546295, -0.1916714757680893, -4.164616107940674, -0.05621717870235443, -0.2251906841993332, -0.48169293999671936, -0.7908984422683716, -0.9535454511642456, 0.06523875892162323, -0.46029446967024873, 0.652866957270561, -6.980998300902792, 9362.0, 30146.0, 35388.0, 9362.0, 8.370248794555664, 0.04257417842745781, 0.1920153796672821, 0.14042039215564728, 0.012914891354739666, -0.06282131373882294, 0.9960634112358093, -0.07730318605899811, 0.023120880126953125, 1.497802734375, 1.540283203125, 0.280364990234375, 1.49267578125, 1.572509765625, 10.0, 1.4599311351776123, 1.5, 1.4599311351776123
18380, 0.7814721465110779, 0.11738427728414536, -2.7967288494110107, -0.05097639560699463, -0.193929985165596, -4.169434547424316, -0.05648757517337799, -0.22651264071464539, -0.4820002019405365, -0.7908949851989746, -0.9535498023033142, 0.06526919454336166, -0.4621545346539881, 0.6449819391177698, -6.9817155274323355, 9362.0, 30146.0, 35388.0, 9362.0, 8.370248794555664, 0.16087526082992554, 0.3023454248905182, 0.014600097201764584, 0.011290688067674637, -0.06278485059738159, 0.9966232180595398, -0.07730318605899811, 0.023120880126953125, 1.497802734375, 1.540283203125, 0.280364990234375, 1.49267578125, 1.590087890625, 10.0, 1.4602359533309937, 1.5, 1.4602359533309937
18390, 0.782638669013977, 0.11598506569862366, -2.796929121017456, -0.05097639560699463, -0.193929985165596, -4.169434547424316, -0.05648757517337799, -0.22651264071464539, -0.4820002019405365, -0.7908928990364075, -0.9535397291183472, 0.06525649130344391, -0.4570292718017373, 0.642826887041025, -6.980874573179445, 9362.0, 30146.0, 35388.0, 9362.0, 8.370248794555664, 0.023337962105870247, 0.0741613581776619, 0.034811221063137054, 0.009105045348405838, -0.06514140963554382, 0.9989956021308899, -0.07730318605899811, 0.023120880126953125, 1.497802734375, 1.540283203125, 0.280364990234375, 1.49267578125, 1.590087890625, 10.0, 1.4596489667892456, 1.5, 1.4596489667892456
