timeTick, roll, pitch, yaw, stateX, stateY, stateZ, stateVX, stateVY, stateVZ, otX0, otY0, otZ0, otRoll0, otPitch0, otYaw0, left wing, pitch motor, yaw motor, right wing, voltage, roll rate, pitch rate, yaw rate, A_x, A_y, A_z, current, i_raw, v_raw, airflow_voltage, airflow_speed, pot_Pitch, voltage_nKF, kFFx, volt_KF_vel, kP, volt_KF_pos
26268, -0.43463265895843506, 0.3307046890258789, 1.1725044250488281, 0, 0, 0, 0, 0, 0, -0.7870088815689087, -0.9655272960662842, 0.06244392320513725, -0.4798423175044625, 0.27630125508224523, -2.6071479848212795, 0, 0, 0, 0, 0, 0, 0, 0, 0, 0, 0, 0, 0, 0, 0, 0, 0, 0, 0, 0, 0, 0
26278, -0.4325551390647888, 0.3300306797027588, 1.1737291812896729, 5.737260835303459e-07, -8.036745384742972e-07, -1.8538849353790283, -0.0008457654039375484, 0.0010708665940910578, -0.15101824700832367, -0.7870191931724548, -0.9655218124389648, 0.062441591173410416, -0.47371167675094744, 0.2660480032470218, -2.6027491677188994, 9362.0, 30146.0, 35388.0, 9362.0, 0, 0.11852410435676575, -0.23385529220104218, 0.0013767204945906997, 0.004308172035962343, -0.06010492518544197, 0.9991961121559143, 0, 0, 0, 0, 0, 0, 0, 0, 0, 0, 0
26288, -0.43139272928237915, 0.33302339911460876, 1.1738040447235107, -1.0784633559524082e-05, 1.3559687431552447e-05, -1.8553961515426636, -0.0014259244780987501, 0.001801800332032144, -0.15122002363204956, -0.7870134115219116, -0.965510904788971, 0.06245025619864464, -0.4861280399844232, 0.2840765989876104, -2.5982773002921093, 9362.0, 30146.0, 35388.0, 9362.0, 0, -0.057108424603939056, -0.03594696894288063, 0.06676558405160904, 0.002607550472021103, -0.06158459559082985, 0.9993549585342407, 0, 0, 0, 1.273681640625, 0.0975494384765625, 0, 1.45751953125, 10.0, 1.414618730545044, 1.5, 1.414618730545044
26298, -0.4312651753425598, 0.33413276076316833, 1.1735508441925049, -2.79431369563099e-05, 3.522047336446121e-05, -1.8569085597991943, -0.0020057749934494495, 0.0025303561706095934, -0.15126633644104004, -0.7870174050331116, -0.9655277132987976, 0.06244724243879318, -0.4785923442533674, 0.2765174087653861, -2.6024204120264804, 9362.0, 30146.0, 35388.0, 9362.0, 0, 0.16434720158576965, 0.330781489610672, -0.0986785963177681, 0.004481929820030928, -0.062221843749284744, 0.9986956715583801, 0, 0, 0, 1.34326171875, 0.01605224609375, 1.489013671875, 1.45751953125, 10.0, 1.4147541522979736, 1.5, 1.4147541522979736
26308, -0.43114110827445984, 0.33130353689193726, 1.172875165939331, -5.0923179514938965e-05, 6.415339885279536e-05, -1.858421802520752, -0.0025902281049638987, 0.003256232477724552, -0.15139208734035492, -0.7870162725448608, -0.965509295463562, 0.062435150146484375, -0.475775912919823, 0.27466771551755187, -2.5986825587553652, 9362.0, 30146.0, 35388.0, 9362.0, 0, 0.037408407777547836, -0.032827068120241165, -0.1691090315580368, 0.0035525679122656584, -0.06180702894926071, 0.999016284942627, 0, 0, 0, 1.33447265625, 0.0186309814453125, 1.489013671875, 1.452392578125, 10.0, 1.4148730039596558, 1.5, 1.4148730039596558
26318, -0.4306170642375946, 0.3298023045063019, 1.1729154586791992, -7.975791959324852e-05, 0.00010034471051767468, -1.859936237335205, -0.0031767156906425953, 0.0039820363745093346, -0.15149375796318054, -0.787018358707428, -0.9655232429504395, 0.062412623316049576, -0.4737703123272317, 0.27408554524203055, -2.5938968085318157, 9362.0, 30146.0, 35388.0, 9362.0, 0, 0.03265731409192085, -0.1991238296031952, -0.09705492854118347, 0.004125811159610748, -0.059790365397930145, 0.9993234872817993, 0, 0, 0, 1.40478515625, 0.0446624755859375, 1.489013671875, 1.239990234375, 10.0, 1.4143208265304565, 1.5, 1.4143208265304565
26328, -0.429962694644928, 0.3306245803833008, 1.172730803489685, -0.00011443371477071196, 0.0001437940663890913, -1.8614516258239746, -0.0037584456149488688, 0.004707835614681244, -0.1515807807445526, -0.787004292011261, -0.9655099511146545, 0.06243755668401718, -0.4699263846519276, 0.2776210050847112, -2.600856032019214, 9362.0, 30146.0, 35388.0, 9362.0, 0, 0.0945957824587822, 0.13334690034389496, -0.004580146167427301, 0.0029713702388107777, -0.060025058686733246, 0.9992212057113647, 0, 0, 0, 1.46630859375, 0.132171630859375, 1.489013671875, 1.304443359375, 10.0, 1.4139739274978638, 1.5, 1.4139739274978638
26338, -0.43024325370788574, 0.3298569917678833, 1.1725850105285645, -0.0001549139997223392, 0.00019449734827503562, -1.862967848777771, -0.004337610211223364, 0.005432824604213238, -0.1516636610031128, -0.7870041131973267, -0.9655032157897949, 0.062426526099443436, -0.4728163016659203, 0.2752927460156229, -2.611195292532018, 9362.0, 30146.0, 35388.0, 9362.0, 0, -0.035607341676950455, 0.26926684379577637, 0.30864250659942627, 0.0021985741332173347, -0.06044590845704079, 0.9978076219558716, 0, 0, 0, 1.518310546875, 0.2331390380859375, 1.4912109375, 1.44140625, 10.0, 1.4140605926513672, 1.5, 1.4140605926513672
26348, -0.4309230148792267, 0.3276293873786926, 1.1751140356063843, -0.00020119096734561026, 0.00025244246353395283, -1.864485263824463, -0.0049177841283380985, 0.006156198680400848, -0.15180952847003937, -0.7870156764984131, -0.9655166864395142, 0.06244335696101189, -0.4761646893696652, 0.27880484753026735, -2.60014642303231, 9362.0, 30146.0, 35388.0, 9362.0, 0, -0.09391804784536362, -0.10353218019008636, -0.23037481307983398, 0.0017455177148804069, -0.060462791472673416, 0.9975720047950745, 0, 0, 0, 1.434814453125, 0.081787109375, 1.4912109375, 1.294189453125, 10.0, 1.4136821031570435, 1.5, 1.4136821031570435
26358, -0.4316321313381195, 0.32845476269721985, 1.1746189594268799, -0.0002532604557927698, 0.00031762049184180796, -1.8660045862197876, -0.005496155936270952, 0.00687937717884779, -0.15204671025276184, -0.7870182394981384, -0.9655038118362427, 0.06245735287666321, -0.4690481662949795, 0.28375349428901586, -2.5988772647387837, 9362.0, 30146.0, 35388.0, 9362.0, 0, -0.18261782824993134, -0.2197912633419037, 0.21026375889778137, 0.003008580766618252, -0.06284933537244797, 0.9962365031242371, 0, 0, 0, 1.377685546875, 0.023040771484375, 1.491943359375, 1.48388671875, 10.0, 1.413903832435608, 1.5, 1.413903832435608
26368, -0.4330083131790161, 0.3282719552516937, 1.1753711700439453, -0.0003110948600806296, 0.0003900362644344568, -1.8675262928009033, -0.006070716772228479, 0.007603784557431936, -0.1522861123085022, -0.7870125770568848, -0.9655184745788574, 0.062447477132081985, -0.46802662759535396, 0.27631787658665985, -2.606669888932343, 9362.0, 30146.0, 35388.0, 9362.0, 8.390083312988281, -0.0755905956029892, 0.1647976189851761, 0.10065189003944397, 0.004016273654997349, -0.062365736812353134, 0.9977515339851379, -0.0591304637491703, -0.05751800537109375, 1.4912109375, 1.318359375, 0.028656005859375, 1.491943359375, 1.453857421875, 10.0, 1.4140299558639526, 1.5, 1.4140299558639526
26378, -0.4327852725982666, 0.3284417688846588, 1.1755050420761108, -0.00037467831862159073, 0.00046969743561930954, -1.8690509796142578, -0.006645989138633013, 0.008328431285917759, -0.15265049040317535, -0.7870150208473206, -0.9655147790908813, 0.06243574619293213, -0.47322720349659364, 0.2763489263376755, -2.5966134829176575, 9362.0, 30146.0, 35388.0, 9362.0, 8.390083312988281, -0.002489909064024687, 0.3583235740661621, -0.022141598165035248, 0.002859849948436022, -0.06114646792411804, 0.9986962676048279, -0.0591304637491703, -0.05751800537109375, 1.4912109375, 1.434814453125, 0.081787109375, 1.491943359375, 1.4677734375, 10.0, 1.414199709892273, 1.5, 1.414199709892273
26388, -0.43288323283195496, 0.3271844983100891, 1.1742609739303589, -0.00044401868944987655, 0.0005566236795857549, -1.870578408241272, -0.007222088519483805, 0.009056821465492249, -0.15282954275608063, -0.7870129346847534, -0.9655107855796814, 0.06245020031929016, -0.46893908549276003, 0.27063869433698073, -2.60968822999647, 9362.0, 30146.0, 35388.0, 9362.0, 8.390083312988281, 0.12161149084568024, 0.23940034210681915, 0.07559680938720703, 0.0040864115580916405, -0.0595560222864151, 0.9996733069419861, -0.0591304637491703, -0.05751800537109375, 1.4912109375, 1.40625, 0.04620361328125, 1.491943359375, 1.364501953125, 10.0, 1.4140428304672241, 1.5, 1.4140428304672241
26398, -0.43266403675079346, 0.3267167806625366, 1.1749486923217773, -0.0005191236268728971, 0.0006508345250040293, -1.8721072673797607, -0.007798880338668823, 0.009785366244614124, -0.15293675661087036, -0.7870127558708191, -0.9655053019523621, 0.062448229640722275, -0.47085268682241016, 0.276853066282996, -2.600407970303858, 9362.0, 30146.0, 35388.0, 9362.0, 8.390083312988281, -0.012035316787660122, 0.14989595115184784, 0.018499018624424934, 0.005096743814647198, -0.05885900557041168, 0.999334454536438, -0.0591304637491703, -0.05751800537109375, 1.4912109375, 1.503662109375, 0.2029876708984375, 1.48974609375, 1.471435546875, 10.0, 1.4142240285873413, 1.5, 1.4142240285873413
26408, -0.43179851770401, 0.3233923614025116, 1.176086187362671, -0.0005999874556437135, 0.0007523343083448708, -1.8736368417739868, -0.00837390124797821, 0.010514587163925171, -0.1529809683561325, -0.7870281338691711, -0.9655157923698425, 0.06241529807448387, -0.4693530089338034, 0.27886376888943687, -2.6078977280476545, 9362.0, 30146.0, 35388.0, 9362.0, 8.390083312988281, -0.082022525370121, 0.5259563326835632, 0.37076616287231445, 0.003462977474555373, -0.06113297492265701, 0.9974088668823242, -0.0591304637491703, -0.05751800537109375, 1.4912109375, 1.515380859375, 0.2270050048828125, 1.48974609375, 1.3154296875, 10.0, 1.413912057876587, 1.5, 1.413912057876587
26418, -0.431051105260849, 0.32337823510169983, 1.1780178546905518, -0.0006865950999781489, 0.0008611213997937739, -1.8751672506332397, -0.008947649039328098, 0.011242820881307125, -0.1531085968017578, -0.7870128154754639, -0.9655121564865112, 0.062439970672130585, -0.4772227645394935, 0.27924476020228894, -2.6153357368444037, 9362.0, 30146.0, 35388.0, 9362.0, 8.390083312988281, 0.24769839644432068, -0.09927541762590408, -0.3886328339576721, 0.0025784922763705254, -0.06104357913136482, 0.9988495111465454, -0.0591304637491703, -0.05751800537109375, 1.4912109375, 1.5029296875, 0.201446533203125, 1.490478515625, 1.379150390625, 10.0, 1.4138022661209106, 1.5, 1.4138022661209106
26428, -0.43078166246414185, 0.3242456912994385, 1.1780343055725098, -0.000778908550273627, 0.0009771798504516482, -1.8766995668411255, -0.009515062905848026, 0.011968856677412987, -0.1533457636833191, -0.7870243787765503, -0.9655115008354187, 0.06241714581847191, -0.47709448251299585, 0.2882566400639064, -2.605488878074654, 9362.0, 30146.0, 35388.0, 9362.0, 8.390083312988281, -0.034197837114334106, 0.11096515506505966, -0.057864028960466385, 0.001749237533658743, -0.06212567910552025, 0.9969061017036438, -0.0591304637491703, -0.05751800537109375, 1.4912109375, 1.34033203125, 0.0166168212890625, 1.490478515625, 1.34326171875, 10.0, 1.4135795831680298, 1.5, 1.4135795831680298
26438, -0.4309658706188202, 0.324797660112381, 1.1774951219558716, -0.0008768972475081682, 0.0011004938278347254, -1.8782340288162231, -0.010082668624818325, 0.012693929485976696, -0.15354081988334656, -0.7870145440101624, -0.965503454208374, 0.062432873994112015, -0.47626030692152715, 0.2761048788330527, -2.6145895541370874, 9362.0, 30146.0, 35388.0, 9362.0, 8.390083312988281, -0.13821274042129517, -0.3820682168006897, 0.036749325692653656, 0.004382755141705275, -0.061420612037181854, 0.9964213371276855, -0.0591304637491703, -0.05751800537109375, 1.4912109375, 1.458251953125, 0.1184234619140625, 1.4912109375, 1.279541015625, 10.0, 1.4131563901901245, 1.5, 1.4131563901901245
26448, -0.43080058693885803, 0.32636117935180664, 1.1779849529266357, -0.0009805645095184445, 0.0012310498859733343, -1.8797712326049805, -0.01065076980739832, 0.013417277485132217, -0.15390262007713318, -0.7870283126831055, -0.9655202031135559, 0.06243601068854332, -0.47262138923003955, 0.28330338294057356, -2.5972943008123726, 9362.0, 30146.0, 35388.0, 9362.0, 8.390083312988281, -0.12340819090604782, -0.3884950280189514, -0.21044977009296417, 0.005012407898902893, -0.06065613776445389, 0.998496949672699, -0.0591304637491703, -0.05751800537109375, 1.4912109375, 1.496337890625, 0.1883087158203125, 1.4912109375, 1.4970703125, 10.0, 1.413421392440796, 1.5, 1.413421392440796
26458, -0.430196613073349, 0.3284781575202942, 1.1769744157791138, -0.0010899185435846448, 0.0013688423205167055, -1.8813118934631348, -0.011220038868486881, 0.014141201041638851, -0.15422683954238892, -0.7870217561721802, -0.9654987454414368, 0.06244035065174103, -0.4839358087655751, 0.27748520612172456, -2.6050791134675437, 9362.0, 30146.0, 35388.0, 9362.0, 8.390083312988281, -0.10295179486274719, 0.1412927508354187, 0.19572411477565765, 0.003862714860588312, -0.06248723343014717, 0.9980142116546631, -0.0591304637491703, -0.05751800537109375, 1.4912109375, 1.409912109375, 0.0501251220703125, 1.490478515625, 1.341796875, 10.0, 1.413195252418518, 1.5, 1.413195252418518
26468, -0.4306657314300537, 0.32893407344818115, 1.177243709564209, -0.0012049832148477435, 0.0015138781163841486, -1.8828550577163696, -0.01179287675768137, 0.014865953475236893, -0.1543944776058197, -0.7870116829872131, -0.9655040502548218, 0.062405481934547424, -0.4753219490761533, 0.2825445398265458, -2.604489622558384, 9362.0, 30146.0, 35388.0, 9362.0, 8.390083312988281, 0.005872433073818684, -0.097490593791008, -0.3136428892612457, 0.0036890660412609577, -0.06343813240528107, 1.000100016593933, -0.05012734606862068, -0.06647872924804688, 1.490478515625, 1.45166015625, 0.107452392578125, 1.490478515625, 1.50439453125, 10.0, 1.4134832620620728, 1.5, 1.4134832620620728
26478, -0.43039020895957947, 0.3295421600341797, 1.1745985746383667, -0.0013257956597954035, 0.0016661578556522727, -1.8843995332717896, -0.012369625270366669, 0.015589981339871883, -0.15450988709926605, -0.7870193123817444, -0.9655088782310486, 0.06245673447847366, -0.47153189932447287, 0.273185097530245, -2.606223091460353, 9362.0, 30146.0, 35388.0, 9362.0, 8.390083312988281, 0.07444372028112411, -0.40766915678977966, 0.03520062938332558, 0.0027940135914832354, -0.061874985694885254, 0.9999327659606934, -0.05012734606862068, -0.06647872924804688, 1.490478515625, 1.241455078125, 0.192626953125, 1.48974609375, 1.345458984375, 10.0, 1.4132684469223022, 1.5, 1.4132684469223022
26488, -0.43078628182411194, 0.3331315815448761, 1.1753462553024292, -0.0014523824211210012, 0.0018256852636113763, -1.8859447240829468, -0.012947693467140198, 0.01631551794707775, -0.15453127026557922, -0.7870234251022339, -0.9655128717422485, 0.062429770827293396, -0.47005050507091206, 0.2729232345782009, -2.601258141077865, 9362.0, 30146.0, 35388.0, 9362.0, 8.390083312988281, -0.029519373551011086, -0.17853814363479614, -0.21284545958042145, 0.0033223289065063, -0.062240585684776306, 0.9980911016464233, -0.05012734606862068, -0.06647872924804688, 1.490478515625, 1.423828125, 0.066802978515625, 1.48974609375, 1.48095703125, 10.0, 1.4134821891784668, 1.5, 1.4134821891784668
26498, -0.43189316987991333, 0.33189857006073, 1.1750410795211792, -0.0015847545582801104, 0.0019924654625356197, -1.887490153312683, -0.013526752591133118, 0.017040498554706573, -0.15456049144268036, -0.7870165705680847, -0.965516209602356, 0.06245693564414978, -0.47622867858184703, 0.27701768825531303, -2.5952995261513596, 9362.0, 30146.0, 35388.0, 9362.0, 8.390083312988281, 0.04373547434806824, 0.33108991384506226, -0.11131799221038818, 0.003699811175465584, -0.0595029778778553, 0.9987261295318604, -0.05012734606862068, -0.06647872924804688, 1.490478515625, 1.477294921875, 0.1519775390625, 1.494140625, 1.462646484375, 10.0, 1.413637399673462, 1.5, 1.413637399673462
26508, -0.43319153785705566, 0.33149707317352295, 1.1734470129013062, -0.001722943503409624, 0.002166492398828268, -1.8890366554260254, -0.014111035503447056, 0.017764868214726448, -0.1547464281320572, -0.787021815776825, -0.9655113220214844, 0.06243397295475006, -0.478016459928911, 0.2812454908595612, -2.6026700614168194, 9362.0, 30146.0, 35388.0, 9362.0, 8.390083312988281, 0.012245116755366325, 0.13230423629283905, 0.28112491965293884, 0.004226974211633205, -0.06107097864151001, 0.9995724558830261, -0.05012734606862068, -0.06647872924804688, 1.490478515625, 1.46044921875, 0.12200927734375, 1.494140625, 1.482421875, 10.0, 1.4138545989990234, 1.5, 1.4138545989990234
26518, -0.43385472893714905, 0.33118754625320435, 1.176802635192871, -0.0018669678829610348, 0.002347776433452964, -1.8905845880508423, -0.014693834818899632, 0.018491951748728752, -0.15483057498931885, -0.7870182991027832, -0.9655261635780334, 0.06245463341474533, -0.472848185090576, 0.2824698740784868, -2.6090617078120166, 9362.0, 30146.0, 35388.0, 9362.0, 8.390083312988281, 0.018733400851488113, -0.08718404918909073, 0.30892521142959595, 0.0032904651015996933, -0.059460047632455826, 0.9996044635772705, -0.05012734606862068, -0.06647872924804688, 1.490478515625, 1.257568359375, 0.1398162841796875, 1.48828125, 1.345458984375, 10.0, 1.4136385917663574, 1.5, 1.4136385917663574
26528, -0.4333029091358185, 0.3332541286945343, 1.1775709390640259, -0.002016817918047309, 0.0025363434106111526, -1.8921332359313965, -0.015276194550096989, 0.019221432507038116, -0.15488708019256592, -0.7870672345161438, -0.9654994010925293, 0.06239137798547745, -0.49093993238413475, 0.31629759677747415, -2.5986089996147093, 9362.0, 30146.0, 35388.0, 9362.0, 8.390083312988281, 0.13391676545143127, -0.1563948094844818, -0.17785687744617462, 0.003225478110834956, -0.059415727853775024, 0.997955322265625, -0.05012734606862068, -0.06647872924804688, 1.490478515625, 1.365234375, 0.0175933837890625, 1.48828125, 1.470703125, 10.0, 1.4138187170028687, 1.5, 1.4138187170028687
26538, -0.43422240018844604, 0.3328150510787964, 1.1777747869491577, -0.002172487787902355, 0.002732209162786603, -1.893682599067688, -0.015857789665460587, 0.019951725378632545, -0.15498824417591095, -0.7870509028434753, -0.9655088782310486, 0.062378495931625366, -0.46050630349523186, 0.3089048226296427, -2.584365583324865, 9362.0, 30146.0, 35388.0, 9362.0, 8.390083312988281, 0.16239610314369202, 0.12487443536520004, 0.13086099922657013, 0.0035942241083830595, -0.0617302767932415, 0.9997007250785828, -0.05012734606862068, -0.06647872924804688, 1.490478515625, 1.46484375, 0.1295928955078125, 1.489013671875, 1.461181640625, 10.0, 1.4139683246612549, 1.5, 1.4139683246612549
26548, -0.4331071078777313, 0.33290937542915344, 1.1773955821990967, -0.0023339898325502872, 0.0029353711288422346, -1.895233154296875, -0.016442643478512764, 0.020680667832493782, -0.1551341414451599, -0.7870752811431885, -0.9655207395553589, 0.062390781939029694, -0.46994195435814196, 0.3104736716632033, -2.5990200554744347, 9362.0, 30146.0, 35388.0, 9362.0, 8.390083312988281, -0.07240834087133408, 0.09416840225458145, 0.29601627588272095, 0.001585272722877562, -0.062132321298122406, 0.9993939399719238, -0.05012734606862068, -0.06647872924804688, 1.490478515625, 1.489013671875, 0.174041748046875, 1.489013671875, 1.43701171875, 10.0, 1.4140410423278809, 1.5, 1.4140410423278809
26558, -0.4334680736064911, 0.33327069878578186, 1.1772526502609253, -0.002501340117305517, 0.003145834431052208, -1.8967846632003784, -0.01702740788459778, 0.021411994472146034, -0.15517325699329376, -0.7870544791221619, -0.9655260443687439, 0.062426745891571045, -0.4750857704748445, 0.2980357373198217, -2.5959578233964624, 9362.0, 30146.0, 35388.0, 9362.0, 8.390083312988281, -0.12496012449264526, 0.028615547344088554, -0.16303996741771698, 0.0030874013900756836, -0.06059694662690163, 0.9963542222976685, -0.05012734606862068, -0.06647872924804688, 1.490478515625, 1.338134765625, 0.01727294921875, 1.491943359375, 1.396728515625, 10.0, 1.413986325263977, 1.5, 1.413986325263977
26568, -0.4336903691291809, 0.3325078785419464, 1.17717707157135, -0.0026745342183858156, 0.003363595809787512, -1.8983373641967773, -0.017611395567655563, 0.022140298038721085, -0.1553623527288437, -0.7870575189590454, -0.9655057787895203, 0.06239607185125351, -0.4708403072936731, 0.3018403922777395, -2.5980320741866105, 9362.0, 30146.0, 35388.0, 9362.0, 8.390083312988281, -0.024476638063788414, 0.22859957814216614, 0.14586451649665833, 0.002481291303411126, -0.05923670902848244, 0.9962583780288696, -0.06914412975311279, -0.07543754577636719, 1.48974609375, 1.46923828125, 0.137359619140625, 1.491943359375, 1.292724609375, 10.0, 1.41360342502594, 1.5, 1.41360342502594
26578, -0.43413394689559937, 0.33077123761177063, 1.1777772903442383, -0.0028535646852105856, 0.0035886350087821484, -1.899893045425415, -0.018194695934653282, 0.02286754921078682, -0.15577299892902374, -0.7870580554008484, -0.9655343294143677, 0.062419816851615906, -0.4657467689658729, 0.30073181786414693, -2.595198364663843, 9362.0, 30146.0, 35388.0, 9362.0, 8.390083312988281, 0.17166371643543243, 0.323201060295105, 0.23790691792964935, 0.003866280661895871, -0.06028332561254501, 0.9985081553459167, -0.06914412975311279, -0.07543754577636719, 1.48974609375, 1.4736328125, 0.1452178955078125, 1.49560546875, 1.47802734375, 10.0, 1.4138067960739136, 1.5, 1.4138067960739136
26588, -0.434487521648407, 0.33099764585494995, 1.178680181503296, -0.003038424998521805, 0.003820952959358692, -1.9014523029327393, -0.018777379766106606, 0.023596035316586494, -0.15607233345508575, -0.7870701551437378, -0.9655360579490662, 0.062408238649368286, -0.47169813885914996, 0.3084072420676307, -2.59824693617037, 9362.0, 30146.0, 35388.0, 9362.0, 8.390083312988281, -0.2601873278617859, -0.15220770239830017, 0.03307448327541351, 0.002484964206814766, -0.06140859052538872, 0.9972442984580994, -0.06914412975311279, -0.07543754577636719, 1.48974609375, 1.518310546875, 0.2331390380859375, 1.49560546875, 1.442138671875, 10.0, 1.4138962030410767, 1.5, 1.4138962030410767
26598, -0.4349271357059479, 0.3325679898262024, 1.178283452987671, -0.0032291014213114977, 0.004060565028339624, -1.903013825416565, -0.01935793086886406, 0.024326354265213013, -0.1562342643737793, -0.7870654463768005, -0.9655238389968872, 0.0624181292951107, -0.473880081997801, 0.31066132241596733, -2.599348425216048, 9362.0, 30146.0, 35388.0, 9362.0, 8.390083312988281, -0.0842432826757431, -0.11899592727422714, 0.032515544444322586, 0.003085816977545619, -0.061858173459768295, 0.9993684887886047, -0.06914412975311279, -0.07543754577636719, 1.48974609375, 1.48095703125, 0.1587677001953125, 1.493408203125, 1.46337890625, 10.0, 1.4140524864196777, 1.5, 1.4140524864196777
26608, -0.4361688792705536, 0.33190232515335083, 1.1796295642852783, -0.003425582544878125, 0.004307479597628117, -1.9045774936676025, -0.019938290119171143, 0.025056539103388786, -0.1564941257238388, -0.7870676517486572, -0.9655139446258545, 0.06242125481367111, -0.4747710448665611, 0.30730705074122966, -2.5970642143982827, 9362.0, 30146.0, 35388.0, 9362.0, 8.390083312988281, -0.06887505948543549, -0.1494741290807724, -0.023017505183815956, 0.002755541354417801, -0.061434146016836166, 1.0021029710769653, -0.06914412975311279, -0.07543754577636719, 1.48974609375, 1.496337890625, 0.1883087158203125, 1.493408203125, 1.5205078125, 10.0, 1.414388656616211, 1.5, 1.414388656616211
26618, -0.4360410273075104, 0.3323303461074829, 1.179795742034912, -0.0036278902553021908, 0.004561711102724075, -1.9061421155929565, -0.020523250102996826, 0.025789771229028702, -0.1564382016658783, -0.7870493531227112, -0.965492844581604, 0.06236729770898819, -0.476544798416397, 0.3179686198486138, -2.6113123997200383, 9362.0, 30146.0, 35388.0, 9362.0, 8.390083312988281, -0.1272347867488861, -0.09132912009954453, -0.12428798526525497, 0.00258901109918952, -0.059599000960588455, 0.9979679584503174, -0.06914412975311279, -0.07543754577636719, 1.48974609375, 1.4384765625, 0.0871429443359375, 1.48974609375, 1.3125, 10.0, 1.4140669107437134, 1.5, 1.4140669107437134
26628, -0.43651092052459717, 0.3327568769454956, 1.1784693002700806, -0.0038360431790351868, 0.004823287017643452, -1.9077060222625732, -0.021107323467731476, 0.026525406166911125, -0.15634813904762268, -0.7870764136314392, -0.9655190110206604, 0.062362488359212875, -0.4805255975976593, 0.3204628489658319, -2.6143856504339738, 9362.0, 30146.0, 35388.0, 9362.0, 8.390083312988281, 0.19090218842029572, 0.42847710847854614, -0.11793960630893707, 0.003372068516910076, -0.060671962797641754, 0.9972679615020752, -0.06914412975311279, -0.07543754577636719, 1.48974609375, 1.465576171875, 0.130889892578125, 1.48974609375, 1.37548828125, 10.0, 1.4139450788497925, 1.5, 1.4139450788497925
26638, -0.4369409680366516, 0.3302885890007019, 1.1773053407669067, -0.004050031304359436, 0.005092206876724958, -1.9092705249786377, -0.02169029973447323, 0.02725854702293873, -0.1565612256526947, -0.7871068716049194, -0.9655117392539978, 0.06228257715702057, -0.4789312844105357, 0.2939633301283777, -2.590892509968427, 9362.0, 30146.0, 35388.0, 9362.0, 8.390083312988281, 0.015776481479406357, -0.27182430028915405, 0.1314302384853363, 0.003372068516910076, -0.060671962797641754, 0.9972679615020752, -0.06914412975311279, -0.07543754577636719, 1.48974609375, 1.481689453125, 0.1600799560546875, 1.494140625, 1.359375, 10.0, 1.4137728214263916, 1.5, 1.4137728214263916
26648, -0.4359520971775055, 0.33008551597595215, 1.1797713041305542, -0.004050031304359436, 0.005092206876724958, -1.9092705249786377, -0.02169029973447323, 0.02725854702293873, -0.1565612256526947, -0.7871120572090149, -0.9655027985572815, 0.062299519777297974, -0.48250251117829157, 0.3021437467155863, -2.5926436073713077, 9362.0, 30146.0, 35388.0, 9362.0, 8.390083312988281, -0.27671608328819275, 0.5530052185058594, 0.1417556256055832, 0.003372068516910076, -0.060671962797641754, 0.9972679615020752, -0.06914412975311279, -0.07543754577636719, 1.48974609375, 1.481689453125, 0.1600799560546875, 1.494140625, 1.359375, 10.0, 1.4137728214263916, 1.5, 1.4137728214263916
26658, -0.43753352761268616, 0.3267212510108948, 1.180254340171814, -0.004050031304359436, 0.005092206876724958, -1.9092705249786377, -0.02169029973447323, 0.02725854702293873, -0.1565612256526947, -0.7871088981628418, -0.965522289276123, 0.06231895461678505, -0.48643497883543296, 0.29834926276907936, -2.5929094571417517, 9362.0, 30146.0, 35388.0, 9362.0, 8.390083312988281, -0.12608516216278076, -0.188478484749794, 0.09435819089412689, 0.003372068516910076, -0.060671962797641754, 0.9972679615020752, -0.06914412975311279, -0.07543754577636719, 1.48974609375, 1.481689453125, 0.1600799560546875, 1.494140625, 1.374755859375, 10.0, 1.413559079170227, 1.5, 1.413559079170227
26668, -0.4375472962856293, 0.3275504410266876, 1.1815582513809204, -0.004050031304359436, 0.005092206876724958, -1.9092705249786377, -0.02169029973447323, 0.02725854702293873, -0.1565612256526947, -0.7871005535125732, -0.9655140042304993, 0.06233334541320801, -0.4852266434310765, 0.30163721288636225, -2.594146572167886, 9362.0, 30146.0, 35388.0, 9362.0, 8.390083312988281, -0.12608516216278076, -0.188478484749794, 0.09435819089412689, 0.003383348695933819, -0.06051084026694298, 0.997674822807312, -0.06914412975311279, -0.07543754577636719, 1.48974609375, 1.481689453125, 0.1600799560546875, 1.494140625, 1.45751953125, 10.0, 1.413559079170227, 1.5, 1.413559079170227
26678, -0.43725070357322693, 0.3304293155670166, 1.180155873298645, -0.004050031304359436, 0.005092206876724958, -1.9092705249786377, -0.02169029973447323, 0.02725854702293873, -0.1565612256526947, -0.7871092557907104, -0.965509295463562, 0.062298733741045, -0.4843240646213659, 0.3004117570515632, -2.591843609488629, 9362.0, 30146.0, 35388.0, 9362.0, 8.390083312988281, -0.09342759102582932, -0.04939212277531624, 0.018108420073986053, 0.003383348695933819, -0.06051084026694298, 0.997674822807312, -0.06914412975311279, -0.07543754577636719, 1.48974609375, 1.481689453125, 0.1600799560546875, 1.494140625, 1.509521484375, 10.0, 1.414000391960144, 1.5, 1.414000391960144
26698, -0.4388209581375122, 0.3304036855697632, 1.1771526336669922, -0.004050031304359436, 0.005092206876724958, -1.9092705249786377, -0.02169029973447323, 0.02725854702293873, -0.1565612256526947, -0.7871035933494568, -0.9655015468597412, 0.06232647970318794, -0.49021849950834007, 0.3026949803731611, -2.597378950743819, 9362.0, 30146.0, 35388.0, 9362.0, 8.390083312988281, -0.09342759102582932, -0.04939212277531624, 0.018108420073986053, 0.0035807916428893805, -0.05922238156199455, 1.0004645586013794, -0.06914412975311279, -0.07543754577636719, 1.48974609375, 1.247314453125, 0.172119140625, 1.494140625, 1.506591796875, 10.0, 1.414540410041809, 1.5, 1.414540410041809
26708, -0.4383958876132965, 0.33279556035995483, 1.1779342889785767, -0.004050031304359436, 0.005092206876724958, -1.9092705249786377, -0.02169029973447323, 0.02725854702293873, -0.1565612256526947, -0.7871090173721313, -0.9655181169509888, 0.06229713559150696, -0.4868344814618022, 0.3038323053803822, -2.5909678974517694, 9362.0, 30146.0, 35388.0, 9362.0, 8.390083312988281, -0.09342759102582932, -0.04939212277531624, 0.018108420073986053, 0.0034600719809532166, -0.06019461527466774, 1.0006828308105469, -0.06914412975311279, -0.07543754577636719, 1.48974609375, 1.247314453125, 0.172119140625, 1.494140625, 1.4912109375, 10.0, 1.414540410041809, 1.5, 1.414540410041809
26718, -0.43737590312957764, 0.33284083008766174, 1.1789085865020752, -0.004050031304359436, 0.005092206876724958, -1.9092705249786377, -0.02169029973447323, 0.02725854702293873, -0.1565612256526947, -0.7870972752571106, -0.9655091166496277, 0.06232094764709473, -0.4873114818906336, 0.294161895676865, -2.587550022499861, 9362.0, 30146.0, 35388.0, 9362.0, 8.390083312988281, -0.09342759102582932, -0.04939212277531624, 0.018108420073986053, 0.004000323824584484, -0.06166309118270874, 0.9984931349754333, -0.06914412975311279, -0.07543754577636719, 1.48974609375, 1.247314453125, 0.172119140625, 1.494140625, 1.4912109375, 10.0, 1.4148550033569336, 1.5, 1.4148550033569336
26728, -0.43695884943008423, 0.3373473882675171, 1.1762508153915405, -0.004050031304359436, 0.005092206876724958, -1.9092705249786377, -0.02169029973447323, 0.02725854702293873, -0.1565612256526947, -0.787111222743988, -0.9654908180236816, 0.062327414751052856, -0.48485881153876914, 0.2999598071986611, -2.601100386293314, 9362.0, 30146.0, 35388.0, 9362.0, 8.390083312988281, -0.03931694105267525, -0.19550827145576477, 0.21037398278713226, 0.004000323824584484, -0.06166309118270874, 0.9984931349754333, -0.06914412975311279, -0.07543754577636719, 1.48974609375, 1.247314453125, 0.172119140625, 1.494140625, 1.489013671875, 10.0, 1.4148550033569336, 1.5, 1.4148550033569336
26738, -0.4372544288635254, 0.34017571806907654, 1.1770763397216797, -0.006508552934974432, 0.008185497485101223, -1.9250433444976807, -0.027488484978675842, 0.0346166230738163, -0.15839962661266327, -0.7871095538139343, -0.9655100703239441, 0.06231806427240372, -0.4893832131806734, 0.30257957087326304, -2.5915710467983852, 9362.0, 30146.0, 35388.0, 9362.0, 8.390083312988281, 0.19405850768089294, 0.1490233689546585, -0.23021671175956726, 0.004322695080190897, -0.061672575771808624, 0.9968168139457703, -0.06914412975311279, -0.07543754577636719, 1.48974609375, 1.247314453125, 0.172119140625, 1.494140625, 1.489013671875, 10.0, 1.4150727987289429, 1.5, 1.4150727987289429
26748, -0.43680283427238464, 0.3389357030391693, 1.1763460636138916, -0.006786393467336893, 0.008535333909094334, -1.9266287088394165, -0.028079615905880928, 0.03535066172480583, -0.15868104994297028, -0.787111222743988, -0.9655143618583679, 0.06231517717242241, -0.4844562472592392, 0.3015791981173379, -2.591197679730771, 9362.0, 30146.0, 35388.0, 9362.0, 8.390083312988281, -0.07113198935985565, -0.17276349663734436, 0.1987682431936264, 0.004322695080190897, -0.061672575771808624, 0.9968168139457703, -0.06914412975311279, -0.07543754577636719, 1.48974609375, 1.247314453125, 0.172119140625, 1.494140625, 1.489013671875, 10.0, 1.415213704109192, 1.5, 1.415213704109192
26758, -0.4371732771396637, 0.33707916736602783, 1.1773751974105835, -0.006786393467336893, 0.008535333909094334, -1.9266287088394165, -0.028079615905880928, 0.03535066172480583, -0.15868104994297028, -0.787102997303009, -0.9655210375785828, 0.062329333275556564, -0.4754934085298459, 0.3060624375320913, -2.5936336569262814, 9362.0, 30146.0, 35388.0, 9362.0, 8.390083312988281, -0.07113198935985565, -0.17276349663734436, 0.1987682431936264, 0.004322695080190897, -0.061672575771808624, 0.9968168139457703, -0.06914412975311279, -0.07543754577636719, 1.48974609375, 1.247314453125, 0.172119140625, 1.490478515625, 1.489013671875, 10.0, 1.4153565168380737, 1.5, 1.4153565168380737
26768, -0.43820899724960327, 0.3396168053150177, 1.177066445350647, -0.007359893061220646, 0.009257030673325062, -1.929808259010315, -0.029269443824887276, 0.036818794906139374, -0.1592470407485962, -0.7870910167694092, -0.9655042290687561, 0.06231864541769028, -0.4848767242763754, 0.31033882134752844, -2.5986696740840105, 9362.0, 30146.0, 35388.0, 9362.0, 8.390083312988281, 0.04005533829331398, -0.07998929172754288, 0.07263460755348206, 0.004322695080190897, -0.061672575771808624, 0.9968168139457703, -0.06914412975311279, -0.07543754577636719, 1.48974609375, 1.247314453125, 0.172119140625, 1.490478515625, 1.489013671875, 10.0, 1.4154943227767944, 1.5, 1.4154943227767944
26778, -0.43794068694114685, 0.3393246531486511, 1.1787405014038086, -0.007359893061220646, 0.009257030673325062, -1.929808259010315, -0.029269443824887276, 0.036818794906139374, -0.1592470407485962, -0.7871096730232239, -0.9654919505119324, 0.06230343505740166, -0.4866936946854943, 0.30595319793860654, -2.5974983414242763, 9362.0, 30146.0, 35388.0, 9362.0, 8.390083312988281, 0.16606640815734863, -0.020478617399930954, -0.00721402233466506, 0.004322695080190897, -0.061672575771808624, 0.9968168139457703, -0.06914412975311279, -0.07543754577636719, 1.48974609375, 1.247314453125, 0.172119140625, 1.4912109375, 1.489013671875, 10.0, 1.4156570434570312, 1.5, 1.4156570434570312
26788, -0.4373719394207001, 0.3387405276298523, 1.178763747215271, -0.007957123219966888, 0.010008109733462334, -1.9329979419708252, -0.03045528009533882, 0.038289353251457214, -0.15980008244514465, -0.7871055006980896, -0.9655150771141052, 0.06230960413813591, -0.4865578266773213, 0.299559174251101, -2.5998285094516125, 9362.0, 30146.0, 35388.0, 9362.0, 8.390083312988281, -0.03939409181475639, 0.5988147854804993, 0.6299733519554138, 0.004322695080190897, -0.061672575771808624, 0.9968168139457703, -0.06914412975311279, -0.07543754577636719, 1.48974609375, 1.247314453125, 0.172119140625, 1.4912109375, 1.489013671875, 10.0, 1.4158586263656616, 1.5, 1.4158586263656616
26798, -0.4370415210723877, 0.33514758944511414, 1.181460976600647, -0.007957123219966888, 0.010008109733462334, -1.9329979419708252, -0.03045528009533882, 0.038289353251457214, -0.15980008244514465, -0.787106454372406, -0.9655078649520874, 0.06232086941599846, -0.48646345200417007, 0.30279183410740984, -2.5992604951681813, 9362.0, 30146.0, 35388.0, 9362.0, 8.390083312988281, 0.1264762431383133, -0.09717484563589096, 0.0995548814535141, 0.002548826625570655, -0.06252192705869675, 0.9967721700668335, -0.06914412975311279, -0.07543754577636719, 1.48974609375, 1.247314453125, 0.172119140625, 1.48828125, 1.489013671875, 10.0, 1.4159531593322754, 1.5, 1.4159531593322754
26808, -0.4375703036785126, 0.33559608459472656, 1.1822589635849, -0.008578122593462467, 0.010788612999022007, -1.9361984729766846, -0.031643930822610855, 0.03976019099354744, -0.1602882295846939, -0.7871090173721313, -0.9654931426048279, 0.06232926622033119, -0.48205393371485705, 0.30527693102172293, -2.588526451873452, 9362.0, 30146.0, 35388.0, 9362.0, 8.390083312988281, 0.16225551068782806, 0.03619121015071869, -0.13048240542411804, 0.004691514652222395, -0.059906940907239914, 0.9977525472640991, -0.06914412975311279, -0.07543754577636719, 1.48974609375, 1.247314453125, 0.172119140625, 1.48828125, 1.26123046875, 10.0, 1.4154646396636963, 1.5, 1.4154646396636963
26828, -0.43835288286209106, 0.33688241243362427, 1.1822940111160278, -0.009222752414643764, 0.011598502285778522, -1.9394103288650513, -0.0328199602663517, 0.04122992604970932, -0.1607942283153534, -0.7871181964874268, -0.965497612953186, 0.0623263418674469, -0.4842406082063536, 0.29958012208629725, -2.602408431470894, 9362.0, 30146.0, 35388.0, 9362.0, 8.390083312988281, 0.12896595895290375, 0.22465723752975464, -0.06805877387523651, 0.004570465534925461, -0.06314408779144287, 0.9984386563301086, -0.06914412975311279, -0.07543754577636719, 1.48974609375, 1.247314453125, 0.172119140625, 1.490478515625, 1.4384765625, 10.0, 1.4154646396636963, 1.5, 1.4154646396636963
26838, -0.4387882947921753, 0.3360433280467987, 1.1820614337921143, -0.009222752414643764, 0.011598502285778522, -1.9394103288650513, -0.0328199602663517, 0.04122992604970932, -0.1607942283153534, -0.7871091365814209, -0.9655109643936157, 0.06231671944260597, -0.48458536258643364, 0.30234951467423343, -2.5914310997851984, 9362.0, 30146.0, 35388.0, 9362.0, 8.390083312988281, -0.03138246387243271, -0.14028650522232056, 0.045089371502399445, 0.004570465534925461, -0.06314408779144287, 0.9984386563301086, -0.06914412975311279, -0.07543754577636719, 1.48974609375, 1.247314453125, 0.172119140625, 1.48974609375, 1.4384765625, 10.0, 1.4154646396636963, 1.5, 1.4154646396636963
26848, -0.43919363617897034, 0.33720219135284424, 1.181107521057129, -0.009890981949865818, 0.012437823228538036, -1.9426286220550537, -0.03400268405675888, 0.04270292818546295, -0.16107380390167236, -0.7871049046516418, -0.9654954075813293, 0.06232135370373726, -0.48786493770534195, 0.3021776389751949, -2.6008725494274976, 9362.0, 30146.0, 35388.0, 9362.0, 8.390083312988281, 0.009001733735203743, -0.021190334111452103, -0.11167126148939133, 0.003697402309626341, -0.05918177217245102, 0.9992939233779907, -0.06914412975311279, -0.07543754577636719, 1.48974609375, 1.247314453125, 0.172119140625, 1.48974609375, 1.431884765625, 10.0, 1.4154646396636963, 1.5, 1.4154646396636963
26878, -0.44051408767700195, 0.3404479920864105, 1.1789993047714233, -0.010582851245999336, 0.013306659646332264, -1.9458515644073486, -0.035184964537620544, 0.044180698692798615, -0.16126684844493866, -0.7871138453483582, -0.9654991626739502, 0.06233038008213043, -0.485115502680973, 0.29468905666493583, -2.597437771923509, 9362.0, 30146.0, 35388.0, 9362.0, 8.390083312988281, 0.18661904335021973, 0.5085409879684448, 0.22770480811595917, 0.0018471047515049577, -0.06042559817433357, 0.9975156784057617, -0.06914412975311279, -0.07543754577636719, 1.48974609375, 1.247314453125, 0.172119140625, 1.4912109375, 1.412109375, 10.0, 1.4154646396636963, 1.5, 1.4154646396636963
26888, -0.44140833616256714, 0.33803632855415344, 1.1805843114852905, -0.010582851245999336, 0.013306659646332264, -1.9458515644073486, -0.035184964537620544, 0.044180698692798615, -0.16126684844493866, -0.7871251106262207, -0.9655102491378784, 0.062322910875082016, -0.48282109629891845, 0.29001126916946873, -2.588645853171696, 9362.0, 30146.0, 35388.0, 9362.0, 8.390083312988281, -0.205928236246109, -0.03417970985174179, 0.03963540121912956, 0.0018471047515049577, -0.06042559817433357, 0.9975156784057617, -0.06914412975311279, -0.07543754577636719, 1.48974609375, 1.247314453125, 0.172119140625, 1.4912109375, 1.314697265625, 10.0, 1.4154646396636963, 1.5, 1.4154646396636963
26928, -0.43937233090400696, 0.33516979217529297, 1.1779664754867554, -0.012800769880414009, 0.01609073393046856, -1.9555609226226807, -0.03874487057328224, 0.0486268512904644, -0.16225895285606384, -0.7871103882789612, -0.9655104279518127, 0.06232646852731705, -0.4839343034254403, 0.30177869093151344, -2.588410051043403, 9362.0, 30146.0, 35388.0, 9362.0, 8.390083312988281, 0.10641687363386154, -0.10893284529447556, -0.018954750150442123, 0.0008668021182529628, -0.059279847890138626, 1.000940203666687, -0.06914412975311279, -0.07543754577636719, 1.48974609375, 1.247314453125, 0.172119140625, 1.48974609375, 1.481689453125, 10.0, 1.4150850772857666, 1.5, 1.4150850772857666
26958, -0.43983161449432373, 0.3334527015686035, 1.1802266836166382, -0.013587514869868755, 0.017078105360269547, -1.9588063955307007, -0.03992718830704689, 0.05010899528861046, -0.16233205795288086, -0.78711998462677, -0.9655060172080994, 0.062338393181562424, -0.49034901114230206, 0.2976449756094155, -2.595555638680162, 9362.0, 30146.0, 35388.0, 9362.0, 8.390083312988281, 0.2188532054424286, 0.3044055998325348, 0.08842235803604126, 0.004769904538989067, -0.06134917959570885, 0.9972975254058838, -0.06914412975311279, -0.07543754577636719, 1.48974609375, 1.247314453125, 0.172119140625, 1.493408203125, 1.412109375, 10.0, 1.415130376815796, 1.5, 1.415130376815796
26978, -0.43906185030937195, 0.33373841643333435, 1.1789746284484863, -0.013587514869868755, 0.017078105360269547, -1.9588063955307007, -0.03992718830704689, 0.05010899528861046, -0.16233205795288086, -0.787112832069397, -0.96550053358078, 0.062321409583091736, -0.4836449819645699, 0.29706199931086985, -2.590483737693673, 9362.0, 30146.0, 35388.0, 9362.0, 8.390083312988281, 0.08673390001058578, -0.15104857087135315, -0.04427821934223175, 0.004769904538989067, -0.06134917959570885, 0.9972975254058838, -0.0755046010017395, 0.05896186828613281, 1.500732421875, 1.247314453125, 0.172119140625, 1.4912109375, 1.345458984375, 10.0, 1.4150493144989014, 1.5, 1.4150493144989014
26988, -0.43882715702056885, 0.3357987105846405, 1.1773909330368042, -0.015231630764901638, 0.019141631200909615, -1.9653156995773315, -0.04227485507726669, 0.053067728877067566, -0.16293799877166748, -0.7871081829071045, -0.9655032157897949, 0.062309011816978455, -0.49012654432208363, 0.299699816251092, -2.5960865411727867, 9362.0, 30146.0, 35388.0, 9362.0, 8.390083312988281, 0.08673390001058578, -0.15104857087135315, -0.04427821934223175, 0.003013924928382039, -0.06160954385995865, 0.9979768991470337, -0.0755046010017395, 0.05896186828613281, 1.500732421875, 1.247314453125, 0.172119140625, 1.4912109375, 1.50146484375, 10.0, 1.4150493144989014, 1.5, 1.4150493144989014
27008, -0.4389045536518097, 0.3373464047908783, 1.1781419515609741, -0.016088861972093582, 0.020217757672071457, -1.9685773849487305, -0.043449610471725464, 0.05454418435692787, -0.16331280767917633, -0.7871052622795105, -0.9655117988586426, 0.062349457293748856, -0.4799671940987345, 0.2971027296804607, -2.5966204795493635, 9362.0, 30146.0, 35388.0, 9362.0, 8.390083312988281, 0.08673390001058578, -0.15104857087135315, -0.04427821934223175, 0.0016096258768811822, -0.06022138521075249, 0.9988973736763, -0.0755046010017395, 0.05896186828613281, 1.500732421875, 1.247314453125, 0.172119140625, 1.4912109375, 1.4853515625, 10.0, 1.4150493144989014, 1.5, 1.4150493144989014
27018, -0.43968814611434937, 0.336557537317276, 1.1780532598495483, -0.016088861972093582, 0.020217757672071457, -1.9685773849487305, -0.043449610471725464, 0.05454418435692787, -0.16331280767917633, -0.7870997190475464, -0.9655133485794067, 0.062364187091588974, -0.48712523861754925, 0.29089363388121114, -2.5939029266679894, 9362.0, 30146.0, 35388.0, 9362.0, 8.390083312988281, 0.07018698751926422, 0.27297845482826233, 0.11664517968893051, 0.0032866550609469414, -0.06201709061861038, 0.9972008466720581, -0.0755046010017395, 0.05896186828613281, 1.500732421875, 1.247314453125, 0.172119140625, 1.487548828125, 1.4853515625, 10.0, 1.415939211845398, 1.5, 1.415939211845398
27028, -0.4392183721065521, 0.33772000670433044, 1.17853844165802, -0.016088861972093582, 0.020217757672071457, -1.9685773849487305, -0.043449610471725464, 0.05454418435692787, -0.16331280767917633, -0.7871125340461731, -0.9655125141143799, 0.062332842499017715, -0.487237233096996, 0.29910146850977526, -2.584424694326249, 9362.0, 30146.0, 35388.0, 9362.0, 8.390083312988281, 0.005655145738273859, -0.6184186339378357, -0.24554723501205444, 0.0032866550609469414, -0.06201709061861038, 0.9972008466720581, -0.0755046010017395, 0.05896186828613281, 1.500732421875, 1.247314453125, 0.172119140625, 1.487548828125, 1.494140625, 10.0, 1.415939211845398, 1.5, 1.415939211845398
27038, -0.43917858600616455, 0.3393406867980957, 1.1782288551330566, -0.016088861972093582, 0.020217757672071457, -1.9685773849487305, -0.043449610471725464, 0.05454418435692787, -0.16331280767917633, -0.7871088981628418, -0.9655077457427979, 0.062313660979270935, -0.4871524470397954, 0.30316442163555735, -2.5997736328035006, 9362.0, 30146.0, 35388.0, 9362.0, 8.390083312988281, 0.005655145738273859, -0.6184186339378357, -0.24554723501205444, 0.0026550909969955683, -0.061072543263435364, 1.000077724456787, -0.0755046010017395, 0.05896186828613281, 1.500732421875, 1.247314453125, 0.172119140625, 1.487548828125, 1.48828125, 10.0, 1.415939211845398, 1.5, 1.415939211845398
27048, -0.43893131613731384, 0.3380693197250366, 1.1782442331314087, -0.016088861972093582, 0.020217757672071457, -1.9685773849487305, -0.043449610471725464, 0.05454418435692787, -0.16331280767917633, -0.7871078252792358, -0.9655022025108337, 0.06230901554226875, -0.48047712185474306, 0.30050082421979596, -2.595761844605803, 9362.0, 30146.0, 35388.0, 9362.0, 8.390083312988281, 0.005655145738273859, -0.6184186339378357, -0.24554723501205444, 0.0026550909969955683, -0.061072543263435364, 1.000077724456787, -0.0755046010017395, 0.05896186828613281, 1.500732421875, 1.247314453125, 0.172119140625, 1.487548828125, 1.48828125, 10.0, 1.4164024591445923, 1.5, 1.4164024591445923
27058, -0.43981868028640747, 0.3412024676799774, 1.17604398727417, -0.016088861972093582, 0.020217757672071457, -1.9685773849487305, -0.043449610471725464, 0.05454418435692787, -0.16331280767917633, -0.7871096730232239, -0.9654994010925293, 0.0623086579144001, -0.4795375082787542, 0.2982496041450702, -2.593186864360915, 9362.0, 30146.0, 35388.0, 9362.0, 8.390083312988281, 0.09860919415950775, 0.16116727888584137, -0.2710677683353424, 0.0038467473350465298, -0.0608014315366745, 1.00007164478302, -0.0755046010017395, 0.05896186828613281, 1.500732421875, 1.247314453125, 0.172119140625, 1.4912109375, 1.48828125, 10.0, 1.4165947437286377, 1.5, 1.4165947437286377
27078, -0.44039812684059143, 0.34086325764656067, 1.1754627227783203, -0.018802328035235405, 0.023623397573828697, -1.9784035682678223, -0.047005414962768555, 0.05897894874215126, -0.16395846009254456, -0.7871322631835938, -0.9655184745788574, 0.06231659650802612, -0.4825739561676858, 0.30358090376250857, -2.5939481582516573, 9362.0, 30146.0, 35388.0, 9362.0, 8.390083312988281, 0.142591655254364, 0.3922540545463562, 0.08002761751413345, 0.004968492779880762, -0.059340693056583405, 0.9990975856781006, -0.0908561646938324, -0.021678924560546875, 1.494140625, 1.247314453125, 0.172119140625, 1.4912109375, 1.505859375, 10.0, 1.4171621799468994, 1.5, 1.4171621799468994
27088, -0.4393640160560608, 0.3384290337562561, 1.176788330078125, -0.019754396751523018, 0.02481779456138611, -1.9816837310791016, -0.04819829389452934, 0.06046067178249359, -0.16413824260234833, -0.7871124148368835, -0.9655069708824158, 0.062308795750141144, -0.48675686309836846, 0.30342794814421836, -2.591798023998381, 9362.0, 30146.0, 35388.0, 9362.0, 8.390083312988281, -0.08031238615512848, -0.06879319995641708, -0.012314886786043644, 0.0032473045866936445, -0.0591638907790184, 0.999763011932373, -0.0908561646938324, -0.021678924560546875, 1.494140625, 1.386474609375, 0.028656005859375, 1.4912109375, 1.502197265625, 10.0, 1.4174306392669678, 1.5, 1.4174306392669678
27098, -0.439665824174881, 0.33920156955718994, 1.1757868528366089, -0.019754396751523018, 0.02481779456138611, -1.9816837310791016, -0.04819829389452934, 0.06046067178249359, -0.16413824260234833, -0.7871080040931702, -0.9654973745346069, 0.062346260994672775, -0.47366879392009265, 0.29822019487039597, -2.6024728861422535, 9362.0, 30146.0, 35388.0, 9362.0, 8.390083312988281, -0.010955678299069405, 0.14422689378261566, 0.06723763048648834, 0.0032473045866936445, -0.0591638907790184, 0.999763011932373, -0.0908561646938324, -0.021678924560546875, 1.494140625, 1.326416015625, 0.022705078125, 1.4912109375, 1.439208984375, 10.0, 1.4174994230270386, 1.5, 1.4174994230270386
27108, -0.43922513723373413, 0.33809009194374084, 1.1770344972610474, -0.020730314776301384, 0.026041829958558083, -1.9849674701690674, -0.049391746520996094, 0.06194246560335159, -0.16418641805648804, -0.7871099710464478, -0.96551513671875, 0.06231619045138359, -0.48380362735133187, 0.3039618375797488, -2.5956294420530925, 9362.0, 30146.0, 35388.0, 9362.0, 8.390083312988281, 0.044104259461164474, -0.11204873770475388, -0.05845603719353676, 0.0026525098364800215, -0.059217553585767746, 0.9999556541442871, -0.0908561646938324, -0.021678924560546875, 1.494140625, 1.326416015625, 0.022705078125, 1.4912109375, 1.259765625, 10.0, 1.4170013666152954, 1.5, 1.4170013666152954
27118, -0.438988596200943, 0.33885812759399414, 1.1769160032272339, -0.020730314776301384, 0.026041829958558083, -1.9849674701690674, -0.049391746520996094, 0.06194246560335159, -0.16418641805648804, -0.7871237993240356, -0.9655206203460693, 0.06229841709136963, -0.4825076993627203, 0.30012889143097254, -2.589167711155817, 9362.0, 30146.0, 35388.0, 9362.0, 8.390083312988281, -0.025379376485943794, -0.29996225237846375, 0.13855232298374176, 0.003975111059844494, -0.059221893548965454, 0.9979601502418518, -0.0908561646938324, -0.021678924560546875, 1.494140625, 1.326416015625, 0.022705078125, 1.490478515625, 1.259765625, 10.0, 1.4171617031097412, 1.5, 1.4171617031097412
27128, -0.43964409828186035, 0.33842527866363525, 1.178825855255127, -0.021730056032538414, 0.027295485138893127, -1.98825204372406, -0.05058160796761513, 0.06342264264822006, -0.1642604023218155, -0.787106990814209, -0.9655157923698425, 0.062341999262571335, -0.47752066703437585, 0.29671851808461724, -2.5927944488456367, 9362.0, 30146.0, 35388.0, 9362.0, 8.390083312988281, 0.03426685184240341, 0.13936594128608704, 0.10281803458929062, 0.004726983141154051, -0.06052568182349205, 0.9964570999145508, -0.0908561646938324, -0.021678924560546875, 1.494140625, 1.326416015625, 0.022705078125, 1.490478515625, 1.4619140625, 10.0, 1.4171617031097412, 1.5, 1.4171617031097412
27138, -0.4400929808616638, 0.3358643651008606, 1.179821491241455, -0.021730056032538414, 0.027295485138893127, -1.98825204372406, -0.05058160796761513, 0.06342264264822006, -0.1642604023218155, -0.7870988845825195, -0.9655051827430725, 0.062352828681468964, -0.48609094732714286, 0.2974663926475216, -2.602135914959224, 9362.0, 30146.0, 35388.0, 9362.0, 8.390083312988281, 0.10313619673252106, 0.11602865159511566, -0.04024237394332886, 0.0038842179346829653, -0.06187010928988457, 0.9970593452453613, -0.0908561646938324, -0.021678924560546875, 1.494140625, 1.326416015625, 0.022705078125, 1.489013671875, 1.4619140625, 10.0, 1.4175409078598022, 1.5, 1.4175409078598022
27148, -0.44085678458213806, 0.3359464704990387, 1.1791727542877197, -0.022753559052944183, 0.02857869304716587, -1.991542935371399, -0.05176817998290062, 0.06489812582731247, -0.16488724946975708, -0.7871039509773254, -0.9655122756958008, 0.062317900359630585, -0.486001331749985, 0.30493395004745594, -2.595934920066066, 9362.0, 30146.0, 35388.0, 9362.0, 8.390083312988281, -0.03952264040708542, 0.24827395379543304, 0.02797328308224678, 0.0038842179346829653, -0.06187010928988457, 0.9970593452453613, -0.0908561646938324, -0.021678924560546875, 1.494140625, 1.326416015625, 0.022705078125, 1.489013671875, 1.478759765625, 10.0, 1.4175409078598022, 1.5, 1.4175409078598022
27158, -0.44081953167915344, 0.332823783159256, 1.1791260242462158, -0.022753559052944183, 0.02857869304716587, -1.991542935371399, -0.05176817998290062, 0.06489812582731247, -0.16488724946975708, -0.7871181964874268, -0.965509831905365, 0.062322285026311874, -0.4892317552744984, 0.30470346621410727, -2.595238613073666, 9362.0, 30146.0, 35388.0, 9362.0, 8.390083312988281, -0.16861748695373535, 0.1520325243473053, -0.1642555296421051, 0.004975853953510523, -0.06087065115571022, 0.9999963641166687, -0.0908561646938324, -0.021678924560546875, 1.494140625, 1.326416015625, 0.022705078125, 1.4912109375, 1.4560546875, 10.0, 1.4175409078598022, 1.5, 1.4175409078598022
27168, -0.44263896346092224, 0.3327028751373291, 1.1795337200164795, -0.022753559052944183, 0.02857869304716587, -1.991542935371399, -0.05176817998290062, 0.06489812582731247, -0.16488724946975708, -0.7871047258377075, -0.9655110239982605, 0.062317974865436554, -0.48097163573796675, 0.29823285621947093, -2.5884445187917424, 9362.0, 30146.0, 35388.0, 9362.0, 8.390083312988281, -0.16861748695373535, 0.1520325243473053, -0.1642555296421051, 0.003888223087415099, -0.06179655343294144, 0.9992228150367737, -0.0908561646938324, -0.021678924560546875, 1.494140625, 1.326416015625, 0.022705078125, 1.4912109375, 1.345458984375, 10.0, 1.4175409078598022, 1.5, 1.4175409078598022
27178, -0.44496700167655945, 0.33182236552238464, 1.1800541877746582, -0.022753559052944183, 0.02857869304716587, -1.991542935371399, -0.05176817998290062, 0.06489812582731247, -0.16488724946975708, -0.7870988249778748, -0.9655064940452576, 0.06235449016094208, -0.48561227026673, 0.3048000507177733, -2.5846678453752068, 9362.0, 30146.0, 35388.0, 9362.0, 8.390083312988281, -0.03110230341553688, -0.03492526337504387, 0.04126836359500885, 0.001990854972973466, -0.06070558354258537, 0.9967003464698792, -0.0908561646938324, -0.021678924560546875, 1.494140625, 1.326416015625, 0.022705078125, 1.490478515625, 1.4736328125, 10.0, 1.4175409078598022, 1.5, 1.4175409078598022
27188, -0.44484230875968933, 0.3336741626262665, 1.1797409057617188, -0.022753559052944183, 0.02857869304716587, -1.991542935371399, -0.05176817998290062, 0.06489812582731247, -0.16488724946975708, -0.7871078252792358, -0.9655022621154785, 0.062313344329595566, -0.4800486312656969, 0.2960183772171092, -2.596624411607037, 9362.0, 30146.0, 35388.0, 9362.0, 8.390083312988281, 0.00803837925195694, 0.08171015232801437, -0.03366051986813545, 0.001990854972973466, -0.06070558354258537, 0.9967003464698792, -0.0908561646938324, -0.021678924560546875, 1.494140625, 1.326416015625, 0.022705078125, 1.490478515625, 1.3623046875, 10.0, 1.4175409078598022, 1.5, 1.4175409078598022
27198, -0.445824533700943, 0.3329901695251465, 1.1798933744430542, -0.022753559052944183, 0.02857869304716587, -1.991542935371399, -0.05176817998290062, 0.06489812582731247, -0.16488724946975708, -0.7871015667915344, -0.9655173420906067, 0.062336795032024384, -0.4884303375033103, 0.3121768010869914, -2.5872232416902645, 9362.0, 30146.0, 35388.0, 9362.0, 8.390083312988281, -0.15058094263076782, -0.10156320035457611, 0.23971697688102722, 0.0049232905730605125, -0.060435619205236435, 0.9982749223709106, -0.0908561646938324, -0.021678924560546875, 1.494140625, 1.326416015625, 0.022705078125, 1.494140625, 1.2421875, 10.0, 1.4170740842819214, 1.5, 1.4170740842819214
27218, -0.4455573260784149, 0.3331950902938843, 1.1797252893447876, -0.022753559052944183, 0.02857869304716587, -1.991542935371399, -0.05176817998290062, 0.06489812582731247, -0.16488724946975708, -0.7871147394180298, -0.9655005931854248, 0.06232123076915741, -0.48619439780456075, 0.2971699644020589, -2.5966754541646995, 9362.0, 30146.0, 35388.0, 9362.0, 8.390083312988281, 0.061575669795274734, -0.08407633006572723, -0.1296398937702179, 0.004273118916898966, -0.06137561425566673, 0.9976528882980347, -0.0908561646938324, -0.021678924560546875, 1.494140625, 1.326416015625, 0.022705078125, 1.491943359375, 1.33154296875, 10.0, 1.4166661500930786, 1.5, 1.4166661500930786
27228, -0.44555988907814026, 0.333751380443573, 1.1799347400665283, -0.02708268165588379, 0.034008465707302094, -2.0047905445098877, -0.05645244941115379, 0.07086177170276642, -0.16642321646213531, -0.7871006727218628, -0.9655189514160156, 0.062326375395059586, -0.4888144041062533, 0.30112503152062686, -2.5941144497736115, 9362.0, 30146.0, 35388.0, 9362.0, 8.390083312988281, -0.013942190445959568, 0.04001503810286522, -0.21980924904346466, 0.0026699374429881573, -0.06356129050254822, 0.9951940178871155, -0.0908561646938324, -0.021678924560546875, 1.494140625, 1.326416015625, 0.022705078125, 1.491943359375, 1.5234375, 10.0, 1.4170032739639282, 1.5, 1.4170032739639282
27238, -0.44620123505592346, 0.333761990070343, 1.178775668144226, -0.02708268165588379, 0.034008465707302094, -2.0047905445098877, -0.05645244941115379, 0.07086177170276642, -0.16642321646213531, -0.7871187329292297, -0.9655073881149292, 0.06233271211385727, -0.4833563088342983, 0.2977421867468877, -2.5935300925366196, 9362.0, 30146.0, 35388.0, 9362.0, 8.390083312988281, -0.1083146408200264, 0.2021034061908722, 0.3512299656867981, 0.004484396893531084, -0.06229858472943306, 0.9973623752593994, -0.0908561646938324, -0.021678924560546875, 1.494140625, 1.326416015625, 0.022705078125, 1.491943359375, 1.43115234375, 10.0, 1.4170479774475098, 1.5, 1.4170479774475098
27248, -0.4465915262699127, 0.33412623405456543, 1.1808037757873535, -0.028223425149917603, 0.035440679639577866, -2.008124351501465, -0.05762196704745293, 0.07235915213823318, -0.16702193021774292, -0.7871184945106506, -0.9655110836029053, 0.062330421060323715, -0.48179191895580886, 0.3028572924721402, -2.5927623125041124, 9362.0, 30146.0, 35388.0, 9362.0, 8.390083312988281, 0.033456504344940186, -0.5033800005912781, 0.06018132343888283, 0.0036448081955313683, -0.06001362204551697, 0.9991146326065063, -0.0908561646938324, -0.021678924560546875, 1.494140625, 1.326416015625, 0.022705078125, 1.491943359375, 1.50439453125, 10.0, 1.4173238277435303, 1.5, 1.4173238277435303
27258, -0.4473418891429901, 0.3375961482524872, 1.1816010475158691, -0.028223425149917603, 0.035440679639577866, -2.008124351501465, -0.05762196704745293, 0.07235915213823318, -0.16702193021774292, -0.7871094346046448, -0.9655197262763977, 0.06233534589409828, -0.4940522235986233, 0.3042546252865179, -2.594485922520597, 9362.0, 30146.0, 35388.0, 9362.0, 8.390083312988281, -0.06870464980602264, -0.003764260793104768, 0.05304396152496338, 0.0028698325622826815, -0.060202427208423615, 0.9984150528907776, -0.0908561646938324, -0.021678924560546875, 1.494140625, 1.326416015625, 0.022705078125, 1.490478515625, 1.37841796875, 10.0, 1.4173238277435303, 1.5, 1.4173238277435303
27268, -0.44759055972099304, 0.3377408981323242, 1.181269645690918, -0.028223425149917603, 0.035440679639577866, -2.008124351501465, -0.05762196704745293, 0.07235915213823318, -0.16702193021774292, -0.7870994806289673, -0.9654948115348816, 0.06233830749988556, -0.4896116065496346, 0.29425654062254125, -2.5928828972398796, 9362.0, 30146.0, 35388.0, 9362.0, 8.390083312988281, -0.06870464980602264, -0.003764260793104768, 0.05304396152496338, 0.004253135062754154, -0.05940842628479004, 0.9993078708648682, -0.0908561646938324, -0.021678924560546875, 1.494140625, 1.326416015625, 0.022705078125, 1.490478515625, 1.3681640625, 10.0, 1.4170461893081665, 1.5, 1.4170461893081665
27278, -0.44788599014282227, 0.33707305788993835, 1.1817535161972046, -0.028223425149917603, 0.035440679639577866, -2.008124351501465, -0.05762196704745293, 0.07235915213823318, -0.16702193021774292, -0.7871321439743042, -0.9655135273933411, 0.062328144907951355, -0.48066762961727044, 0.2918911063165126, -2.602203885170048, 9362.0, 30146.0, 35388.0, 9362.0, 8.390083312988281, -0.017925549298524857, 0.05411103367805481, 0.08743678778409958, 0.004253135062754154, -0.05940842628479004, 0.9993078708648682, -0.0908561646938324, -0.021678924560546875, 1.494140625, 1.326416015625, 0.022705078125, 1.490478515625, 1.2568359375, 10.0, 1.4165403842926025, 1.5, 1.4165403842926025
