timeTick, roll, pitch, yaw, stateX, stateY, stateZ, stateVX, stateVY, stateVZ, otX0, otY0, otZ0, otRoll0, otPitch0, otYaw0, left wing, pitch motor, yaw motor, right wing, voltage, roll rate, pitch rate, yaw rate, A_x, A_y, A_z, current, i_raw, v_raw, airflow_voltage, airflow_speed, pot_Pitch, voltage_nKF, kFFx, volt_KF_vel, kP, volt_KF_pos
17162, -2.8961851596832275, 3.8232059478759766, -1.1880122423171997, 0, 0, 0, 0, 0, 0, -0.793673574924469, -0.9745330214500427, 0.06227865815162659, -0.48591370270509593, 0.4962886447249275, -2.0862794450730187, 0, 0, 0, 0, 0, 0, 0, 0, 0, 0, 0, 0, 0, 0, 0, 0, 0, 0, 0, 0, 0, 0
17172, -2.8956968784332275, 3.823693037033081, -1.1883047819137573, -0.00015718225040473044, 0.00012455591058824211, -1.0583124160766602, -0.016769541427493095, 0.01328970305621624, -0.13723497092723846, -0.7936604022979736, -0.9745276570320129, 0.062281712889671326, -0.4858842140513031, 0.49455166888947133, -2.0880199557573476, 9362.0, 30146.0, 35388.0, 9362.0, 0, -0.08395963162183762, 0.18629302084445953, -0.34528225660324097, 0, 0, 0, 0, 0, 0, 0, 0, 0, 0, 0, 0, 0, 0
17182, -2.8957607746124268, 3.8227269649505615, -1.1895915269851685, -0.0003570011758711189, 0.0002828926080837846, -1.0596867799758911, -0.023194218054413795, 0.018377669155597687, -0.13763727247714996, -0.7936683893203735, -0.9745385646820068, 0.06226465106010437, -0.4830713552144769, 0.495563293123098, -2.0947688952269816, 9362.0, 30146.0, 35388.0, 9362.0, 0, -0.08498606085777283, 0.2663731873035431, 0.09791836887598038, 0.006251559127122164, -0.0616891123354435, 0.998022198677063, 0, 0, 0, 1.348388671875, 0.0154571533203125, 0, 1.1630859375, 10.0, 1.4037052392959595, 1.5, 1.4037052392959595
17192, -2.8943557739257812, 3.8219494819641113, -1.1906405687332153, -0.0006210223073139787, 0.0004920664941892028, -1.061065912246704, -0.02960989437997341, 0.023457255214452744, -0.13818755745887756, -0.7936638593673706, -0.9745336771011353, 0.06227001175284386, -0.48284339848158975, 0.5032104235008603, -2.0883188137156936, 9362.0, 30146.0, 35388.0, 9362.0, 0, 0.20063535869121552, -0.12104293704032898, -0.3755647540092468, 0.0065043834038078785, -0.06351631134748459, 0.9985897541046143, 0, 0, 0, 1.15869140625, 0.6672515869140625, 1.491943359375, 1.525634765625, 10.0, 1.4029284715652466, 1.5, 1.4029284715652466
17202, -2.893828868865967, 3.821068525314331, -1.1928174495697021, -0.0009492196841165423, 0.000752059742808342, -1.0624500513076782, -0.03602951392531395, 0.028541525825858116, -0.13865138590335846, -0.7936573624610901, -0.974527895450592, 0.06227751076221466, -0.4878332337792247, 0.49791441241561074, -2.0967575180640607, 9362.0, 30146.0, 35388.0, 9362.0, 0, -0.12050050497055054, -0.10945293307304382, 0.0722232460975647, 0.006938796490430832, -0.06355154514312744, 0.99833083152771, 0, 0, 0, 1.5, 0.19561767578125, 1.491943359375, 1.259765625, 10.0, 1.4032361507415771, 1.5, 1.4032361507415771
17212, -2.8932108879089355, 3.8197104930877686, -1.1936981678009033, -0.0013416080037131906, 0.0010628853924572468, -1.0638388395309448, -0.04244796931743622, 0.03362385183572769, -0.13911037147045135, -0.793667733669281, -0.9745338559150696, 0.06227278709411621, -0.48532361075298397, 0.49399795333641805, -2.0844392977714414, 9362.0, 30146.0, 35388.0, 9362.0, 0, -0.0987934097647667, 0.36586883664131165, -0.2224818468093872, 0.00615368876606226, -0.06597868353128433, 0.9968239068984985, 0, 0, 0, 1.282470703125, 0.0786590576171875, 1.487548828125, 1.271484375, 10.0, 1.4028533697128296, 1.5, 1.4028533697128296
17222, -2.892946243286133, 3.8190414905548096, -1.1945723295211792, -0.001798110781237483, 0.0014244819758459926, -1.0652332305908203, -0.04885251820087433, 0.0386955663561821, -0.1397572010755539, -0.793675422668457, -0.9745381474494934, 0.06224394962191582, -0.47645706518995556, 0.5004995065578441, -2.0956944024526796, 9362.0, 30146.0, 35388.0, 9362.0, 0, -0.06789714843034744, 0.01685693860054016, 0.12785124778747559, 0.0052927653305232525, -0.0623323991894722, 0.9975725412368774, 0, 0, 0, 1.17333984375, 0.554962158203125, 1.487548828125, 1.54248046875, 10.0, 1.4021258354187012, 1.5, 1.4021258354187012
17232, -2.893298625946045, 3.8178884983062744, -1.1930359601974487, -0.0023186441976577044, 0.0018367883749306202, -1.0666340589523315, -0.05525410920381546, 0.043765805661678314, -0.14041294157505035, -0.7936721444129944, -0.9745272397994995, 0.06219927594065666, -0.475726939806897, 0.49030000577769783, -2.0971818568965817, 9362.0, 30146.0, 35388.0, 9362.0, 0, -0.07753095775842667, 0.2152467668056488, 0.013975218869745731, 0.0075881462544202805, -0.062917061150074, 0.99590003490448, 0, 0, 0, 1.2685546875, 0.1099395751953125, 1.486083984375, 1.5791015625, 10.0, 1.4017024040222168, 1.5, 1.4017024040222168
17242, -2.892427444458008, 3.819230794906616, -1.1931607723236084, -0.002903179032728076, 0.0022997884079813957, -1.0680415630340576, -0.06165299564599991, 0.04883402958512306, -0.14109474420547485, -0.7936850786209106, -0.9745358228683472, 0.062226179987192154, -0.46988470003992755, 0.5024908115925086, -2.091175531324152, 9362.0, 30146.0, 35388.0, 9362.0, 0, -0.04159983992576599, -0.1436873823404312, 0.013703480362892151, 0.00803468655794859, -0.06413630396127701, 0.9992251396179199, 0, 0, 0, 1.14990234375, 0.7412872314453125, 1.486083984375, 1.42529296875, 10.0, 1.4009042978286743, 1.5, 1.4009042978286743
17252, -2.892507553100586, 3.81486439704895, -1.191549301147461, -0.0035517564974725246, 0.0028135227039456367, -1.0694549083709717, -0.06806249171495438, 0.05391283705830574, -0.14158441126346588, -0.7936859130859375, -0.9745256900787354, 0.06219683587551117, -0.4601356784659715, 0.5073508772908042, -2.108072327017903, 9362.0, 30146.0, 35388.0, 9362.0, 0, 0.007930420339107513, 0.3218928575515747, 0.08483894169330597, 0.006298256106674671, -0.06391143053770065, 0.9965466260910034, 0, 0, 0, 1.37109375, 0.0197906494140625, 1.493408203125, 1.546875, 10.0, 1.4008097648620605, 1.5, 1.4008097648620605
17262, -2.892780303955078, 3.8123207092285156, -1.1907395124435425, -0.004264393821358681, 0.003378000808879733, -1.0708738565444946, -0.07446517795324326, 0.05898262932896614, -0.1422157734632492, -0.7936289310455322, -0.97453373670578, 0.0622652992606163, -0.48712744661360113, 0.4837955319110847, -2.077565048306353, 9362.0, 30146.0, 35388.0, 9362.0, 8.409917831420898, 0.012233943678438663, -0.10965518653392792, -0.17510341107845306, 0.005583424586802721, -0.06450576335191727, 0.9978297352790833, 0, 0, 0, 1.13818359375, 0.8482208251953125, 1.493408203125, 1.465576171875, 10.0, 1.3999773263931274, 1.5, 1.3999773263931274
17272, -2.8923449516296387, 3.8120832443237305, -1.1920068264007568, -0.005041031166911125, 0.003993183374404907, -1.0722990036010742, -0.0808623880147934, 0.06405382603406906, -0.14281760156154633, -0.7936360836029053, -0.9745330810546875, 0.062256816774606705, -0.4899458511278477, 0.48411786670362744, -2.0637975950378062, 9362.0, 30146.0, 35388.0, 9362.0, 8.409917831420898, 0.12214383482933044, 0.014195134863257408, 0.024093307554721832, 0.006162945181131363, -0.06329258531332016, 0.9981856346130371, -0.06433894485235214, -0.09335899353027344, 1.48828125, 1.147705078125, 0.7606201171875, 1.49267578125, 1.446533203125, 10.0, 1.3991776704788208, 1.5, 1.3991776704788208
17282, -2.891937732696533, 3.8113558292388916, -1.1928904056549072, -0.005881645251065493, 0.004659099970012903, -1.0737297534942627, -0.08726032823324203, 0.06912966072559357, -0.1433403193950653, -0.7936608791351318, -0.9745309352874756, 0.06222908943891525, -0.49762852304066196, 0.5090970051824968, -2.0768263466002357, 9362.0, 30146.0, 35388.0, 9362.0, 8.409917831420898, 0.04038957506418228, 0.055119212716817856, 0.06760773807764053, 0.005482293199747801, -0.06383170932531357, 1.0009304285049438, -0.06433894485235214, -0.09335899353027344, 1.48828125, 1.2099609375, 0.329986572265625, 1.49267578125, 1.5498046875, 10.0, 1.3985779285430908, 1.5, 1.3985779285430908
17292, -2.8936080932617188, 3.8098092079162598, -1.1910054683685303, -0.0067863077856600285, 0.005375828593969345, -1.0751646757125854, -0.09367208182811737, 0.07421617209911346, -0.14364482462406158, -0.7936347723007202, -0.9745376110076904, 0.06224696710705757, -0.4823730105798673, 0.4766456855668366, -2.0770985534124926, 9362.0, 30146.0, 35388.0, 9362.0, 8.409917831420898, -0.004635712131857872, -0.01887529157102108, -0.018841098994016647, 0.004495400004088879, -0.06389811635017395, 0.9997537136077881, -0.06433894485235214, -0.09335899353027344, 1.48828125, 1.19091796875, 0.4375, 1.49267578125, 1.53955078125, 10.0, 1.397919774055481, 1.5, 1.397919774055481
17302, -2.8937952518463135, 3.8108766078948975, -1.1931535005569458, -0.007755056023597717, 0.006143399514257908, -1.0766030550003052, -0.10007776319980621, 0.07929777354001999, -0.1440262496471405, -0.7936649322509766, -0.9745377898216248, 0.06222694739699364, -0.49536306273009023, 0.5122483127633473, -2.0743537905756098, 9362.0, 30146.0, 35388.0, 9362.0, 8.409917831420898, 0.027378538623452187, -0.0103842131793499, -0.15419186651706696, 0.005722002126276493, -0.06329236924648285, 0.9987343549728394, -0.06433894485235214, -0.09335899353027344, 1.48828125, 1.540283203125, 0.280364990234375, 1.49267578125, 1.2158203125, 10.0, 1.3983709812164307, 1.5, 1.3983709812164307
17312, -2.8931729793548584, 3.810443639755249, -1.1932010650634766, -0.008787836879491806, 0.006961790379136801, -1.07804536819458, -0.10647830367088318, 0.08438064157962799, -0.1444413661956787, -0.7936367392539978, -0.9745435118675232, 0.06222572177648544, -0.48861324013861357, 0.47336436976300433, -2.073978593317603, 9362.0, 30146.0, 35388.0, 9362.0, 8.409917831420898, 0.018358318135142326, 0.0797978937625885, -0.08353686332702637, 0.006529330741614103, -0.06482744216918945, 0.9950516223907471, -0.06433894485235214, -0.09335899353027344, 1.48828125, 1.226806640625, 0.2505340576171875, 1.490478515625, 1.411376953125, 10.0, 1.3978272676467896, 1.5, 1.3978272676467896
17322, -2.8938052654266357, 3.811150550842285, -1.1930067539215088, -0.009884534403681755, 0.007830935530364513, -1.0794932842254639, -0.1128612756729126, 0.0894484594464302, -0.14515280723571777, -0.7936350107192993, -0.974544107913971, 0.06225917860865593, -0.4873641817375083, 0.47336787373367883, -2.0717884328706733, 9362.0, 30146.0, 35388.0, 9362.0, 8.409917831420898, -0.05655984207987785, 0.0656966045498848, -0.01183067075908184, 0.006382022053003311, -0.065006323158741, 0.995843231678009, -0.06433894485235214, -0.09335899353027344, 1.48828125, 1.509521484375, 0.2148895263671875, 1.490478515625, 1.311767578125, 10.0, 1.3981812000274658, 1.5, 1.3981812000274658
17332, -2.892780065536499, 3.810842752456665, -1.1936436891555786, -0.01104503683745861, 0.008750737644731998, -1.0809487104415894, -0.11923934519290924, 0.09451186656951904, -0.14592821896076202, -0.7936701774597168, -0.9745423197746277, 0.06218574196100235, -0.49488601899528795, 0.5060877497047613, -2.0757218370821526, 9362.0, 30146.0, 35388.0, 9362.0, 8.409917831420898, 0.01443558745086193, 0.012240618467330933, 0.09320174157619476, 0.005440505221486092, -0.06303580850362778, 0.9961462020874023, -0.06433894485235214, -0.09335899353027344, 1.48828125, 1.516845703125, 0.23004150390625, 1.493408203125, 1.22021484375, 10.0, 1.3985573053359985, 1.5, 1.3985573053359985
17342, -2.893723726272583, 3.8112590312957764, -1.1931971311569214, -0.012269345112144947, 0.009721193462610245, -1.0824116468429565, -0.1256222426891327, 0.09957939386367798, -0.14664681255817413, -0.793669581413269, -0.9745495319366455, 0.062227848917245865, -0.4919192906212535, 0.4979266455243021, -2.0634514437265015, 9362.0, 30146.0, 35388.0, 9362.0, 8.409917831420898, 0.08504563570022583, -0.03477105498313904, 0.09514793008565903, 0.0068056327290833, -0.06387060135602951, 0.9960868954658508, -0.06433894485235214, -0.09335899353027344, 1.48828125, 1.453125, 0.1099090576171875, 1.493408203125, 1.28759765625, 10.0, 1.3987302780151367, 1.5, 1.3987302780151367
17352, -2.8928799629211426, 3.8122379779815674, -1.1927179098129272, -0.013557479716837406, 0.010742316022515297, -1.0838817358016968, -0.1320047676563263, 0.10464516282081604, -0.14736425876617432, -0.79365074634552, -0.9745510220527649, 0.06223902851343155, -0.4921640680988258, 0.48206850869317464, -2.07161579556444, 9362.0, 30146.0, 35388.0, 9362.0, 8.409917831420898, 0.2045140266418457, -0.15473763644695282, -0.08635228872299194, 0.006293926388025284, -0.06442151963710785, 0.9993266463279724, -0.06433894485235214, -0.09335899353027344, 1.48828125, 1.5322265625, 0.2628021240234375, 1.4912109375, 1.286865234375, 10.0, 1.3991533517837524, 1.5, 1.3991533517837524
17362, -2.8933005332946777, 3.813462495803833, -1.1907069683074951, -0.014909517951309681, 0.011814163997769356, -1.0853577852249146, -0.13840289413928986, 0.10972433537244797, -0.14785484969615936, -0.7936480045318604, -0.9745486974716187, 0.0622355118393898, -0.48244913457776495, 0.48778010554298135, -2.0921202954290843, 9362.0, 30146.0, 35388.0, 9362.0, 8.409917831420898, -0.05976393073797226, 0.2203744649887085, 0.4516022205352783, 0.006682880688458681, -0.06438562273979187, 0.9995496273040771, -0.06433894485235214, -0.09335899353027344, 1.48828125, 1.55419921875, 0.311279296875, 1.4912109375, 1.0341796875, 10.0, 1.3996447324752808, 1.5, 1.3996447324752808
17372, -2.893723726272583, 3.811910390853882, -1.1889533996582031, -0.016325583681464195, 0.01293682586401701, -1.0868382453918457, -0.14481043815612793, 0.11480783671140671, -0.14823070168495178, -0.7936754822731018, -0.9745518565177917, 0.062212273478507996, -0.49799448299939264, 0.49715396768570486, -2.0717434643442547, 9362.0, 30146.0, 35388.0, 9362.0, 8.409917831420898, -0.09644205868244171, -0.14154015481472015, 0.18713460862636566, 0.006278735585510731, -0.06304018199443817, 0.998211145401001, -0.05403532087802887, 0.06792068481445312, 1.50146484375, 1.25390625, 0.1508331298828125, 1.49267578125, 1.538818359375, 10.0, 1.399182915687561, 1.5, 1.399182915687561
17382, -2.8931884765625, 3.814491033554077, -1.1897855997085571, -0.01780570298433304, 0.014110298827290535, -1.0883229970932007, -0.15121349692344666, 0.11988659203052521, -0.1487087905406952, -0.7936728596687317, -0.9745451807975769, 0.062176432460546494, -0.5004393075682452, 0.5063001307205752, -2.060912924885806, 9362.0, 30146.0, 35388.0, 9362.0, 8.409917831420898, 0.19814850389957428, 0.04347443953156471, -0.2753444015979767, 0.0055508981458842754, -0.06511477380990982, 0.9971030354499817, -0.05403532087802887, 0.06792068481445312, 1.50146484375, 1.150634765625, 0.734954833984375, 1.49267578125, 1.49853515625, 10.0, 1.398395299911499, 1.5, 1.398395299911499
17392, -2.8905742168426514, 3.813856601715088, -1.1892701387405396, -0.019349798560142517, 0.01533452793955803, -1.0898131132125854, -0.15760542452335358, 0.12495943903923035, -0.14931513369083405, -0.7937192320823669, -0.9745295643806458, 0.06215992197394371, -0.4916381039182584, 0.517287833173441, -2.088061468958735, 9362.0, 30146.0, 35388.0, 9362.0, 8.409917831420898, 0.222220316529274, -0.1663329154253006, 0.052513450384140015, 0.0058988225646317005, -0.06655137240886688, 0.997592031955719, -0.05403532087802887, 0.06792068481445312, 1.50146484375, 1.559326171875, 0.32293701171875, 1.48974609375, 1.224609375, 10.0, 1.3989052772521973, 1.5, 1.3989052772521973
17402, -2.8901851177215576, 3.8133931159973145, -1.18817138671875, -0.020957836881279945, 0.01660948432981968, -1.0913093090057373, -0.16400234401226044, 0.13003183901309967, -0.1499130129814148, -0.7936962842941284, -0.9745321273803711, 0.06216657534241676, -0.48437698915349925, 0.5069869958797426, -2.076200737073972, 9362.0, 30146.0, 35388.0, 9362.0, 8.409917831420898, 0.14954444766044617, 0.03290453553199768, -0.0012082894099876285, 0.004882272332906723, -0.0640435442328453, 0.9967198967933655, -0.05403532087802887, 0.06792068481445312, 1.50146484375, 1.51025390625, 0.2164154052734375, 1.48974609375, 1.53369140625, 10.0, 1.3992581367492676, 1.5, 1.3992581367492676
17412, -2.8898730278015137, 3.813839912414551, -1.1893408298492432, -0.022629819810390472, 0.017935127019882202, -1.0928117036819458, -0.17039456963539124, 0.13509657979011536, -0.15056923031806946, -0.7936535477638245, -0.9745334386825562, 0.06219341978430748, -0.4776817082351133, 0.48181916529708246, -2.088858575283653, 9362.0, 30146.0, 35388.0, 9362.0, 8.409917831420898, 0.027752846479415894, 0.02868650294840336, -0.13496170938014984, 0.0041891769506037235, -0.06390216946601868, 0.9977030158042908, -0.05403532087802887, 0.06792068481445312, 1.50146484375, 1.5234375, 0.2439727783203125, 1.490478515625, 1.52490234375, 10.0, 1.3996516466140747, 1.5, 1.3996516466140747
17422, -2.8892931938171387, 3.8148021697998047, -1.19071626663208, -0.024365754798054695, 0.019311439245939255, -1.0943201780319214, -0.17679232358932495, 0.14016586542129517, -0.15112774074077606, -0.7936834096908569, -0.9745465517044067, 0.06220396235585213, -0.47332823851892225, 0.4958720048729788, -2.099460670141323, 9362.0, 30146.0, 35388.0, 9362.0, 8.409917831420898, 0.23982858657836914, 0.015883244574069977, -0.1571698635816574, 0.005589136388152838, -0.06411439180374146, 0.9967934489250183, -0.05403532087802887, 0.06792068481445312, 1.50146484375, 1.44140625, 0.0914459228515625, 1.490478515625, 1.5029296875, 10.0, 1.399783968925476, 1.5, 1.399783968925476
17432, -2.889221668243408, 3.8144102096557617, -1.189358115196228, -0.02616564743220806, 0.020738422870635986, -1.0958346128463745, -0.18318593502044678, 0.14523100852966309, -0.1517591029405594, -0.7936599254608154, -0.9745317101478577, 0.062199659645557404, -0.47163585741155734, 0.4825445995625728, -2.0959612614359826, 9362.0, 30146.0, 35388.0, 9362.0, 8.409917831420898, -0.07927108556032181, -0.10225707292556763, 0.2535693347454071, 0.005705213639885187, -0.06365431100130081, 0.9967926740646362, -0.05403532087802887, 0.06792068481445312, 1.50146484375, 1.540283203125, 0.280364990234375, 1.4970703125, 1.20849609375, 10.0, 1.4002290964126587, 1.5, 1.4002290964126587
17442, -2.888373851776123, 3.8154983520507812, -1.1893507242202759, -0.028029456734657288, 0.022216033190488815, -1.0973557233810425, -0.18957626819610596, 0.15029099583625793, -0.1524679809808731, -0.7936712503433228, -0.9745327234268188, 0.0622095949947834, -0.47964884197637797, 0.4949998306040868, -2.0847507240101577, 9362.0, 30146.0, 35388.0, 9362.0, 8.409917831420898, 0.05353197827935219, -0.14436739683151245, -0.12355329841375351, 0.006116329226642847, -0.06510433554649353, 1.0009161233901978, -0.05403532087802887, 0.06792068481445312, 1.50146484375, 1.44140625, 0.0914459228515625, 1.4970703125, 1.446533203125, 10.0, 1.4003595113754272, 1.5, 1.4003595113754272
17452, -2.8882408142089844, 3.8145525455474854, -1.1870039701461792, -0.02995728887617588, 0.023744339123368263, -1.0988820791244507, -0.19599023461341858, 0.15537013113498688, -0.15280620753765106, -0.7936798930168152, -0.9745321869850159, 0.062193676829338074, -0.4779009508772173, 0.4960213693922242, -2.10006175859536, 9362.0, 30146.0, 35388.0, 9362.0, 8.409917831420898, -0.23090125620365143, -0.24541808664798737, 0.473583847284317, 0.0056535364128649235, -0.06566864997148514, 0.9994692206382751, -0.05403532087802887, 0.06792068481445312, 1.50146484375, 1.119140625, 1.04302978515625, 1.493408203125, 1.46044921875, 10.0, 1.3994685411453247, 1.5, 1.3994685411453247
17462, -2.887223482131958, 3.8139753341674805, -1.1863294839859009, -0.031949277967214584, 0.02532343380153179, -1.1004117727279663, -0.20240764319896698, 0.16044864058494568, -0.15312422811985016, -0.793666660785675, -0.9745524525642395, 0.06220731884241104, -0.48480348966497255, 0.48094030095757034, -2.078881891251712, 9362.0, 30146.0, 35388.0, 9362.0, 8.390083312988281, -0.03850572928786278, 0.28048408031463623, 0.2910067141056061, 0.007851519621908665, -0.06528881937265396, 0.9974134564399719, -0.05403532087802887, 0.06792068481445312, 1.50146484375, 1.434814453125, 0.081787109375, 1.493408203125, 1.14697265625, 10.0, 1.399580478668213, 1.5, 1.399580478668213
17472, -2.887833595275879, 3.8116979598999023, -1.1850883960723877, -0.03400534763932228, 0.02695324458181858, -1.1019458770751953, -0.20880652964115143, 0.16551335155963898, -0.15370039641857147, -0.7936833500862122, -0.9745431542396545, 0.06214345991611481, -0.48882963150895553, 0.48802905816873476, -2.084594522332728, 9362.0, 30146.0, 35388.0, 9362.0, 8.390083312988281, 0.15147405862808228, 0.009077963419258595, 0.09556785970926285, 0.008787819184362888, -0.0651731789112091, 0.9954643249511719, -0.051978159695863724, 0.10376167297363281, 1.50439453125, 1.31396484375, 0.0325469970703125, 1.4912109375, 1.534423828125, 10.0, 1.3993092775344849, 1.5, 1.3993092775344849
17482, -2.8881754875183105, 3.8132760524749756, -1.1862035989761353, -0.036125361919403076, 0.028633659705519676, -1.10348641872406, -0.21519610285758972, 0.17056947946548462, -0.15440604090690613, -0.7936704158782959, -0.9745398163795471, 0.06216990575194359, -0.4807659825794879, 0.486241781111147, -2.0844102306523578, 9362.0, 30146.0, 35388.0, 9362.0, 8.390083312988281, -0.01792047545313835, -0.284469336271286, -0.2020919770002365, 0.006223250646144152, -0.06434332579374313, 0.9983553290367126, -0.051978159695863724, 0.10376167297363281, 1.50439453125, 1.2216796875, 0.27325439453125, 1.4912109375, 1.5556640625, 10.0, 1.3987464904785156, 1.5, 1.3987464904785156
17492, -2.8877198696136475, 3.8157238960266113, -1.1854699850082397, -0.03830927610397339, 0.030364660546183586, -1.1050336360931396, -0.22158673405647278, 0.17563068866729736, -0.15503506362438202, -0.7937250137329102, -0.9745421409606934, 0.06213395670056343, -0.4910182362446918, 0.510073578581256, -2.0804124173694603, 9362.0, 30146.0, 35388.0, 9362.0, 8.390083312988281, -0.08342070132493973, -0.2190532088279724, -0.26224347949028015, 0.004229819402098656, -0.06526453793048859, 0.9985795617103577, -0.051978159695863724, 0.10376167297363281, 1.50439453125, 1.18212890625, 0.49395751953125, 1.489013671875, 1.497802734375, 10.0, 1.3987464904785156, 1.5, 1.3987464904785156
17502, -2.8870389461517334, 3.816192626953125, -1.1856141090393066, -0.03830927610397339, 0.030364660546183586, -1.1050336360931396, -0.22158673405647278, 0.17563068866729736, -0.15503506362438202, -0.7936689853668213, -0.974553644657135, 0.062184322625398636, -0.49768945345838134, 0.4874450345819241, -2.0688879390090773, 9362.0, 30146.0, 35388.0, 9362.0, 8.390083312988281, 0.10013463348150253, -0.010047114454209805, 0.1042080968618393, 0.004229819402098656, -0.06526453793048859, 0.9985795617103577, -0.051978159695863724, 0.10376167297363281, 1.50439453125, 1.18212890625, 0.49395751953125, 1.489013671875, 1.497802734375, 10.0, 1.3987464904785156, 1.5, 1.3987464904785156
17512, -2.885754346847534, 3.816359519958496, -1.1874749660491943, -0.04286915436387062, 0.03397870808839798, -1.1081430912017822, -0.23440125584602356, 0.18577229976654053, -0.15593145787715912, -0.7936798930168152, -0.9745474457740784, 0.06215733289718628, -0.4903757358288211, 0.47996486960846596, -2.0905557862558912, 9362.0, 30146.0, 35388.0, 9362.0, 8.390083312988281, -0.03752351552248001, -0.026903845369815826, -0.2741853594779968, 0.004229819402098656, -0.06526453793048859, 0.9985795617103577, -0.051978159695863724, 0.10376167297363281, 1.50439453125, 1.18212890625, 0.49395751953125, 1.489013671875, 1.525634765625, 10.0, 1.3987464904785156, 1.5, 1.3987464904785156
17522, -2.885408401489258, 3.8144423961639404, -1.189162254333496, -0.0452452190220356, 0.0358617790043354, -1.109704613685608, -0.24081136286258698, 0.19084185361862183, -0.15637920796871185, -0.7936882972717285, -0.9745416641235352, 0.06213406100869179, -0.4966813045318269, 0.5102993256866455, -2.0975244073488097, 9362.0, 30146.0, 35388.0, 9362.0, 8.390083312988281, -0.08973964303731918, 0.0367962121963501, -0.15607069432735443, 0.004229819402098656, -0.06526453793048859, 0.9985795617103577, -0.051978159695863724, 0.10376167297363281, 1.50439453125, 1.18212890625, 0.49395751953125, 1.489013671875, 1.525634765625, 10.0, 1.3987464904785156, 1.5, 1.3987464904785156
17532, -2.885235071182251, 3.816896915435791, -1.1882667541503906, -0.04768536612391472, 0.03779551759362221, -1.1112709045410156, -0.2472177892923355, 0.1959063708782196, -0.15688511729240417, -0.7937441468238831, -0.9745410680770874, 0.06207560375332832, -0.49930045149568847, 0.4749248005138895, -2.0853676221765443, 9362.0, 30146.0, 35388.0, 9362.0, 8.390083312988281, -0.06144588068127632, -0.15966127812862396, 0.31503739953041077, 0.004229819402098656, -0.06526453793048859, 0.9985795617103577, -0.051978159695863724, 0.10376167297363281, 1.50439453125, 1.18212890625, 0.49395751953125, 1.489013671875, 1.4736328125, 10.0, 1.3987464904785156, 1.5, 1.3987464904785156
17542, -2.885690689086914, 3.8144073486328125, -1.1860156059265137, -0.050189536064863205, 0.03977988287806511, -1.1128426790237427, -0.25361621379852295, 0.20096632838249207, -0.15746478736400604, -0.7937027215957642, -0.974542498588562, 0.06218627840280533, -0.49390960837871356, 0.4908928930823322, -2.075295766283397, 9362.0, 30146.0, 35388.0, 9362.0, 8.390083312988281, -0.06144588068127632, -0.15966127812862396, 0.31503739953041077, 0.004229819402098656, -0.06526453793048859, 0.9985795617103577, -0.051978159695863724, 0.10376167297363281, 1.50439453125, 1.18212890625, 0.49395751953125, 1.489013671875, 1.2333984375, 10.0, 1.3953279256820679, 1.5, 1.3953279256820679
17552, -2.8848752975463867, 3.8139359951019287, -1.1877915859222412, -0.050189536064863205, 0.03977988287806511, -1.1128426790237427, -0.25361621379852295, 0.20096632838249207, -0.15746478736400604, -0.793696403503418, -0.9745398759841919, 0.06216195225715637, -0.4912429278730893, 0.49893986129180234, -2.098593222517958, 9362.0, 30146.0, 35388.0, 9362.0, 8.390083312988281, 0.1253071278333664, -0.054752957075834274, -0.25653621554374695, 0.005336335860192776, -0.06473084539175034, 0.9976497888565063, -0.051978159695863724, 0.10376167297363281, 1.50439453125, 1.18212890625, 0.49395751953125, 1.489013671875, 1.480224609375, 10.0, 1.3953279256820679, 1.5, 1.3953279256820679
17562, -2.885205030441284, 3.81366229057312, -1.1869927644729614, -0.05539004132151604, 0.043900519609451294, -1.1160013675689697, -0.2664298713207245, 0.21109600365161896, -0.15843471884727478, -0.793691098690033, -0.9745557904243469, 0.06213236600160599, -0.48607507490339, 0.4970392543299056, -2.0803555287089117, 9362.0, 30146.0, 35388.0, 9362.0, 8.409917831420898, 0.1253071278333664, -0.054752957075834274, -0.25653621554374695, 0.005336335860192776, -0.06473084539175034, 0.9976497888565063, -0.051978159695863724, 0.10376167297363281, 1.50439453125, 1.18212890625, 0.49395751953125, 1.489013671875, 1.524169921875, 10.0, 1.3942632675170898, 1.5, 1.3942632675170898
17572, -2.8846254348754883, 3.8175265789031982, -1.186245083808899, -0.05539004132151604, 0.043900519609451294, -1.1160013675689697, -0.2664298713207245, 0.21109600365161896, -0.15843471884727478, -0.7936858534812927, -0.9745453596115112, 0.06214156746864319, -0.4948705393003564, 0.49825237120450083, -2.0805518250789636, 9362.0, 30146.0, 35388.0, 9362.0, 8.409917831420898, 0.03297516331076622, -0.10334939509630203, -0.06983545422554016, 0.005191207397729158, -0.06438352912664413, 0.9985939860343933, -0.051978159695863724, 0.10376167297363281, 1.50439453125, 1.18212890625, 0.49395751953125, 1.489013671875, 1.452392578125, 10.0, 1.3942632675170898, 1.5, 1.3942632675170898
17652, -2.8875393867492676, 3.8143393993377686, -1.18966543674469, -0.07560895383358002, 0.059917401522397995, -1.127224326133728, -0.3112705945968628, 0.24654211103916168, -0.16210119426250458, -0.7936728596687317, -0.9745421409606934, 0.06212693080306053, -0.4930012018859554, 0.479621537827569, -2.086334453037689, 9362.0, 30146.0, 35388.0, 9362.0, 8.409917831420898, -0.11815649271011353, 0.366996705532074, 0.01603124290704727, 0.006299389060586691, -0.06531056016683578, 0.9959690570831299, -0.051978159695863724, 0.10376167297363281, 1.50439453125, 1.18212890625, 0.49395751953125, 1.48974609375, 1.19970703125, 10.0, 1.3950443267822266, 1.5, 1.3950443267822266
17662, -2.88828706741333, 3.8121280670166016, -1.188919186592102, -0.07560895383358002, 0.059917401522397995, -1.127224326133728, -0.3112705945968628, 0.24654211103916168, -0.16210119426250458, -0.793694794178009, -0.9745470285415649, 0.06212949380278587, -0.4951710983900583, 0.5149835480615081, -2.0720600417627035, 9362.0, 30146.0, 35388.0, 9362.0, 8.409917831420898, -0.11815649271011353, 0.366996705532074, 0.01603124290704727, 0.006148418411612511, -0.062686987221241, 0.9968208074569702, -0.051978159695863724, 0.10376167297363281, 1.50439453125, 1.18212890625, 0.49395751953125, 1.48974609375, 1.15283203125, 10.0, 1.3954277038574219, 1.5, 1.3954277038574219
17672, -2.8873131275177, 3.8119728565216064, -1.1902517080307007, -0.07560895383358002, 0.059917401522397995, -1.127224326133728, -0.3112705945968628, 0.24654211103916168, -0.16210119426250458, -0.7936769723892212, -0.9745338559150696, 0.062146298587322235, -0.4909349499529931, 0.4789599470325925, -2.0818194306593933, 9362.0, 30146.0, 35388.0, 9362.0, 8.409917831420898, 0.16345280408859253, -0.1121082603931427, -0.34218284487724304, 0.006331322249025106, -0.06397570669651031, 0.9979643821716309, -0.051978159695863724, 0.10376167297363281, 1.50439453125, 1.18212890625, 0.49395751953125, 1.48974609375, 1.53662109375, 10.0, 1.3954277038574219, 1.5, 1.3954277038574219
17682, -2.8873329162597656, 3.810638666152954, -1.1904876232147217, -0.07560895383358002, 0.059917401522397995, -1.127224326133728, -0.3112705945968628, 0.24654211103916168, -0.16210119426250458, -0.7936980724334717, -0.9745420217514038, 0.06213768199086189, -0.48761793790233837, 0.5066620532135175, -2.0971434843698757, 9362.0, 30146.0, 35388.0, 9362.0, 8.409917831420898, 0.16345280408859253, -0.1121082603931427, -0.34218284487724304, 0.0048016998916864395, -0.06605670601129532, 0.9973210692405701, -0.051978159695863724, 0.10376167297363281, 1.50439453125, 1.18212890625, 0.49395751953125, 1.48974609375, 1.50439453125, 10.0, 1.3954277038574219, 1.5, 1.3954277038574219
17692, -2.887403726577759, 3.808706283569336, -1.1887191534042358, -0.07560895383358002, 0.059917401522397995, -1.127224326133728, -0.3112705945968628, 0.24654211103916168, -0.16210119426250458, -0.7936848998069763, -0.974531352519989, 0.062121808528900146, -0.4887451552861391, 0.4829388037379374, -2.085221313302926, 9362.0, 30146.0, 35388.0, 9362.0, 8.409917831420898, 0.16345280408859253, -0.1121082603931427, -0.34218284487724304, 0.006135941483080387, -0.06532232463359833, 0.9970985054969788, -0.051978159695863724, 0.10376167297363281, 1.50439453125, 1.18212890625, 0.49395751953125, 1.48974609375, 1.524169921875, 10.0, 1.3954277038574219, 1.5, 1.3954277038574219
17702, -2.8874213695526123, 3.806408405303955, -1.1893224716186523, -0.07560895383358002, 0.059917401522397995, -1.127224326133728, -0.3112705945968628, 0.24654211103916168, -0.16210119426250458, -0.793696939945221, -0.9745351076126099, 0.06212196871638298, -0.49222762438824724, 0.49029248342398546, -2.0880523345527906, 9362.0, 30146.0, 35388.0, 9362.0, 8.409917831420898, 0.16345280408859253, -0.1121082603931427, -0.34218284487724304, 0.0062996940687298775, -0.0647720918059349, 0.9995437264442444, -0.051978159695863724, 0.10376167297363281, 1.50439453125, 1.18212890625, 0.49395751953125, 1.48974609375, 1.5380859375, 10.0, 1.3954277038574219, 1.5, 1.3954277038574219
17712, -2.8861827850341797, 3.807828187942505, -1.19061279296875, -0.07560895383358002, 0.059917401522397995, -1.127224326133728, -0.3112705945968628, 0.24654211103916168, -0.16210119426250458, -0.7937003374099731, -0.9745407700538635, 0.06213488057255745, -0.48774321079284194, 0.49972069794858953, -2.1008382972719186, 9362.0, 30146.0, 35388.0, 9362.0, 8.409917831420898, 0.16345280408859253, -0.1121082603931427, -0.34218284487724304, 0.00498028751462698, -0.06462904810905457, 0.9988215565681458, -0.051978159695863724, 0.10376167297363281, 1.50439453125, 1.18212890625, 0.49395751953125, 1.48974609375, 1.53076171875, 10.0, 1.3954277038574219, 1.5, 1.3954277038574219
17722, -2.8855984210968018, 3.8081560134887695, -1.1918123960494995, -0.07560895383358002, 0.059917401522397995, -1.127224326133728, -0.3112705945968628, 0.24654211103916168, -0.16210119426250458, -0.7937310338020325, -0.9745458364486694, 0.06209535151720047, -0.4964647382873861, 0.5112683010943044, -2.0760745525366344, 9362.0, 30146.0, 35388.0, 9362.0, 8.409917831420898, 0.16345280408859253, -0.1121082603931427, -0.34218284487724304, 0.006514358334243298, -0.06269311159849167, 0.9990770816802979, -0.051978159695863724, 0.10376167297363281, 1.50439453125, 1.18212890625, 0.49395751953125, 1.48974609375, 1.52197265625, 10.0, 1.3954277038574219, 1.5, 1.3954277038574219
17732, -2.8852651119232178, 3.808821439743042, -1.1921979188919067, -0.07560895383358002, 0.059917401522397995, -1.127224326133728, -0.3112705945968628, 0.24654211103916168, -0.16210119426250458, -0.7937011122703552, -0.9745303988456726, 0.06214315816760063, -0.4879792629895423, 0.49275593397203465, -2.0979486652009216, 9362.0, 30146.0, 35388.0, 9362.0, 8.409917831420898, 0.16345280408859253, -0.1121082603931427, -0.34218284487724304, 0.006176229100674391, -0.06256648153066635, 0.9974620938301086, -0.051978159695863724, 0.10376167297363281, 1.50439453125, 1.18212890625, 0.49395751953125, 1.48974609375, 1.538818359375, 10.0, 1.3954277038574219, 1.5, 1.3954277038574219
17742, -2.8844594955444336, 3.806891441345215, -1.190966010093689, -0.07560895383358002, 0.059917401522397995, -1.127224326133728, -0.3112705945968628, 0.24654211103916168, -0.16210119426250458, -0.7936795353889465, -0.9745386838912964, 0.062157511711120605, -0.494673260197048, 0.4848090113974308, -2.0811630682084536, 9362.0, 30146.0, 35388.0, 9362.0, 8.409917831420898, 0.03670958802103996, -0.0044476622715592384, -0.033535122871398926, 0.005599623080343008, -0.06460187584161758, 0.9982127547264099, -0.051978159695863724, 0.10376167297363281, 1.50439453125, 1.18212890625, 0.49395751953125, 1.48974609375, 1.538818359375, 10.0, 1.397175908088684, 1.5, 1.397175908088684
17752, -2.8849804401397705, 3.8077428340911865, -1.191892385482788, -0.07560895383358002, 0.059917401522397995, -1.127224326133728, -0.3112705945968628, 0.24654211103916168, -0.16210119426250458, -0.7936794757843018, -0.9745569825172424, 0.06215960904955864, -0.4908546289541589, 0.4888750531836479, -2.0782089495636953, 9362.0, 30146.0, 35388.0, 9362.0, 8.409917831420898, -0.13094019889831543, -0.3602710962295532, -0.2616160213947296, 0.006175082642585039, -0.06547706574201584, 0.9975244402885437, -0.051978159695863724, 0.10376167297363281, 1.50439453125, 1.18212890625, 0.49395751953125, 1.48974609375, 1.538818359375, 10.0, 1.3964741230010986, 1.5, 1.3964741230010986
17762, -2.88442325592041, 3.8060719966888428, -1.1896828413009644, -0.07560895383358002, 0.059917401522397995, -1.127224326133728, -0.3112705945968628, 0.24654211103916168, -0.16210119426250458, -0.7936834692955017, -0.9745472073554993, 0.06212523579597473, -0.4821594321232504, 0.48915917866381164, -2.0838196788941086, 9362.0, 30146.0, 35388.0, 9362.0, 8.409917831420898, -0.13094019889831543, -0.3602710962295532, -0.2616160213947296, 0.006493314169347286, -0.06652850657701492, 0.9970577359199524, -0.051978159695863724, 0.10376167297363281, 1.50439453125, 1.18212890625, 0.49395751953125, 1.48974609375, 1.24658203125, 10.0, 1.3969178199768066, 1.5, 1.3969178199768066
17772, -2.884638547897339, 3.8064560890197754, -1.190487265586853, -0.07560895383358002, 0.059917401522397995, -1.127224326133728, -0.3112705945968628, 0.24654211103916168, -0.16210119426250458, -0.7936946153640747, -0.9745384454727173, 0.062132880091667175, -0.4896556617589477, 0.4837341799316448, -2.0895324248412193, 9362.0, 30146.0, 35388.0, 9362.0, 8.409917831420898, 0.008985691703855991, -0.06336262822151184, 0.06506413966417313, 0.005306441802531481, -0.06510740518569946, 0.9989500641822815, -0.051978159695863724, 0.10376167297363281, 1.50439453125, 1.18212890625, 0.49395751953125, 1.48974609375, 1.24658203125, 10.0, 1.3967108726501465, 1.5, 1.3967108726501465
17782, -2.8847060203552246, 3.8108482360839844, -1.1898987293243408, -0.07560895383358002, 0.059917401522397995, -1.127224326133728, -0.3112705945968628, 0.24654211103916168, -0.16210119426250458, -0.7936863899230957, -0.9745504856109619, 0.062140971422195435, -0.5012889335274595, 0.5021909608619524, -2.078715127461648, 9362.0, 30146.0, 35388.0, 9362.0, 8.409917831420898, 0.008985691703855991, -0.06336262822151184, 0.06506413966417313, 0.004267732612788677, -0.06423436105251312, 0.9961842894554138, -0.051978159695863724, 0.10376167297363281, 1.50439453125, 1.18212890625, 0.49395751953125, 1.48974609375, 1.399658203125, 10.0, 1.3967108726501465, 1.5, 1.3967108726501465
17792, -2.8845291137695312, 3.810458183288574, -1.1905622482299805, -0.133603036403656, 0.1058487668633461, -1.15383780002594, -0.4135800898075104, 0.3275664150714874, -0.1707686483860016, -0.7936927080154419, -0.9745444059371948, 0.06214913725852966, -0.48941443186078804, 0.4709018341977469, -2.083618696964972, 9362.0, 30146.0, 35388.0, 9362.0, 8.409917831420898, 0.008985691703855991, -0.06336262822151184, 0.06506413966417313, 0.004267732612788677, -0.06423436105251312, 0.9961842894554138, -0.051978159695863724, 0.10376167297363281, 1.50439453125, 1.18212890625, 0.49395751953125, 1.494873046875, 1.399658203125, 10.0, 1.3967108726501465, 1.5, 1.3967108726501465
17802, -2.8836047649383545, 3.812697172164917, -1.189076542854309, -0.13777080178260803, 0.10914972424507141, -1.155548334121704, -0.4199722409248352, 0.3326253294944763, -0.17134805023670197, -0.7937355041503906, -0.9745609164237976, 0.062126412987709045, -0.49651562519825637, 0.5247692676124132, -2.081358668533982, 9362.0, 30146.0, 35388.0, 9362.0, 8.409917831420898, 0.008985691703855991, -0.06336262822151184, 0.06506413966417313, 0.004267732612788677, -0.06423436105251312, 0.9961842894554138, -0.051978159695863724, 0.10376167297363281, 1.50439453125, 1.18212890625, 0.49395751953125, 1.494873046875, 1.250244140625, 10.0, 1.3967108726501465, 1.5, 1.3967108726501465
17812, -2.8817827701568604, 3.811213254928589, -1.189708948135376, -0.14200253784656525, 0.11250131577253342, -1.1572638750076294, -0.4263751804828644, 0.3376927077770233, -0.17175422608852386, -0.7936772108078003, -0.9745535254478455, 0.06216120719909668, -0.4909572254348213, 0.48876044570738486, -2.0832049027635517, 9362.0, 30146.0, 35388.0, 9362.0, 8.409917831420898, 0.008985691703855991, -0.06336262822151184, 0.06506413966417313, 0.004116730764508247, -0.06311983615159988, 0.9994189143180847, -0.051978159695863724, 0.10376167297363281, 1.50439453125, 1.18212890625, 0.49395751953125, 1.493408203125, 1.250244140625, 10.0, 1.3967108726501465, 1.5, 1.3967108726501465
17822, -2.882477283477783, 3.811103582382202, -1.1888642311096191, -0.1462983340024948, 0.1159035861492157, -1.1589832305908203, -0.43278491497039795, 0.34276098012924194, -0.17211447656154633, -0.7936779856681824, -0.9745470881462097, 0.062133997678756714, -0.4884329880532209, 0.4865162922473303, -2.0783142295672077, 9362.0, 30146.0, 35388.0, 9362.0, 8.409917831420898, 0.008985691703855991, -0.06336262822151184, 0.06506413966417313, 0.004116730764508247, -0.06311983615159988, 0.9994189143180847, -0.051978159695863724, 0.10376167297363281, 1.50439453125, 1.18212890625, 0.49395751953125, 1.493408203125, 1.270751953125, 10.0, 1.3967108726501465, 1.5, 1.3967108726501465
17832, -2.8829216957092285, 3.8101806640625, -1.1872671842575073, -0.1462983340024948, 0.1159035861492157, -1.1589832305908203, -0.43278491497039795, 0.34276098012924194, -0.17211447656154633, -0.7936834692955017, -0.9745539426803589, 0.06213497370481491, -0.49706186472210256, 0.48551122189977036, -2.084548091524432, 9362.0, 30146.0, 35388.0, 9362.0, 8.409917831420898, 0.008985691703855991, -0.06336262822151184, 0.06506413966417313, 0.00717155821621418, -0.06364885717630386, 1.0001680850982666, -0.051978159695863724, 0.10376167297363281, 1.50439453125, 1.18212890625, 0.49395751953125, 1.49267578125, 1.270751953125, 10.0, 1.3967108726501465, 1.5, 1.3967108726501465
17842, -2.8812553882598877, 3.8112244606018066, -1.1877015829086304, -0.15508213639259338, 0.12286008894443512, -1.1624332666397095, -0.4455985426902771, 0.3528912663459778, -0.17284980416297913, -0.7937185764312744, -0.9745499491691589, 0.06211496889591217, -0.49723036989156966, 0.5019048695727122, -2.0834071353744976, 9362.0, 30146.0, 35388.0, 9362.0, 8.409917831420898, -0.1892046183347702, -0.20078009366989136, 0.12334538996219635, 0.00717155821621418, -0.06364885717630386, 1.0001680850982666, -0.051978159695863724, 0.10376167297363281, 1.50439453125, 1.18212890625, 0.49395751953125, 1.49267578125, 1.50732421875, 10.0, 1.3967108726501465, 1.5, 1.3967108726501465
17852, -2.8822038173675537, 3.811833620071411, -1.1887284517288208, -0.15957011282444, 0.12641431391239166, -1.1641640663146973, -0.4519978165626526, 0.3579530715942383, -0.173307865858078, -0.7937002182006836, -0.9745482802391052, 0.06214454025030136, -0.4898974587684647, 0.48126399868797876, -2.075351542887951, 9362.0, 30146.0, 35388.0, 9362.0, 8.409917831420898, 0.13374167680740356, 0.1772976815700531, -0.24848735332489014, 0.00717155821621418, -0.06364885717630386, 1.0001680850982666, -0.051978159695863724, 0.10376167297363281, 1.50439453125, 1.18212890625, 0.49395751953125, 1.49267578125, 1.52197265625, 10.0, 1.3967108726501465, 1.5, 1.3967108726501465
17862, -2.8805105686187744, 3.810115337371826, -1.1881967782974243, -0.15957011282444, 0.12641431391239166, -1.1641640663146973, -0.4519978165626526, 0.3579530715942383, -0.173307865858078, -0.7936831712722778, -0.974544107913971, 0.062135592103004456, -0.4895339834131523, 0.47879757722512295, -2.080341976206053, 9362.0, 30146.0, 35388.0, 9362.0, 8.390083312988281, 0.13374167680740356, 0.1772976815700531, -0.24848735332489014, 0.005244204308837652, -0.06537573039531708, 0.9972547292709351, -0.051978159695863724, 0.10376167297363281, 1.50439453125, 1.18212890625, 0.49395751953125, 1.49267578125, 1.53515625, 10.0, 1.3967108726501465, 1.5, 1.3967108726501465
17872, -2.880559206008911, 3.8090693950653076, -1.1876602172851562, -0.15957011282444, 0.12641431391239166, -1.1641640663146973, -0.4519978165626526, 0.3579530715942383, -0.173307865858078, -0.7937273383140564, -0.9745458960533142, 0.062104348093271255, -0.49491420735924435, 0.5216575497818212, -2.0822804140155444, 9362.0, 30146.0, 35388.0, 9362.0, 8.390083312988281, 0.001344215008430183, 0.11393594741821289, 0.02048557810485363, 0.0067414212971925735, -0.06266134977340698, 0.9969077110290527, -0.051978159695863724, 0.10376167297363281, 1.50439453125, 1.18212890625, 0.49395751953125, 1.49267578125, 1.52783203125, 10.0, 1.3967108726501465, 1.5, 1.3967108726501465
17882, -2.880643129348755, 3.8066952228546143, -1.1872646808624268, -0.15957011282444, 0.12641431391239166, -1.1641640663146973, -0.4519978165626526, 0.3579530715942383, -0.173307865858078, -0.7937085628509521, -0.974543571472168, 0.06213826686143875, -0.48789726017727864, 0.4887369930686134, -2.0822545892821833, 9362.0, 30146.0, 35388.0, 9362.0, 8.390083312988281, 0.001344215008430183, 0.11393594741821289, 0.02048557810485363, 0.00673808204010129, -0.06273620575666428, 0.9960735440254211, -0.051978159695863724, 0.10376167297363281, 1.50439453125, 1.18212890625, 0.49395751953125, 1.49267578125, 1.146240234375, 10.0, 1.39676833152771, 1.5, 1.39676833152771
17892, -2.8801403045654297, 3.805527687072754, -1.1872901916503906, -0.15957011282444, 0.12641431391239166, -1.1641640663146973, -0.4519978165626526, 0.3579530715942383, -0.173307865858078, -0.7936863303184509, -0.9745391011238098, 0.06214576214551926, -0.4889939440858343, 0.48736540604718925, -2.081440492370878, 9362.0, 30146.0, 35388.0, 9362.0, 8.390083312988281, 0.000957963231485337, 0.15762010216712952, 0.1272016316652298, 0.005263035651296377, -0.06331824511289597, 0.9957459568977356, -0.051978159695863724, 0.10376167297363281, 1.50439453125, 1.18212890625, 0.49395751953125, 1.49267578125, 1.146240234375, 10.0, 1.39676833152771, 1.5, 1.39676833152771
17912, -2.880200147628784, 3.8058323860168457, -1.187982201576233, -0.18783974647521973, 0.14880038797855377, -1.1746777296066284, -0.49030041694641113, 0.388237863779068, -0.17730462551116943, -0.793706476688385, -0.974545419216156, 0.06213344261050224, -0.490509919631114, 0.49761304834640896, -2.0881509618470457, 9362.0, 30146.0, 35388.0, 9362.0, 8.390083312988281, -0.3198557496070862, 0.004088780377060175, 0.26957255601882935, 0.006037560757249594, -0.06388597190380096, 0.9989579319953918, -0.051978159695863724, 0.10376167297363281, 1.50439453125, 1.18212890625, 0.49395751953125, 1.49267578125, 1.406982421875, 10.0, 1.3961505889892578, 1.5, 1.3961505889892578
17922, -2.8802173137664795, 3.806778907775879, -1.1881963014602661, -0.1927747130393982, 0.1527080237865448, -1.1764532327651978, -0.49669161438941956, 0.3932904005050659, -0.17779049277305603, -0.7937076091766357, -0.9745413064956665, 0.06212124973535538, -0.49299751126929503, 0.5029467735760136, -2.0775904245100425, 9362.0, 30146.0, 35388.0, 9362.0, 8.390083312988281, -0.3198557496070862, 0.004088780377060175, 0.26957255601882935, 0.007371664047241211, -0.06461714953184128, 0.9990456104278564, -0.051978159695863724, 0.10376167297363281, 1.50439453125, 1.18212890625, 0.49395751953125, 1.49267578125, 1.348388671875, 10.0, 1.3952730894088745, 1.5, 1.3952730894088745
17942, -2.8793652057647705, 3.8057124614715576, -1.1867250204086304, -0.20283636450767517, 0.16067495942115784, -1.1800185441970825, -0.5094690322875977, 0.40339797735214233, -0.17882883548736572, -0.7937352657318115, -0.9745501279830933, 0.06207679212093353, -0.49633945958951975, 0.4721276615804868, -2.077209437633785, 9362.0, 30146.0, 35388.0, 9362.0, 8.390083312988281, -0.3198557496070862, 0.004088780377060175, 0.26957255601882935, 0.0055570597760379314, -0.06520182639360428, 0.9978192448616028, -0.051978159695863724, 0.10376167297363281, 1.50439453125, 1.18212890625, 0.49395751953125, 1.494873046875, 1.254638671875, 10.0, 1.3956834077835083, 1.5, 1.3956834077835083
17952, -2.879617691040039, 3.8081324100494385, -1.1866466999053955, -0.20283636450767517, 0.16067495942115784, -1.1800185441970825, -0.5094690322875977, 0.40339797735214233, -0.17882883548736572, -0.7936946749687195, -0.9745449423789978, 0.06213478744029999, -0.4871208876269039, 0.4927804656387025, -2.081375302584472, 9362.0, 30146.0, 35388.0, 9362.0, 8.390083312988281, -0.3198557496070862, 0.004088780377060175, 0.26957255601882935, 0.005294410046190023, -0.06449396908283234, 1.0017277002334595, -0.051978159695863724, 0.10376167297363281, 1.50439453125, 1.18212890625, 0.49395751953125, 1.49267578125, 1.254638671875, 10.0, 1.3966457843780518, 1.5, 1.3966457843780518
17962, -2.8780760765075684, 3.8079044818878174, -1.1878854036331177, -0.20283636450767517, 0.16067495942115784, -1.1800185441970825, -0.5094690322875977, 0.40339797735214233, -0.17882883548736572, -0.7936791181564331, -0.9745355248451233, 0.06215890869498253, -0.4915494205955173, 0.4856848291123299, -2.0742380701057086, 9362.0, 30146.0, 35388.0, 9362.0, 8.390083312988281, -0.3198557496070862, 0.004088780377060175, 0.26957255601882935, 0.006071502808481455, -0.06513077020645142, 0.9983073472976685, -0.051978159695863724, 0.10376167297363281, 1.50439453125, 1.18212890625, 0.49395751953125, 1.49267578125, 1.142578125, 10.0, 1.3970308303833008, 1.5, 1.3970308303833008
17972, -2.8778326511383057, 3.8062033653259277, -1.187450647354126, -0.20283636450767517, 0.16067495942115784, -1.1800185441970825, -0.5094690322875977, 0.40339797735214233, -0.17882883548736572, -0.7937068939208984, -0.9745418429374695, 0.062159739434719086, -0.49584011607619527, 0.5004981257017675, -2.086530852910207, 9362.0, 30146.0, 35388.0, 9362.0, 8.390083312988281, 0.07725587487220764, -0.2607145607471466, -0.3276738226413727, 0.004881673026829958, -0.06515392661094666, 0.9973099231719971, -0.051978159695863724, 0.10376167297363281, 1.50439453125, 1.18212890625, 0.49395751953125, 1.49267578125, 1.53076171875, 10.0, 1.3970308303833008, 1.5, 1.3970308303833008
17982, -2.8766255378723145, 3.807079315185547, -1.1892203092575073, -0.20283636450767517, 0.16067495942115784, -1.1800185441970825, -0.5094690322875977, 0.40339797735214233, -0.17882883548736572, -0.7937357425689697, -0.9745451807975769, 0.06207212433218956, -0.5019966685646394, 0.4650505010946233, -2.075717268967927, 9362.0, 30146.0, 35388.0, 9362.0, 8.390083312988281, 0.07725587487220764, -0.2607145607471466, -0.3276738226413727, 0.005933342035859823, -0.06516307592391968, 0.9976853132247925, -0.051978159695863724, 0.10376167297363281, 1.50439453125, 1.18212890625, 0.49395751953125, 1.49267578125, 1.54541015625, 10.0, 1.3970308303833008, 1.5, 1.3970308303833008
17992, -2.8767073154449463, 3.805553674697876, -1.1890736818313599, -0.20283636450767517, 0.16067495942115784, -1.1800185441970825, -0.5094690322875977, 0.40339797735214233, -0.17882883548736572, -0.7937118411064148, -0.9745373725891113, 0.06214055418968201, -0.4933250086831854, 0.4894040464589011, -2.08807027802509, 9362.0, 30146.0, 35388.0, 9362.0, 8.390083312988281, -0.049257829785346985, 0.36386367678642273, 0.2509745657444, 0.00770711712539196, -0.06301207095384598, 0.9975259900093079, -0.051978159695863724, 0.10376167297363281, 1.50439453125, 1.18212890625, 0.49395751953125, 1.49267578125, 1.528564453125, 10.0, 1.3970308303833008, 1.5, 1.3970308303833008
18002, -2.877349853515625, 3.80220890045166, -1.1876133680343628, -0.20283636450767517, 0.16067495942115784, -1.1800185441970825, -0.5094690322875977, 0.40339797735214233, -0.17882883548736572, -0.7937234044075012, -0.9745378494262695, 0.062102701514959335, -0.48901133943993563, 0.5064405976833939, -2.078271095496913, 9362.0, 30146.0, 35388.0, 9362.0, 8.390083312988281, -0.049257829785346985, 0.36386367678642273, 0.2509745657444, 0.007010379806160927, -0.061930861324071884, 0.9987711310386658, -0.051978159695863724, 0.10376167297363281, 1.50439453125, 1.18212890625, 0.49395751953125, 1.49267578125, 1.5205078125, 10.0, 1.3970308303833008, 1.5, 1.3970308303833008
18012, -2.878650188446045, 3.8026063442230225, -1.1868990659713745, -0.20283636450767517, 0.16067495942115784, -1.1800185441970825, -0.5094690322875977, 0.40339797735214233, -0.17882883548736572, -0.7937053442001343, -0.9745346307754517, 0.06215311959385872, -0.49143699323365453, 0.4875634688652042, -2.0880265418998585, 9362.0, 30146.0, 35388.0, 9362.0, 8.390083312988281, -0.17981167137622833, 0.1982754021883011, 0.07778015732765198, 0.007218923419713974, -0.06329391151666641, 0.9975778460502625, -0.051978159695863724, 0.10376167297363281, 1.50439453125, 1.18212890625, 0.49395751953125, 1.49267578125, 1.553466796875, 10.0, 1.3970308303833008, 1.5, 1.3970308303833008
18022, -2.8785057067871094, 3.80285906791687, -1.1871516704559326, -0.20283636450767517, 0.16067495942115784, -1.1800185441970825, -0.5094690322875977, 0.40339797735214233, -0.17882883548736572, -0.7937059998512268, -0.9745438694953918, 0.062152668833732605, -0.49381554642370606, 0.49800743121008395, -2.0895195142731398, 9362.0, 30146.0, 35388.0, 9362.0, 8.390083312988281, 0.03459905833005905, 0.2878435254096985, -0.0336025170981884, 0.0053377351723611355, -0.06360837072134018, 0.999031126499176, -0.051978159695863724, 0.10376167297363281, 1.50439453125, 1.18212890625, 0.49395751953125, 1.49267578125, 1.4853515625, 10.0, 1.3970308303833008, 1.5, 1.3970308303833008
18032, -2.8776073455810547, 3.8037350177764893, -1.1872658729553223, -0.20283636450767517, 0.16067495942115784, -1.1800185441970825, -0.5094690322875977, 0.40339797735214233, -0.17882883548736572, -0.7937501072883606, -0.9745396971702576, 0.06205179914832115, -0.49251698921317905, 0.4579218332577, -2.068163926784263, 9362.0, 30146.0, 35388.0, 9362.0, 8.390083312988281, 0.03459905833005905, 0.2878435254096985, -0.0336025170981884, 0.0026434145402163267, -0.06434465944766998, 0.9987268447875977, -0.051978159695863724, 0.10376167297363281, 1.50439453125, 1.18212890625, 0.49395751953125, 1.49267578125, 1.4853515625, 10.0, 1.396911859512329, 1.5, 1.396911859512329
18042, -2.877445697784424, 3.8042376041412354, -1.1886823177337646, -0.20283636450767517, 0.16067495942115784, -1.1800185441970825, -0.5094690322875977, 0.40339797735214233, -0.17882883548736572, -0.7937199473381042, -0.9745323061943054, 0.06212051212787628, -0.49784941386475795, 0.49024449278621773, -2.0855260495081445, 9362.0, 30146.0, 35388.0, 9362.0, 8.390083312988281, 0.03459905833005905, 0.2878435254096985, -0.0336025170981884, 0.005220368038862944, -0.06425508111715317, 1.0002983808517456, -0.051978159695863724, 0.10376167297363281, 1.50439453125, 1.18212890625, 0.49395751953125, 1.49267578125, 1.4853515625, 10.0, 1.3973331451416016, 1.5, 1.3973331451416016
18052, -2.876486301422119, 3.805647611618042, -1.1918551921844482, -0.20283636450767517, 0.16067495942115784, -1.1800185441970825, -0.5094690322875977, 0.40339797735214233, -0.17882883548736572, -0.7936855554580688, -0.9745423793792725, 0.06214504688978195, -0.4877298981221748, 0.47648670202738685, -2.081775590819769, 9362.0, 30146.0, 35388.0, 9362.0, 8.390083312988281, -0.044009044766426086, -0.2099902629852295, -0.18931002914905548, 0.007801507133990526, -0.06125074625015259, 0.9994730353355408, -0.051978159695863724, 0.10376167297363281, 1.50439453125, 1.18212890625, 0.49395751953125, 1.49267578125, 1.4853515625, 10.0, 1.3972129821777344, 1.5, 1.3972129821777344
18062, -2.8757541179656982, 3.8039984703063965, -1.1900091171264648, -0.20283636450767517, 0.16067495942115784, -1.1800185441970825, -0.5094690322875977, 0.40339797735214233, -0.17882883548736572, -0.7937601804733276, -0.9745489358901978, 0.06209120899438858, -0.4956165701476159, 0.4728376374097536, -2.0781467806816383, 9362.0, 30146.0, 35388.0, 9362.0, 8.390083312988281, -0.044009044766426086, -0.2099902629852295, -0.18931002914905548, 0.006281479261815548, -0.06378252059221268, 0.9972474575042725, -0.051978159695863724, 0.10376167297363281, 1.50439453125, 1.18212890625, 0.49395751953125, 1.49267578125, 1.203369140625, 10.0, 1.3972129821777344, 1.5, 1.3972129821777344
18072, -2.876405954360962, 3.8083720207214355, -1.1902494430541992, -0.27446645498275757, 0.21738563477993011, -1.2036828994750977, -0.5925261974334717, 0.4690713584423065, -0.18513211607933044, -0.7937556505203247, -0.9745534658432007, 0.06207790970802307, -0.49834137366105774, 0.5175877109537055, -2.0706941636984255, 9362.0, 30146.0, 35388.0, 9362.0, 8.390083312988281, -0.044009044766426086, -0.2099902629852295, -0.18931002914905548, 0.004877761472016573, -0.06454183906316757, 0.9966694712638855, -0.07712957262992859, 0.03208160400390625, 1.49853515625, 1.18212890625, 0.49395751953125, 1.491943359375, 1.203369140625, 10.0, 1.397936463356018, 1.5, 1.397936463356018
18082, -2.87666392326355, 3.807819128036499, -1.1894466876983643, -0.2804235816001892, 0.22210153937339783, -1.2055375576019287, -0.598900556564331, 0.47410959005355835, -0.1858094483613968, -0.7937643527984619, -0.9745488166809082, 0.062033288180828094, -0.4999273151881648, 0.46495789102900176, -2.0701019800605014, 9362.0, 30146.0, 35388.0, 9362.0, 8.390083312988281, -0.11368458718061447, -0.036077942699193954, -0.047369252890348434, 0.004877761472016573, -0.06454183906316757, 0.9966694712638855, -0.07712957262992859, 0.03208160400390625, 1.49853515625, 1.18212890625, 0.49395751953125, 1.491943359375, 1.203369140625, 10.0, 1.3972535133361816, 1.5, 1.3972535133361816
18092, -2.877859354019165, 3.8086917400360107, -1.1900029182434082, -0.2804235816001892, 0.22210153937339783, -1.2055375576019287, -0.598900556564331, 0.47410959005355835, -0.1858094483613968, -0.7937049269676208, -0.9745470285415649, 0.06212753430008888, -0.4920340873528052, 0.4964988281692797, -2.0942875176162437, 9362.0, 30146.0, 35388.0, 9362.0, 8.390083312988281, -0.11368458718061447, -0.036077942699193954, -0.047369252890348434, 0.004877761472016573, -0.06454183906316757, 0.9966694712638855, -0.07712957262992859, 0.03208160400390625, 1.49853515625, 1.18212890625, 0.49395751953125, 1.4970703125, 1.203369140625, 10.0, 1.397618055343628, 1.5, 1.397618055343628
18102, -2.8785812854766846, 3.8077261447906494, -1.1919580698013306, -0.2804235816001892, 0.22210153937339783, -1.2055375576019287, -0.598900556564331, 0.47410959005355835, -0.1858094483613968, -0.7937127947807312, -0.9745408892631531, 0.06213551014661789, -0.4842617640109613, 0.4910569478350908, -2.100102245049698, 9362.0, 30146.0, 35388.0, 9362.0, 8.390083312988281, 0.17443883419036865, 0.20890924334526062, -0.1544196903705597, 0.004611573647707701, -0.0626857653260231, 0.9974479079246521, -0.07712957262992859, 0.03208160400390625, 1.49853515625, 1.18212890625, 0.49395751953125, 1.4970703125, 1.203369140625, 10.0, 1.397464632987976, 1.5, 1.397464632987976
18112, -2.8772690296173096, 3.8062989711761475, -1.1912492513656616, -0.2804235816001892, 0.22210153937339783, -1.2055375576019287, -0.598900556564331, 0.47410959005355835, -0.1858094483613968, -0.7937220335006714, -0.97454833984375, 0.06211252510547638, -0.48862938544825557, 0.4900016354650347, -2.08591659033028, 9362.0, 30146.0, 35388.0, 9362.0, 8.390083312988281, 0.17443883419036865, 0.20890924334526062, -0.1544196903705597, 0.004611573647707701, -0.0626857653260231, 0.9974479079246521, -0.07712957262992859, 0.03208160400390625, 1.49853515625, 1.18212890625, 0.49395751953125, 1.4970703125, 1.203369140625, 10.0, 1.396834135055542, 1.5, 1.396834135055542
18122, -2.8764679431915283, 3.806056499481201, -1.190238356590271, -0.2804235816001892, 0.22210153937339783, -1.2055375576019287, -0.598900556564331, 0.47410959005355835, -0.1858094483613968, -0.793707013130188, -0.9745559096336365, 0.06212197244167328, -0.49601564212340915, 0.5043372305457012, -2.083923838209052, 9362.0, 30146.0, 35388.0, 9362.0, 8.390083312988281, 0.17443883419036865, 0.20890924334526062, -0.1544196903705597, 0.004611573647707701, -0.0626857653260231, 0.9974479079246521, -0.07712957262992859, 0.03208160400390625, 1.49853515625, 1.18212890625, 0.49395751953125, 1.4970703125, 1.26416015625, 10.0, 1.396834135055542, 1.5, 1.396834135055542
18132, -2.877148151397705, 3.8050358295440674, -1.189130425453186, -0.3111667335033417, 0.2464374452829361, -1.214905858039856, -0.6308225989341736, 0.4993295967578888, -0.1889156550168991, -0.7937124371528625, -0.9745317101478577, 0.06211225688457489, -0.4918863144927404, 0.49261000327695115, -2.091129098398799, 9362.0, 30146.0, 35388.0, 9362.0, 8.390083312988281, 0.17443883419036865, 0.20890924334526062, -0.1544196903705597, 0.004611573647707701, -0.0626857653260231, 0.9974479079246521, -0.07712957262992859, 0.03208160400390625, 1.49853515625, 1.18212890625, 0.49395751953125, 1.489013671875, 1.26416015625, 10.0, 1.396834135055542, 1.5, 1.396834135055542
18142, -2.87732195854187, 3.805928945541382, -1.1875025033950806, -0.31750690937042236, 0.25145599246025085, -1.2167975902557373, -0.6372117400169373, 0.5043777227401733, -0.18942217528820038, -0.793696939945221, -0.9745382070541382, 0.062110818922519684, -0.48669443298114484, 0.47743199876342146, -2.090364143736234, 9362.0, 30146.0, 35388.0, 9362.0, 8.390083312988281, 0.17443883419036865, 0.20890924334526062, -0.1544196903705597, 0.004611573647707701, -0.0626857653260231, 0.9974479079246521, -0.07712957262992859, 0.03208160400390625, 1.49853515625, 1.18212890625, 0.49395751953125, 1.489013671875, 1.264892578125, 10.0, 1.396834135055542, 1.5, 1.396834135055542
