timeTick, roll, pitch, yaw, stateX, stateY, stateZ, stateVX, stateVY, stateVZ, otX0, otY0, otZ0, otRoll0, otPitch0, otYaw0, left wing, pitch motor, yaw motor, right wing, voltage, roll rate, pitch rate, yaw rate, A_x, A_y, A_z, current, i_raw, v_raw, airflow_voltage, airflow_speed, pot_Pitch, voltage_nKF, kFFx, volt_KF_vel, kP, volt_KF_pos
28246, -1.7447909116744995, -7.305698871612549, 6.166531562805176, 0, 0, 0, 0, 0, 0, -0.7877599596977234, -0.9571334719657898, 0.06192227080464363, -0.7355206053927275, 0.5108454558523476, -6.067890474407465, 0, 0, 0, 0, 0, 0, 0, 0, 0, 0, 0, 0, 0, 0, 0, 0, 0, 0, 0, 0, 0, 0
28256, -1.7441991567611694, -7.307229042053223, 6.166355133056641, -0.001272591995075345, -0.0004542286624200642, -8.189706802368164, -0.05158494412899017, -0.01841166615486145, -0.6118900775909424, -0.7877784371376038, -0.9571024179458618, 0.06193119287490845, -0.7564548934555158, 0.5076744999611549, -6.072686204283063, 9362.0, 30146.0, 35388.0, 9362.0, 0, -0.11129327863454819, 0.13602228462696075, -0.011321277357637882, 0.008985037915408611, -0.06841368973255157, 0.9971683621406555, 0, 0, 0, 1.494873046875, 0.185455322265625, 0, 0, 0, 0, 0, 0
28266, -1.7443220615386963, -7.306564807891846, 6.166451454162598, -0.0017282305052503943, -0.0006168604013510048, -8.195831298828125, -0.039542775601148605, -0.014114735648036003, -0.6130036115646362, -0.7877885699272156, -0.9571532607078552, 0.06190364807844162, -0.737318966402445, 0.512947057850397, -6.060059951786698, 9362.0, 30146.0, 35388.0, 9362.0, 0, 0.020705988630652428, -0.07095249742269516, 0.031507108360528946, 0.008320232853293419, -0.06899385899305344, 0.9982701539993286, 0, 0, 0, 1.335205078125, 0.018280029296875, 0, 1.56298828125, 10.0, 1.42105233669281, 1.5, 1.42105233669281
28276, -1.7434829473495483, -7.3076324462890625, 6.168129920959473, -0.002063408959656954, -0.0007365178898908198, -8.201966285705566, -0.0274929441511631, -0.009816735051572323, -0.6140772104263306, -0.7877697944641113, -0.9571429491043091, 0.06193976849317551, -0.7355980339773707, 0.5130104592679743, -6.07075049550533, 9362.0, 30146.0, 35388.0, 9362.0, 0, -0.05638792738318443, 0.03581368923187256, 0.11786412447690964, 0.00725453021004796, -0.0683528482913971, 0.9979042410850525, 0, 0, 0, 1.4765625, 0.1505584716796875, 1.49560546875, 1.1279296875, 10.0, 1.4216947555541992, 1.5, 1.4216947555541992
28286, -1.7448177337646484, -7.308903694152832, 6.168088436126709, -0.002278048312291503, -0.0008131781942211092, -8.208111763000488, -0.015435083769261837, -0.005514978431165218, -0.6150756478309631, -0.7877800464630127, -0.9571383595466614, 0.061929356306791306, -0.7346620685569268, 0.505357591832194, -6.0680997649962665, 9362.0, 30146.0, 35388.0, 9362.0, 0, -0.0031934957951307297, -0.04189509153366089, -0.05223653465509415, 0.008836443535983562, -0.06810647994279861, 0.9986190795898438, 0, 0, 0, 1.093505859375, 1.349761962890625, 1.49560546875, 1.40478515625, 10.0, 1.4218494892120361, 1.5, 1.4218494892120361
28296, -1.7440227270126343, -7.3102707862854, 6.168946266174316, -0.0023721226025372744, -0.0008468333980999887, -8.21426773071289, -0.0033798220101743937, -0.0012160670012235641, -0.6161112189292908, -0.7877846360206604, -0.9571380019187927, 0.06190080940723419, -0.7405006640919853, 0.5125031509449229, -6.058848226793503, 9362.0, 30146.0, 35388.0, 9362.0, 0, 0.1401251256465912, 0.5262121558189392, 0.29512664675712585, 0.008913634344935417, -0.06720347702503204, 0.9979615807533264, 0, 0, 0, 1.275146484375, 0.09429931640625, 1.494873046875, 1.531494140625, 10.0, 1.4223437309265137, 1.5, 1.4223437309265137
28306, -1.743939995765686, -7.310100078582764, 6.169907569885254, -0.0023456208873540163, -0.0008374819881282747, -8.220434188842773, 0.008680121973156929, 0.003086521290242672, -0.6171242594718933, -0.7877717614173889, -0.9571120738983154, 0.061967793852090836, -0.7525165346453323, 0.5058376523681147, -6.07513210764816, 9362.0, 30146.0, 35388.0, 9362.0, 0, 0.028998183086514473, -0.10984838008880615, 0.17303436994552612, 0.010571625083684921, -0.06898131221532822, 0.9969925284385681, 0, 0, 0, 1.53955078125, 0.278778076171875, 1.494873046875, 1.11328125, 10.0, 1.4218558073043823, 1.5, 1.4218558073043823
28316, -1.744593858718872, -7.309964179992676, 6.168437957763672, -0.0021985433995723724, -0.0007851221016608179, -8.226611137390137, 0.020735295489430428, 0.007385659031569958, -0.6181948781013489, -0.7877746820449829, -0.9571139812469482, 0.06195903569459915, -0.7549782171096412, 0.5080077571954575, -6.07284299957276, 9362.0, 30146.0, 35388.0, 9362.0, 0, -0.19169403612613678, -0.18148916959762573, -0.06697909533977509, 0.007659177761524916, -0.06782276183366776, 0.9959971904754639, 0, 0, 0, 1.535888671875, 0.2707366943359375, 1.49267578125, 1.152099609375, 10.0, 1.421949863433838, 1.5, 1.421949863433838
28326, -1.7453675270080566, -7.309632301330566, 6.168398380279541, -0.0019309978233650327, -0.0006897998391650617, -8.232799530029297, 0.032773926854133606, 0.0116784842684865, -0.6193973422050476, -0.7878036499023438, -0.9571487307548523, 0.06190422177314758, -0.7388376108846327, 0.5107094440137416, -6.049665125694603, 9362.0, 30146.0, 35388.0, 9362.0, 0, 0.035405952483415604, 0.28338804841041565, -0.09109891951084137, 0.006857230793684721, -0.0688268393278122, 0.9971230626106262, 0, 0, 0, 1.3798828125, 0.0243377685546875, 1.49267578125, 1.4501953125, 10.0, 1.422316551208496, 1.5, 1.422316551208496
28336, -1.7448886632919312, -7.307548999786377, 6.1657538414001465, -0.0015430592466145754, -0.0005515426746569574, -8.238999366760254, 0.04481380432844162, 0.015972958877682686, -0.6205869317054749, -0.7877908945083618, -0.9571539759635925, 0.06190238147974014, -0.7413187585849892, 0.5088026271440071, -6.069095547791617, 9362.0, 30146.0, 35388.0, 9362.0, 0, 0.07289852946996689, -0.18354137241840363, 0.10863819718360901, 0.007824528962373734, -0.06794745475053787, 0.9985087513923645, 0, 0, 0, 1.576171875, 0.361328125, 1.49560546875, 1.311767578125, 10.0, 1.4230844974517822, 1.5, 1.4230844974517822
28346, -1.7438008785247803, -7.308080673217773, 6.166647911071777, -0.0010346132330596447, -0.0003702944959513843, -8.245210647583008, 0.05687560886144638, 0.02027612179517746, -0.6215954422950745, -0.7878028750419617, -0.9570953249931335, 0.06195956841111183, -0.7411941774296231, 0.48953340047000893, -6.071896266239501, 9362.0, 30146.0, 35388.0, 9362.0, 8.310744285583496, -0.003831945126876235, 0.283810019493103, 0.06170856952667236, 0.007648696191608906, -0.06664122641086578, 0.9984912872314453, -0.07875829190015793, -0.11127853393554688, 1.48681640625, 1.406982421875, 0.046966552734375, 1.49560546875, 1.603271484375, 10.0, 1.4226266145706177, 1.5, 1.4226266145706177
28356, -1.7442240715026855, -7.308675765991211, 6.165709495544434, -0.00040553108556196094, -0.00014601126895286143, -8.251431465148926, 0.06894075870513916, 0.0245806947350502, -0.6225489974021912, -0.7877867817878723, -0.9571473598480225, 0.06192871183156967, -0.7308875932119183, 0.5057998205719798, -6.065116795559636, 9362.0, 30146.0, 35388.0, 9362.0, 8.310744285583496, -0.1333206593990326, -0.06949702650308609, -0.1013592779636383, 0.007939978502690792, -0.06652267277240753, 0.9976356029510498, -0.07875829190015793, -0.11127853393554688, 1.48681640625, 1.576904296875, 0.36309814453125, 1.496337890625, 1.455322265625, 10.0, 1.4232062101364136, 1.5, 1.4232062101364136
28366, -1.7455066442489624, -7.309390544891357, 6.166869640350342, 0.0003441526205278933, 0.00012129018432460725, -8.257661819458008, 0.08099602162837982, 0.02887941151857376, -0.6235916614532471, -0.7877881526947021, -0.9571520090103149, 0.06190696358680725, -0.7361194788555709, 0.5138556872954894, -6.055421541084962, 9362.0, 30146.0, 35388.0, 9362.0, 8.310744285583496, -0.17211532592773438, 0.13321079313755035, 0.1573503464460373, 0.008490539155900478, -0.06664528697729111, 0.9988809823989868, -0.07875829190015793, -0.11127853393554688, 1.48681640625, 1.264892578125, 0.119354248046875, 1.496337890625, 1.60546875, 10.0, 1.4230185747146606, 1.5, 1.4230185747146606
28376, -1.7451719045639038, -7.311548709869385, 6.166971683502197, 0.001214418327435851, 0.0004315907135605812, -8.26390266418457, 0.0930570513010025, 0.03318095579743385, -0.6245949864387512, -0.7877833843231201, -0.9571108222007751, 0.06195026636123657, -0.7565624374283759, 0.5049179793581686, -6.0529838020609805, 9362.0, 30146.0, 35388.0, 9362.0, 8.310744285583496, 0.17151202261447906, -0.019995972514152527, -0.3319771885871887, 0.007350237108767033, -0.069652259349823, 0.998974621295929, -0.07875829190015793, -0.11127853393554688, 1.48681640625, 1.33740234375, 0.0175323486328125, 1.494140625, 1.28759765625, 10.0, 1.4234789609909058, 1.5, 1.4234789609909058
28386, -1.7451094388961792, -7.310185432434082, 6.167764663696289, 0.0022053546272218227, 0.0007849393878132105, -8.270153045654297, 0.1051301509141922, 0.03748879209160805, -0.6255087852478027, -0.7877771258354187, -0.9571587443351746, 0.06191430240869522, -0.7428590632611864, 0.5184240334519643, -6.063206244896576, 9362.0, 30146.0, 35388.0, 9362.0, 8.310744285583496, 0.09231539070606232, -0.05600518733263016, -0.024463467299938202, 0.009110604412853718, -0.06840530782938004, 0.9974719882011414, -0.07875829190015793, -0.11127853393554688, 1.48681640625, 1.179931640625, 0.508758544921875, 1.494140625, 1.3095703125, 10.0, 1.4237968921661377, 1.5, 1.4237968921661377
28396, -1.7451403141021729, -7.314694881439209, 6.164597511291504, 0.003316975198686123, 0.0011813424061983824, -8.276412963867188, 0.11719393730163574, 0.04179198667407036, -0.6265271306037903, -0.7877774238586426, -0.957155168056488, 0.06192394345998764, -0.7353839711253565, 0.5135751571785931, -6.059356148953662, 9362.0, 30146.0, 35388.0, 9362.0, 8.310744285583496, -0.052883535623550415, 0.4328002631664276, -0.28648239374160767, 0.009157629683613777, -0.06706446409225464, 0.996774435043335, -0.07875829190015793, -0.11127853393554688, 1.48681640625, 1.19677734375, 0.40228271484375, 1.496337890625, 1.50146484375, 10.0, 1.4244468212127686, 1.5, 1.4244468212127686
28406, -1.745709776878357, -7.313082218170166, 6.16205358505249, 0.004549128003418446, 0.0016207430744543672, -8.282684326171875, 0.12923680245876312, 0.04608745500445366, -0.6276972889900208, -0.7877874970436096, -0.9571588635444641, 0.06191163882613182, -0.7411232677548089, 0.5120908203763292, -6.068672166467133, 9362.0, 30146.0, 35388.0, 9362.0, 8.310744285583496, -0.18904945254325867, -0.27929311990737915, -0.18744251132011414, 0.008089025504887104, -0.06582419574260712, 0.9967685341835022, -0.07875829190015793, -0.11127853393554688, 1.48681640625, 1.44140625, 0.0914459228515625, 1.496337890625, 1.278076171875, 10.0, 1.4247177839279175, 1.5, 1.4247177839279175
28416, -1.744465708732605, -7.315308094024658, 6.162904739379883, 0.0059017613530159, 0.0021031037904322147, -8.28896713256836, 0.141290083527565, 0.05038418248295784, -0.6288472414016724, -0.7877801656723022, -0.9571573734283447, 0.06193118169903755, -0.7357007919041588, 0.5185800640626042, -6.069272156992368, 9362.0, 30146.0, 35388.0, 9362.0, 8.310744285583496, 0.1802888959646225, 0.4520818591117859, 0.10471261292695999, 0.0073948390781879425, -0.06968683749437332, 0.9961032271385193, -0.07875829190015793, -0.11127853393554688, 1.48681640625, 1.47216796875, 0.142547607421875, 1.489013671875, 1.5703125, 10.0, 1.4243032932281494, 1.5, 1.4243032932281494
28426, -1.7453253269195557, -7.3172173500061035, 6.162892818450928, 0.007374872919172049, 0.0026284176856279373, -8.29526138305664, 0.15333214402198792, 0.0546787828207016, -0.6300638914108276, -0.7877971529960632, -0.9571558237075806, 0.06192104145884514, -0.7375799093744139, 0.5099862439047058, -6.063896145966801, 9362.0, 30146.0, 35388.0, 9362.0, 8.310744285583496, 0.06580707430839539, 0.31929323077201843, 0.10064823180437088, 0.007397200912237167, -0.06887774914503098, 0.999836266040802, -0.07875829190015793, -0.11127853393554688, 1.48681640625, 1.576171875, 0.361328125, 1.489013671875, 1.1279296875, 10.0, 1.4242578744888306, 1.5, 1.4242578744888306
28436, -1.7439255714416504, -7.3185882568359375, 6.162111282348633, 0.00896855816245079, 0.0031967174727469683, -8.301567077636719, 0.16540484130382538, 0.058981191366910934, -0.6310667991638184, -0.7877786755561829, -0.9571581482887268, 0.0619390569627285, -0.7370086158296117, 0.5144494007927563, -6.070268210264613, 9362.0, 30146.0, 35388.0, 9362.0, 8.310744285583496, 0.3211146295070648, -0.05564437434077263, -0.18447257578372955, 0.008451416157186031, -0.06707177311182022, 0.9989752173423767, -0.07875829190015793, -0.11127853393554688, 1.48681640625, 1.34765625, 0.0154571533203125, 1.491943359375, 1.560791015625, 10.0, 1.4237431287765503, 1.5, 1.4237431287765503
28446, -1.7460964918136597, -7.320743083953857, 6.161879062652588, 0.010683061555027962, 0.0038080778904259205, -8.307882308959961, 0.17749600112438202, 0.06329068541526794, -0.6319465041160583, -0.7878153920173645, -0.957123875617981, 0.061981040984392166, -0.7601723534811734, 0.5015963553865106, -6.073562674770984, 9362.0, 30146.0, 35388.0, 9362.0, 8.310744285583496, -0.3474402129650116, 0.2769834101200104, 0.07916060835123062, 0.007723447401076555, -0.06792356818914413, 0.9966129064559937, -0.0894540473818779, -0.06647872924804688, 1.490478515625, 1.529296875, 0.2564849853515625, 1.491943359375, 1.387939453125, 10.0, 1.4241689443588257, 1.5, 1.4241689443588257
28456, -1.7448054552078247, -7.323156833648682, 6.162160873413086, 0.012518352828919888, 0.004462472628802061, -8.314207077026367, 0.1895621418952942, 0.067588210105896, -0.6330486536026001, -0.7878122329711914, -0.9571716785430908, 0.061903562396764755, -0.7375481441749562, 0.5089587242206051, -6.073105266215436, 9362.0, 30146.0, 35388.0, 9362.0, 8.310744285583496, 0.21884015202522278, 0.31022611260414124, -0.16863591969013214, 0.008096281439065933, -0.06733713299036026, 0.9974180459976196, -0.0894540473818779, -0.06647872924804688, 1.490478515625, 1.506591796875, 0.2088775634765625, 1.48974609375, 1.5966796875, 10.0, 1.424135446548462, 1.5, 1.424135446548462
28466, -1.7447428703308105, -7.325490951538086, 6.1613664627075195, 0.014474279247224331, 0.005159847438335419, -8.32054328918457, 0.20162303745746613, 0.07188684493303299, -0.6342188119888306, -0.7878118753433228, -0.9571268558502197, 0.06193467974662781, -0.7522804154457541, 0.5043138895680954, -6.077813204970461, 9362.0, 30146.0, 35388.0, 9362.0, 8.310744285583496, 0.032317619770765305, 0.3088569641113281, 0.04438960552215576, 0.0075500356033444405, -0.06745242327451706, 0.9979538321495056, -0.0894540473818779, -0.06647872924804688, 1.490478515625, 1.56884765625, 0.3444366455078125, 1.48974609375, 1.541015625, 10.0, 1.423829197883606, 1.5, 1.423829197883606
28476, -1.7460993528366089, -7.326211452484131, 6.158873558044434, 0.016550913453102112, 0.005900227930396795, -8.32689094543457, 0.21370366215705872, 0.07618904858827591, -0.6352660059928894, -0.7878597974777222, -0.9571594595909119, 0.06184950843453407, -0.7175273364257657, 0.5174372522371584, -6.096318752733469, 9362.0, 30146.0, 35388.0, 9362.0, 8.310744285583496, 0.003387065138667822, 0.28727540373802185, -0.1293104588985443, 0.007718838285654783, -0.0671427994966507, 0.9966081380844116, -0.0894540473818779, -0.06647872924804688, 1.490478515625, 1.546875, 0.2949676513671875, 1.49267578125, 1.6025390625, 10.0, 1.4235725402832031, 1.5, 1.4235725402832031
28486, -1.7471710443496704, -7.326457500457764, 6.159658432006836, 0.01874832808971405, 0.006683615036308765, -8.33324909210205, 0.22577960789203644, 0.08048786967992783, -0.6363848447799683, -0.7878400087356567, -0.9571091532707214, 0.06190730258822441, -0.7358234038869363, 0.5088939986287073, -6.081610055526897, 9362.0, 30146.0, 35388.0, 9362.0, 8.310744285583496, -0.10487126559019089, -0.1332816630601883, 0.07258428633213043, 0.007593140471726656, -0.06991248577833176, 0.9964306354522705, -0.0894540473818779, -0.06647872924804688, 1.490478515625, 1.5791015625, 0.368133544921875, 1.49267578125, 1.552001953125, 10.0, 1.423182487487793, 1.5, 1.423182487487793
28496, -1.7478306293487549, -7.32589054107666, 6.15805721282959, 0.021066464483737946, 0.007509984076023102, -8.339618682861328, 0.23784755170345306, 0.08478613942861557, -0.637575089931488, -0.7878134250640869, -0.9571526050567627, 0.061899881809949875, -0.7210039591082816, 0.5238901880138087, -6.089215587606203, 9362.0, 30146.0, 35388.0, 9362.0, 8.310744285583496, 0.08632590621709824, 0.2741808593273163, -0.022314179688692093, 0.007401072885841131, -0.06924326717853546, 0.9978630542755127, -0.0894540473818779, -0.06647872924804688, 1.490478515625, 1.58349609375, 0.3784332275390625, 1.496337890625, 1.54833984375, 10.0, 1.4228538274765015, 1.5, 1.4228538274765015
28506, -1.7476139068603516, -7.327103614807129, 6.158215045928955, 0.023505359888076782, 0.008379373699426651, -8.345999717712402, 0.24993158876895905, 0.08909155428409576, -0.6386387944221497, -0.78785640001297, -0.9571543335914612, 0.06187352165579796, -0.7264406908740016, 0.5117575085519093, -6.0806070132521395, 9362.0, 30146.0, 35388.0, 9362.0, 8.310744285583496, 0.03888528794050217, 0.06641396880149841, 0.2114344984292984, 0.007977399975061417, -0.06809458136558533, 0.9971051216125488, -0.0894540473818779, -0.06647872924804688, 1.490478515625, 1.5732421875, 0.354736328125, 1.496337890625, 1.386474609375, 10.0, 1.4231274127960205, 1.5, 1.4231274127960205
28516, -1.7460633516311646, -7.325206756591797, 6.157007217407227, 0.026065070182085037, 0.0092918137088418, -8.352391242980957, 0.2620103657245636, 0.09339652210474014, -0.6397359371185303, -0.7878339290618896, -0.9571484923362732, 0.061881598085165024, -0.7232930310614114, 0.5195588729247902, -6.090968726107205, 9362.0, 30146.0, 35388.0, 9362.0, 8.310744285583496, 0.0762423649430275, -0.47673043608665466, -0.04265084117650986, 0.009469415061175823, -0.06624545902013779, 0.9970992207527161, -0.0894540473818779, -0.06647872924804688, 1.490478515625, 1.541015625, 0.2819976806640625, 1.494873046875, 1.494873046875, 10.0, 1.4224427938461304, 1.5, 1.4224427938461304
28526, -1.745212197303772, -7.324739933013916, 6.156734943389893, 0.028745561838150024, 0.010247296653687954, -8.358794212341309, 0.27408796548843384, 0.0976998507976532, -0.6408599019050598, -0.7878293395042419, -0.9571108818054199, 0.06191084533929825, -0.7401880692431424, 0.5000455053966846, -6.091493850369269, 9362.0, 30146.0, 35388.0, 9362.0, 8.310744285583496, 0.12854334712028503, 0.07377483695745468, 0.057532768696546555, 0.010280255228281021, -0.06712846457958221, 0.9969018697738647, -0.0894540473818779, -0.06647872924804688, 1.490478515625, 1.219482421875, 0.283355712890625, 1.494873046875, 1.509521484375, 10.0, 1.4217418432235718, 1.5, 1.4217418432235718
28536, -1.7452187538146973, -7.326982498168945, 6.158531188964844, 0.03154677897691727, 0.011245784349739552, -8.365208625793457, 0.28615570068359375, 0.10199770331382751, -0.6420400142669678, -0.7878533005714417, -0.9571540355682373, 0.061878859996795654, -0.7196518822925069, 0.5174260429598974, -6.069154095799571, 9362.0, 30146.0, 35388.0, 9362.0, 8.310744285583496, -0.05238470807671547, 0.013728181831538677, 0.087889164686203, 0.009825844317674637, -0.06703315675258636, 0.998782753944397, -0.0894540473818779, -0.06647872924804688, 1.490478515625, 1.359375, 0.0160980224609375, 1.487548828125, 1.168212890625, 10.0, 1.4222640991210938, 1.5, 1.4222640991210938
28546, -1.7462048530578613, -7.326562404632568, 6.157719135284424, 0.03446877747774124, 0.012287281453609467, -8.371634483337402, 0.2982441186904907, 0.10630204528570175, -0.6430478096008301, -0.7878935933113098, -0.9571108818054199, 0.06169537082314491, -0.7478723057729157, 0.5439722956558057, -6.090308508754538, 9362.0, 30146.0, 35388.0, 9362.0, 8.310744285583496, -0.18892210721969604, 0.05723767355084419, 0.028822235763072968, 0.010400387458503246, -0.06883566081523895, 0.9988974332809448, -0.04663962870836258, -0.13815879821777344, 1.484619140625, 1.373291015625, 0.0207366943359375, 1.487548828125, 1.116943359375, 10.0, 1.4226574897766113, 1.5, 1.4226574897766113
28556, -1.7476361989974976, -7.324934482574463, 6.15795373916626, 0.03751172870397568, 0.013371842913329601, -8.378069877624512, 0.31034591794013977, 0.11061003804206848, -0.6439792513847351, -0.7878844141960144, -0.9571149945259094, 0.06171044707298279, -0.738694026555478, 0.5405516893423226, -6.080660058443073, 9362.0, 30146.0, 35388.0, 9362.0, 8.310744285583496, -0.09481688588857651, -0.31156259775161743, 0.061110783368349075, 0.009574112482368946, -0.06757926195859909, 0.9997058510780334, -0.04663962870836258, -0.13815879821777344, 1.484619140625, 1.571044921875, 0.349578857421875, 1.487548828125, 1.51611328125, 10.0, 1.4231375455856323, 1.5, 1.4231375455856323
28566, -1.7478033304214478, -7.326467037200928, 6.158636093139648, 0.04067566990852356, 0.01449948363006115, -8.384514808654785, 0.3224424421787262, 0.11491815000772476, -0.6449450254440308, -0.7878575325012207, -0.957065224647522, 0.06176430732011795, -0.7493589042540784, 0.5478489693171582, -6.102267697095487, 9362.0, 30146.0, 35388.0, 9362.0, 8.310744285583496, -0.015816638246178627, 0.18041664361953735, -0.17376618087291718, 0.008544791489839554, -0.06722267717123032, 1.0000557899475098, -0.04663962870836258, -0.13815879821777344, 1.484619140625, 1.549072265625, 0.2998809814453125, 1.487548828125, 1.216552734375, 10.0, 1.4235953092575073, 1.5, 1.4235953092575073
28576, -1.7477678060531616, -7.325742721557617, 6.158576965332031, 0.04396064206957817, 0.01567024551331997, -8.390968322753906, 0.33455225825309753, 0.11923433095216751, -0.6457803845405579, -0.787880539894104, -0.9570899605751038, 0.06177065894007683, -0.7599546043656469, 0.5487515818474549, -6.084392557709124, 9362.0, 30146.0, 35388.0, 9362.0, 8.310744285583496, -0.10796817392110825, -0.04236360639333725, -0.1352808177471161, 0.010438363999128342, -0.06561675667762756, 1.0002957582473755, -0.04663962870836258, -0.13815879821777344, 1.484619140625, 1.56591796875, 0.337738037109375, 1.494140625, 1.43701171875, 10.0, 1.422749638557434, 1.5, 1.422749638557434
28606, -1.7479515075683594, -7.328291416168213, 6.15847635269165, 0.04396064206957817, 0.01567024551331997, -8.390968322753906, 0.33455225825309753, 0.11923433095216751, -0.6457803845405579, -0.7878767848014832, -0.9570767879486084, 0.06177274137735367, -0.7564627715386849, 0.5305189802717507, -6.093499607073893, 9362.0, 30146.0, 35388.0, 9362.0, 8.310744285583496, 0.3601266145706177, 0.16731086373329163, 0.12178733944892883, 0.009271124377846718, -0.06930944323539734, 0.9983231425285339, -0.04663962870836258, -0.13815879821777344, 1.484619140625, 1.5556640625, 0.3145904541015625, 1.494140625, 1.43701171875, 10.0, 1.423458218574524, 1.5, 1.423458218574524
28616, -1.7478903532028198, -7.328025817871094, 6.157071113586426, 0.04396064206957817, 0.01567024551331997, -8.390968322753906, 0.33455225825309753, 0.11923433095216751, -0.6457803845405579, -0.7878720164299011, -0.9570732116699219, 0.0617588572204113, -0.7609868980191768, 0.5367039978621335, -6.091305377201665, 9362.0, 30146.0, 35388.0, 9362.0, 8.310744285583496, 0.006123568397015333, -0.04282892867922783, -0.01513718906790018, 0.00835322868078947, -0.06790335476398468, 0.9980478286743164, -0.04663962870836258, -0.13815879821777344, 1.484619140625, 1.443603515625, 0.0948486328125, 1.494140625, 1.43701171875, 10.0, 1.423458218574524, 1.5, 1.423458218574524
28656, -1.7494338750839233, -7.32510232925415, 6.15710973739624, 0.04396064206957817, 0.01567024551331997, -8.390968322753906, 0.33455225825309753, 0.11923433095216751, -0.6457803845405579, -0.7878889441490173, -0.9571055173873901, 0.06172708794474602, -0.7388152759850626, 0.5326922260079527, -6.078467079350545, 9362.0, 30146.0, 35388.0, 9362.0, 8.310744285583496, -0.045702554285526276, -0.18503649532794952, 0.017035022377967834, 0.006632484029978514, -0.06728258728981018, 0.9971742033958435, -0.07502636313438416, -0.10231781005859375, 1.487548828125, 1.53662109375, 0.27239990234375, 1.494140625, 1.43701171875, 10.0, 1.4236156940460205, 1.5, 1.4236156940460205
28666, -1.750292181968689, -7.325963020324707, 6.158505916595459, 0.04396064206957817, 0.01567024551331997, -8.390968322753906, 0.33455225825309753, 0.11923433095216751, -0.6457803845405579, -0.787871241569519, -0.9570907354354858, 0.06171707436442375, -0.7323749157526018, 0.5492313521538961, -6.090400850089161, 9362.0, 30146.0, 35388.0, 9362.0, 8.310744285583496, -0.036010194569826126, 0.17153361439704895, 0.16641941666603088, 0.006632484029978514, -0.06728258728981018, 0.9971742033958435, -0.07502636313438416, -0.10231781005859375, 1.487548828125, 1.519775390625, 0.236236572265625, 1.494140625, 1.43701171875, 10.0, 1.4234174489974976, 1.5, 1.4234174489974976
28676, -1.7509926557540894, -7.326758861541748, 6.1592230796813965, 0.04396064206957817, 0.01567024551331997, -8.390968322753906, 0.33455225825309753, 0.11923433095216751, -0.6457803845405579, -0.787860095500946, -0.9570943117141724, 0.0617026761174202, -0.7355174809600157, 0.5504011787056129, -6.094226098272847, 9362.0, 30146.0, 35388.0, 9362.0, 8.310744285583496, -0.0999821200966835, 0.35980215668678284, 0.34658798575401306, 0.006632484029978514, -0.06728258728981018, 0.9971742033958435, -0.07502636313438416, -0.10231781005859375, 1.487548828125, 1.513916015625, 0.224029541015625, 1.494140625, 1.43701171875, 10.0, 1.422724962234497, 1.5, 1.422724962234497
28686, -1.749399185180664, -7.327155113220215, 6.15973424911499, 0.08807745575904846, 0.031393468379974365, -8.462608337402344, 0.46750661730766296, 0.16662949323654175, -0.6572248339653015, -0.7878872156143188, -0.9571164846420288, 0.061729177832603455, -0.739799247258284, 0.5269430281368557, -6.068996872472002, 9362.0, 30146.0, 35388.0, 9362.0, 8.310744285583496, 0.055000822991132736, -0.26524412631988525, -0.13227492570877075, 0.006632484029978514, -0.06728258728981018, 0.9971742033958435, -0.07502636313438416, -0.10231781005859375, 1.487548828125, 1.18359375, 0.4842071533203125, 1.494140625, 1.43701171875, 10.0, 1.4224786758422852, 1.5, 1.4224786758422852
28696, -1.7512577772140503, -7.328660011291504, 6.158369541168213, 0.08807745575904846, 0.031393468379974365, -8.462608337402344, 0.46750661730766296, 0.16662949323654175, -0.6572248339653015, -0.7878849506378174, -0.9571126103401184, 0.06172528117895126, -0.7431280575965642, 0.5343315454204287, -6.079385269795603, 9362.0, 30146.0, 35388.0, 9362.0, 8.310744285583496, -0.05035341531038284, 0.4697953462600708, 0.06748983263969421, 0.006632484029978514, -0.06728258728981018, 0.9971742033958435, -0.07502636313438416, -0.10231781005859375, 1.487548828125, 1.42236328125, 0.0649566650390625, 1.49267578125, 1.43701171875, 10.0, 1.4228112697601318, 1.5, 1.4228112697601318
28716, -1.751361608505249, -7.333471298217773, 6.156130313873291, 0.08807745575904846, 0.031393468379974365, -8.462608337402344, 0.46750661730766296, 0.16662949323654175, -0.6572248339653015, -0.7878903150558472, -0.9571093916893005, 0.06172735244035721, -0.7369647714329903, 0.5258577547663492, -6.07966801295194, 9362.0, 30146.0, 35388.0, 9362.0, 8.310744285583496, -0.010875397361814976, -0.022274333983659744, -0.16021043062210083, 0.007178815081715584, -0.0686909481883049, 0.997018575668335, -0.07502636313438416, -0.10231781005859375, 1.487548828125, 1.475830078125, 0.1492767333984375, 1.494873046875, 1.43701171875, 10.0, 1.4221831560134888, 1.5, 1.4221831560134888
28726, -1.752308964729309, -7.334173679351807, 6.154849052429199, 0.08807745575904846, 0.031393468379974365, -8.462608337402344, 0.46750661730766296, 0.16662949323654175, -0.6572248339653015, -0.7878896594047546, -0.9571092128753662, 0.06171851605176926, -0.7481807707285006, 0.5380529441024464, -6.072275346667375, 9362.0, 30146.0, 35388.0, 9362.0, 8.310744285583496, 0.11318115890026093, 0.22016531229019165, -0.1685667634010315, 0.009934346191585064, -0.06797019392251968, 0.9979965686798096, -0.07502636313438416, -0.10231781005859375, 1.487548828125, 1.565185546875, 0.336090087890625, 1.494873046875, 1.43701171875, 10.0, 1.4221831560134888, 1.5, 1.4221831560134888
28736, -1.7515285015106201, -7.335955619812012, 6.155866622924805, 0.08807745575904846, 0.031393468379974365, -8.462608337402344, 0.46750661730766296, 0.16662949323654175, -0.6572248339653015, -0.7878751754760742, -0.957105278968811, 0.061729393899440765, -0.7414654820166303, 0.537886121385128, -6.075431948284305, 9362.0, 30146.0, 35388.0, 9362.0, 8.310744285583496, 0.14005786180496216, 0.2087366133928299, 0.17306911945343018, 0.009317525662481785, -0.06689700484275818, 0.9972116351127625, -0.07502636313438416, -0.10231781005859375, 1.487548828125, 1.39306640625, 0.0337982177734375, 1.49267578125, 1.43701171875, 10.0, 1.4221831560134888, 1.5, 1.4221831560134888
28756, -1.7527198791503906, -7.336824893951416, 6.154144763946533, 0.08807745575904846, 0.031393468379974365, -8.462608337402344, 0.46750661730766296, 0.16662949323654175, -0.6572248339653015, -0.7878954410552979, -0.9570819139480591, 0.061734385788440704, -0.7259373360771164, 0.5216189570706433, -6.088138718539339, 9362.0, 30146.0, 35388.0, 9362.0, 8.310744285583496, -0.18989074230194092, 0.11969053745269775, -0.02420390211045742, 0.008944562636315823, -0.07027103006839752, 0.9992554187774658, -0.07502636313438416, -0.10231781005859375, 1.487548828125, 1.12060546875, 1.0270843505859375, 1.494140625, 1.43701171875, 10.0, 1.4221831560134888, 1.5, 1.4221831560134888
28766, -1.7522677183151245, -7.338375568389893, 6.153882026672363, 0.1293448507785797, 0.046103160828351974, -8.515542030334473, 0.5642135143280029, 0.2011221945285797, -0.6660217046737671, -0.7878775000572205, -0.9570673108100891, 0.06176008656620979, -0.7519707368201558, 0.539390715473246, -6.078796485760846, 9362.0, 30146.0, 35388.0, 9362.0, 8.310744285583496, 0.07518620043992996, 0.04230750724673271, -0.07994227856397629, 0.008476721122860909, -0.06753967702388763, 0.9997678399085999, -0.07502636313438416, -0.10231781005859375, 1.487548828125, 1.12060546875, 1.0270843505859375, 1.494140625, 1.43701171875, 10.0, 1.420982003211975, 1.5, 1.420982003211975
28776, -1.7531781196594238, -7.341161251068115, 6.1547017097473145, 0.1293448507785797, 0.046103160828351974, -8.515542030334473, 0.5642135143280029, 0.2011221945285797, -0.6660217046737671, -0.7878695130348206, -0.957098662853241, 0.0617101676762104, -0.7360835858834298, 0.5409228678428804, -6.082069129699034, 9362.0, 30146.0, 35388.0, 9362.0, 8.310744285583496, -0.00841519609093666, 0.13367584347724915, 0.10514935851097107, 0.007734487298876047, -0.06777852773666382, 0.9967738389968872, -0.07502636313438416, -0.10231781005859375, 1.487548828125, 1.12060546875, 1.0270843505859375, 1.494140625, 1.43701171875, 10.0, 1.420982003211975, 1.5, 1.420982003211975
28786, -1.752224326133728, -7.341523170471191, 6.154465198516846, 0.1408715546131134, 0.050212062895298004, -8.52888011932373, 0.5884482264518738, 0.2097645103931427, -0.6679089665412903, -0.7878521084785461, -0.9570662379264832, 0.061759740114212036, -0.7534768073119746, 0.5338260963681307, -6.096334256353512, 9362.0, 30146.0, 35388.0, 9362.0, 8.310744285583496, 0.11441919952630997, 0.16286621987819672, -0.0037745139561593533, 0.009925983846187592, -0.06998228281736374, 0.9972015023231506, -0.07502636313438416, -0.10231781005859375, 1.487548828125, 1.12060546875, 1.0270843505859375, 1.494140625, 1.43701171875, 10.0, 1.4196131229400635, 1.5, 1.4196131229400635
28796, -1.75221848487854, -7.343180179595947, 6.155325412750244, 0.1408715546131134, 0.050212062895298004, -8.52888011932373, 0.5884482264518738, 0.2097645103931427, -0.6679089665412903, -0.7878805994987488, -0.9571189880371094, 0.06172650679945946, -0.7416776726340684, 0.5392061655542761, -6.078173512487036, 9362.0, 30146.0, 35388.0, 9362.0, 8.310744285583496, -0.015733839944005013, -0.20579659938812256, 0.04525555297732353, 0.008732843212783337, -0.07076837867498398, 0.9977072477340698, -0.07502636313438416, -0.10231781005859375, 1.487548828125, 1.61865234375, 0.461822509765625, 1.494140625, 1.43701171875, 10.0, 1.4196131229400635, 1.5, 1.4196131229400635
28806, -1.7527414560317993, -7.344014644622803, 6.156612873077393, 0.1408715546131134, 0.050212062895298004, -8.52888011932373, 0.5884482264518738, 0.2097645103931427, -0.6679089665412903, -0.7879003286361694, -0.9571104645729065, 0.06174217909574509, -0.7360596676398308, 0.5295425222097379, -6.074013189254181, 9362.0, 30146.0, 35388.0, 9362.0, 8.310744285583496, -0.13407298922538757, 0.022049324586987495, 0.023910950869321823, 0.008732843212783337, -0.07076837867498398, 0.9977072477340698, -0.07502636313438416, -0.10231781005859375, 1.487548828125, 1.58203125, 0.37493896484375, 1.494140625, 1.43701171875, 10.0, 1.4188634157180786, 1.5, 1.4188634157180786
28816, -1.752431035041809, -7.3445916175842285, 6.1571574211120605, 0.1408715546131134, 0.050212062895298004, -8.52888011932373, 0.5884482264518738, 0.2097645103931427, -0.6679089665412903, -0.7878797054290771, -0.9571092128753662, 0.06172709912061691, -0.7423378658796361, 0.538890154444772, -6.07387269917438, 9362.0, 30146.0, 35388.0, 9362.0, 8.310744285583496, 0.023573262616991997, 0.2518128454685211, -0.05516885593533516, 0.008732843212783337, -0.07076837867498398, 0.9977072477340698, -0.07502636313438416, -0.10231781005859375, 1.487548828125, 1.56884765625, 0.3444366455078125, 1.494140625, 1.43701171875, 10.0, 1.4188634157180786, 1.5, 1.4188634157180786
28826, -1.7514616250991821, -7.346379280090332, 6.155989170074463, 0.1408715546131134, 0.050212062895298004, -8.52888011932373, 0.5884482264518738, 0.2097645103931427, -0.6679089665412903, -0.7878960371017456, -0.9571164846420288, 0.061730846762657166, -0.7427433325371926, 0.5316449375730485, -6.066224494533783, 9362.0, 30146.0, 35388.0, 9362.0, 8.310744285583496, 0.15146145224571228, 0.051717597991228104, -0.11007941514253616, 0.008732843212783337, -0.07076837867498398, 0.9977072477340698, -0.07502636313438416, -0.10231781005859375, 1.487548828125, 1.56884765625, 0.3444366455078125, 1.494140625, 1.43701171875, 10.0, 1.4188634157180786, 1.5, 1.4188634157180786
28886, -1.752586007118225, -7.355349063873291, 6.1611199378967285, 0.19182206690311432, 0.06837429851293564, -8.582662582397461, 0.6853601336479187, 0.2443007081747055, -0.6764902472496033, -0.7878891825675964, -0.9571067690849304, 0.06173738092184067, -0.7329886670457095, 0.5496492697791382, -6.082703236736868, 9362.0, 30146.0, 35388.0, 9362.0, 8.310744285583496, 0.07527052611112595, 0.38895946741104126, 0.011766154319047928, 0.009710602462291718, -0.07022053003311157, 0.9971895217895508, -0.07359869033098221, -0.19191741943359375, 1.480224609375, 1.593017578125, 0.400604248046875, 1.494873046875, 1.43701171875, 10.0, 1.41805100440979, 1.5, 1.41805100440979
28916, -1.7539286613464355, -7.357505798339844, 6.161919593811035, 0.22020591795444489, 0.07849150896072388, -8.60981559753418, 0.7338476181030273, 0.2615661025047302, -0.681054413318634, -0.7879045605659485, -0.9570786952972412, 0.06178620085120201, -0.7608336056954391, 0.5324698010224722, -6.0906222593263655, 9362.0, 30146.0, 35388.0, 9362.0, 8.310744285583496, 0.09043136984109879, -0.11725013703107834, 0.014952792786061764, 0.010422233492136002, -0.06802491098642349, 0.9981874823570251, -0.07359869033098221, -0.19191741943359375, 1.480224609375, 1.3037109375, 0.04412841796875, 1.494873046875, 1.43701171875, 10.0, 1.4196583032608032, 1.5, 1.4196583032608032
28926, -1.7540055513381958, -7.358393669128418, 6.160537242889404, 0.23512567579746246, 0.08380933851003647, -8.623456954956055, 0.7581228017807007, 0.2702162265777588, -0.6831129789352417, -0.7878930568695068, -0.9571269750595093, 0.06174478679895401, -0.7460970177238574, 0.5328867043158141, -6.082330489897352, 9362.0, 30146.0, 35388.0, 9362.0, 8.310744285583496, 0.007709879893809557, -0.01088756788522005, -0.11708614975214005, 0.010609599761664867, -0.06785586476325989, 0.9985957741737366, -0.07359869033098221, -0.19191741943359375, 1.480224609375, 1.547607421875, 0.296478271484375, 1.494873046875, 1.43701171875, 10.0, 1.4198819398880005, 1.5, 1.4198819398880005
28936, -1.754677653312683, -7.3580546379089355, 6.159610748291016, 0.23512567579746246, 0.08380933851003647, -8.623456954956055, 0.7581228017807007, 0.2702162265777588, -0.6831129789352417, -0.787889301776886, -0.9571130275726318, 0.061737071722745895, -0.7357282588982359, 0.5371557810398144, -6.0756035050158195, 9362.0, 30146.0, 35388.0, 9362.0, 8.310744285583496, -0.13483580946922302, 0.1028423011302948, -0.16984234750270844, 0.009533850476145744, -0.06898131221532822, 0.9989349246025085, -0.07359869033098221, -0.19191741943359375, 1.480224609375, 1.529296875, 0.2564849853515625, 1.494873046875, 1.43701171875, 10.0, 1.418992519378662, 1.5, 1.418992519378662
28946, -1.7548233270645142, -7.359482288360596, 6.158677101135254, 0.23512567579746246, 0.08380933851003647, -8.623456954956055, 0.7581228017807007, 0.2702162265777588, -0.6831129789352417, -0.7878898978233337, -0.9571108222007751, 0.06174001842737198, -0.7399922475932121, 0.5294384989806815, -6.08216530754598, 9362.0, 30146.0, 35388.0, 9362.0, 8.310744285583496, -0.12897774577140808, -0.042648524045944214, -0.2430507242679596, 0.009533850476145744, -0.06898131221532822, 0.9989349246025085, -0.08841416239738464, -0.27255821228027344, 1.4736328125, 1.529296875, 0.2564849853515625, 1.494873046875, 1.43701171875, 10.0, 1.4183626174926758, 1.5, 1.4183626174926758
28976, -1.7547041177749634, -7.363946914672852, 6.159799575805664, 0.23512567579746246, 0.08380933851003647, -8.623456954956055, 0.7581228017807007, 0.2702162265777588, -0.6831129789352417, -0.7879116535186768, -0.9571040868759155, 0.06172192096710205, -0.7374363995171749, 0.5468899574723878, -6.082701079735761, 9362.0, 30146.0, 35388.0, 9362.0, 8.310744285583496, 0.05014684796333313, -0.0980275422334671, 0.13629969954490662, 0.010245931334793568, -0.06579647958278656, 0.9985466599464417, -0.08841416239738464, -0.27255821228027344, 1.4736328125, 1.46484375, 0.1295928955078125, 1.494873046875, 1.43701171875, 10.0, 1.4186766147613525, 1.5, 1.4186766147613525
28986, -1.7543641328811646, -7.363306522369385, 6.159604549407959, 0.23512567579746246, 0.08380933851003647, -8.623456954956055, 0.7581228017807007, 0.2702162265777588, -0.6831129789352417, -0.7878881692886353, -0.9570649266242981, 0.06178279593586922, -0.7563598784513628, 0.5405260724745062, -6.088142825828432, 9362.0, 30146.0, 35388.0, 9362.0, 8.310744285583496, 0.02865179069340229, -0.06297984719276428, 0.24930544197559357, 0.01006434578448534, -0.06852249056100845, 0.996942400932312, -0.08841416239738464, -0.27255821228027344, 1.4736328125, 1.308837890625, 0.0379486083984375, 1.494873046875, 1.43701171875, 10.0, 1.418023705482483, 1.5, 1.418023705482483
28996, -1.7536455392837524, -7.362947940826416, 6.158846378326416, 0.23512567579746246, 0.08380933851003647, -8.623456954956055, 0.7581228017807007, 0.2702162265777588, -0.6831129789352417, -0.787876307964325, -0.9571097493171692, 0.061763349920511246, -0.7398150524559985, 0.5345689829500202, -6.079277824856014, 9362.0, 30146.0, 35388.0, 9362.0, 8.310744285583496, 0.09495554119348526, -0.2040916383266449, -0.06656163185834885, 0.01006434578448534, -0.06852249056100845, 0.996942400932312, -0.08841416239738464, -0.27255821228027344, 1.4736328125, 1.2099609375, 0.329986572265625, 1.494873046875, 1.43701171875, 10.0, 1.4184837341308594, 1.5, 1.4184837341308594
29016, -1.755057454109192, -7.364157676696777, 6.161428451538086, 0.2996651828289032, 0.10681231319904327, -8.678404808044434, 0.8553704023361206, 0.30485695600509644, -0.6906976699829102, -0.7878674268722534, -0.9570702314376831, 0.06179002672433853, -0.7552914961790748, 0.532010586369978, -6.0934521345555686, 9362.0, 30146.0, 35388.0, 9362.0, 8.310744285583496, -0.3519316017627716, -0.11900753527879715, 0.03828582167625427, 0.008931727148592472, -0.0675169974565506, 0.995603621006012, -0.08841416239738464, -0.27255821228027344, 1.4736328125, 1.474365234375, 0.14654541015625, 1.489013671875, 1.43701171875, 10.0, 1.4189352989196777, 1.5, 1.4189352989196777
29036, -1.755338191986084, -7.367852687835693, 6.165638446807861, 0.2996651828289032, 0.10681231319904327, -8.678404808044434, 0.8553704023361206, 0.30485695600509644, -0.6906976699829102, -0.7878826856613159, -0.9571195840835571, 0.06173170357942581, -0.7385032916880767, 0.5373104999231089, -6.081087461484313, 9362.0, 30146.0, 35388.0, 9362.0, 8.310744285583496, 0.11738497018814087, 0.2932530641555786, 0.21871165931224823, 0.008188188076019287, -0.06722995638847351, 0.9966863393783569, -0.08841416239738464, -0.27255821228027344, 1.4736328125, 1.2919921875, 0.0613250732421875, 1.491943359375, 1.43701171875, 10.0, 1.4191642999649048, 1.5, 1.4191642999649048
29056, -1.7562053203582764, -7.369775295257568, 6.1687846183776855, 0.2996651828289032, 0.10681231319904327, -8.678404808044434, 0.8553704023361206, 0.30485695600509644, -0.6906976699829102, -0.7878777384757996, -0.9570742249488831, 0.0617910698056221, -0.75313771164277, 0.5285769511972092, -6.088693247168045, 9362.0, 30146.0, 35388.0, 9362.0, 8.33057975769043, -0.02232758142054081, -0.18993119895458221, -0.10982637107372284, 0.008922592736780643, -0.06837186217308044, 0.9965249300003052, -0.08841416239738464, -0.27255821228027344, 1.4736328125, 1.54833984375, 0.298126220703125, 1.49560546875, 1.43701171875, 10.0, 1.4191642999649048, 1.5, 1.4191642999649048
29106, -1.760726809501648, -7.3688764572143555, 6.16767692565918, 0.3912733793258667, 0.13946057856082916, -8.748035430908203, 0.9768400192260742, 0.34813791513442993, -0.7017059922218323, -0.7878844141960144, -0.957107663154602, 0.061742983758449554, -0.7328956467914227, 0.5523935960092388, -6.090170414044786, 9362.0, 30146.0, 35388.0, 9362.0, 8.33057975769043, -0.10938990861177444, -0.12058448046445847, 0.24196524918079376, 0.008456741459667683, -0.0682966411113739, 0.9969857931137085, -0.08841416239738464, -0.27255821228027344, 1.4736328125, 1.581298828125, 0.3732147216796875, 1.491943359375, 1.43701171875, 10.0, 1.4191642999649048, 1.5, 1.4191642999649048
29116, -1.7605867385864258, -7.36835241317749, 6.167829513549805, 0.3912733793258667, 0.13946057856082916, -8.748035430908203, 0.9768400192260742, 0.34813791513442993, -0.7017059922218323, -0.7879002094268799, -0.9571017622947693, 0.06174137443304062, -0.7484545163009152, 0.543112095018131, -6.074823370934533, 9362.0, 30146.0, 35388.0, 9362.0, 8.33057975769043, 0.033771123737096786, 0.199752539396286, -0.07870948314666748, 0.011141269467771053, -0.06646295636892319, 0.9966530799865723, -0.08841416239738464, -0.27255821228027344, 1.4736328125, 1.581298828125, 0.3732147216796875, 1.491943359375, 1.43701171875, 10.0, 1.4191642999649048, 1.5, 1.4191642999649048
29126, -1.7618699073791504, -7.369823455810547, 6.168781757354736, 0.3912733793258667, 0.13946057856082916, -8.748035430908203, 0.9768400192260742, 0.34813791513442993, -0.7017059922218323, -0.7878971695899963, -0.9570918083190918, 0.061748139560222626, -0.744973437139004, 0.5335612991156893, -6.069703944648023, 9362.0, 30146.0, 35388.0, 9362.0, 8.33057975769043, -0.17999297380447388, 0.04062267392873764, 0.017044030129909515, 0.009882309474050999, -0.06956025958061218, 0.9992990493774414, -0.08841416239738464, -0.27255821228027344, 1.4736328125, 1.581298828125, 0.3732147216796875, 1.491943359375, 1.43701171875, 10.0, 1.4191642999649048, 1.5, 1.4191642999649048
29136, -1.7626017332077026, -7.369872093200684, 6.168951511383057, 0.3912733793258667, 0.13946057856082916, -8.748035430908203, 0.9768400192260742, 0.34813791513442993, -0.7017059922218323, -0.7879094481468201, -0.9571110010147095, 0.06172487884759903, -0.739016674873301, 0.5357684439468926, -6.07114190869443, 9362.0, 30146.0, 35388.0, 9362.0, 8.33057975769043, -0.10071210563182831, -0.05925888568162918, -0.01615646481513977, 0.009882309474050999, -0.06956025958061218, 0.9992990493774414, -0.08841416239738464, -0.27255821228027344, 1.4736328125, 1.59375, 0.4024658203125, 1.491943359375, 1.43701171875, 10.0, 1.4177041053771973, 1.5, 1.4177041053771973
29146, -1.762039303779602, -7.367004871368408, 6.167120933532715, 0.3912733793258667, 0.13946057856082916, -8.748035430908203, 0.9768400192260742, 0.34813791513442993, -0.7017059922218323, -0.787887692451477, -0.9571166634559631, 0.061734724789857864, -0.7453876349564555, 0.5447543668910271, -6.073919194200883, 9362.0, 30146.0, 35388.0, 9362.0, 8.310744285583496, 0.12799568474292755, -0.2519935071468353, -0.22923339903354645, 0.009882309474050999, -0.06956025958061218, 0.9992990493774414, -0.06503910571336746, 0.05000114440917969, 1.5, 1.59375, 0.4024658203125, 1.491943359375, 1.43701171875, 10.0, 1.4177041053771973, 1.5, 1.4177041053771973
29236, -1.7572002410888672, -7.377765655517578, 6.158178806304932, 0.4950365424156189, 0.1764444261789322, -8.818721771240234, 1.098455548286438, 0.39154139161109924, -0.7118393778800964, -0.7878960371017456, -0.957091748714447, 0.061741214245557785, -0.7376760294563539, 0.5420661891097893, -6.090032463832373, 9362.0, 30146.0, 35388.0, 9362.0, 8.310744285583496, 0.11404009908437729, 0.19764603674411774, -0.12041842192411423, 0.010303815826773643, -0.06808124482631683, 0.9976763725280762, -0.06503910571336746, 0.05000114440917969, 1.5, 1.5380859375, 0.2755889892578125, 1.4912109375, 1.31982421875, 10.0, 1.4197980165481567, 1.5, 1.4197980165481567
29276, -1.757517695426941, -7.3837809562683105, 6.1548237800598145, 0.4950365424156189, 0.1764444261789322, -8.818721771240234, 1.098455548286438, 0.39154139161109924, -0.7118393778800964, -0.787895679473877, -0.9571014046669006, 0.06176358833909035, -0.7382866565320331, 0.5494498719168348, -6.083960542383531, 9362.0, 30146.0, 35388.0, 9362.0, 8.310744285583496, 0.10587999224662781, 0.20366492867469788, -0.04436178505420685, 0.007162726949900389, -0.06785009056329727, 0.9964281320571899, -0.06503910571336746, 0.05000114440917969, 1.5, 1.560791015625, 0.3262176513671875, 1.4912109375, 1.31982421875, 10.0, 1.4202210903167725, 1.5, 1.4202210903167725
29296, -1.7576003074645996, -7.385157108306885, 6.151559829711914, 0.4950365424156189, 0.1764444261789322, -8.818721771240234, 1.098455548286438, 0.39154139161109924, -0.7118393778800964, -0.7878924012184143, -0.9570978879928589, 0.061735209077596664, -0.7427883092239365, 0.5372786092073909, -6.084097453066915, 9362.0, 30146.0, 35388.0, 9362.0, 8.310744285583496, -0.19663463532924652, 0.004502075258642435, -0.1169513538479805, 0.007686598226428032, -0.06906847655773163, 0.9970800876617432, -0.06503910571336746, 0.05000114440917969, 1.5, 1.4384765625, 0.0871429443359375, 1.496337890625, 1.31982421875, 10.0, 1.4209786653518677, 1.5, 1.4209786653518677
29316, -1.7581226825714111, -7.383968353271484, 6.150870323181152, 0.4950365424156189, 0.1764444261789322, -8.818721771240234, 1.098455548286438, 0.39154139161109924, -0.7118393778800964, -0.7879040241241455, -0.9570673704147339, 0.0617670938372612, -0.7591881943966478, 0.5281056516328135, -6.085436382245186, 9362.0, 30146.0, 35388.0, 9362.0, 8.310744285583496, -0.06348266452550888, 0.02197997085750103, 0.25698813796043396, 0.008631834760308266, -0.06685727089643478, 0.9965659379959106, -0.06503910571336746, 0.05000114440917969, 1.5, 1.4677734375, 0.1347198486328125, 1.493408203125, 1.31982421875, 10.0, 1.421359896659851, 1.5, 1.421359896659851
29326, -1.7596769332885742, -7.381556510925293, 6.150992393493652, 0.4950365424156189, 0.1764444261789322, -8.818721771240234, 1.098455548286438, 0.39154139161109924, -0.7118393778800964, -0.7878970503807068, -0.957065999507904, 0.06176455691456795, -0.7596304661328921, 0.5334098825559863, -6.086882333668655, 9362.0, 30146.0, 35388.0, 9362.0, 8.310744285583496, -0.22321994602680206, -0.26262134313583374, -0.07703018188476562, 0.007955902256071568, -0.06779983639717102, 0.9975401759147644, -0.06503910571336746, 0.05000114440917969, 1.5, 1.424560546875, 0.0678253173828125, 1.493408203125, 1.31982421875, 10.0, 1.420569896697998, 1.5, 1.420569896697998
29336, -1.760594129562378, -7.382473468780518, 6.151356220245361, 0.4950365424156189, 0.1764444261789322, -8.818721771240234, 1.098455548286438, 0.39154139161109924, -0.7118393778800964, -0.7878970503807068, -0.957065999507904, 0.06176455691456795, -0.7596304661328921, 0.5334098825559863, -6.086882333668655, 9362.0, 30146.0, 35388.0, 9362.0, 8.310744285583496, -0.23459400236606598, 0.16636955738067627, 0.035563234239816666, 0.007955902256071568, -0.06779983639717102, 0.9975401759147644, -0.06503910571336746, 0.05000114440917969, 1.5, 1.424560546875, 0.0678253173828125, 1.493408203125, 1.31982421875, 10.0, 1.419622778892517, 1.5, 1.419622778892517
29386, -1.7604494094848633, -7.3900933265686035, 6.151585102081299, 0.7124741077423096, 0.2539393901824951, -8.948604583740234, 1.3175554275512695, 0.4695207178592682, -0.7314875721931458, -0.7879001498222351, -0.9571021795272827, 0.06172316148877144, -0.7440432749798523, 0.5458528791673132, -6.081206994091804, 9362.0, 30146.0, 35388.0, 9362.0, 8.33057975769043, -0.09059847891330719, 0.014030459336936474, -0.24995699524879456, 0.00801093690097332, -0.06934457272291183, 0.9978293776512146, -0.06503910571336746, 0.05000114440917969, 1.5, 1.10595703125, 1.194122314453125, 1.497802734375, 1.31982421875, 10.0, 1.42069411277771, 1.5, 1.42069411277771
29406, -1.7608239650726318, -7.394716739654541, 6.154409885406494, 0.7390689849853516, 0.263416588306427, -8.963255882263184, 1.3419376611709595, 0.47819972038269043, -0.7335817217826843, -0.7878928780555725, -0.9571035504341125, 0.06175854802131653, -0.7425731222886116, 0.5479502490055097, -6.083209836616562, 9362.0, 30146.0, 35388.0, 9362.0, 8.33057975769043, -0.3090461194515228, 0.46377497911453247, 0.3766692578792572, 0.010246993973851204, -0.06816799938678741, 0.9971973299980164, -0.06503910571336746, 0.05000114440917969, 1.5, 1.197509765625, 0.3980255126953125, 1.497802734375, 1.31982421875, 10.0, 1.420601725578308, 1.5, 1.420601725578308
29416, -1.7605477571487427, -7.394665241241455, 6.154857635498047, 0.7390689849853516, 0.263416588306427, -8.963255882263184, 1.3419376611709595, 0.47819972038269043, -0.7335817217826843, -0.7878841161727905, -0.9570509195327759, 0.061771295964717865, -0.7606206857615295, 0.5367537149867303, -6.117423613216665, 9362.0, 30146.0, 35388.0, 9362.0, 8.33057975769043, -0.3090461194515228, 0.46377497911453247, 0.3766692578792572, 0.00804563332349062, -0.06884472817182541, 0.9994898438453674, -0.06503910571336746, 0.05000114440917969, 1.5, 1.197509765625, 0.3980255126953125, 1.497802734375, 1.31982421875, 10.0, 1.420601725578308, 1.5, 1.420601725578308
29426, -1.7601251602172852, -7.392248630523682, 6.154089450836182, 0.7661515474319458, 0.2730673551559448, -8.977949142456055, 1.3663283586502075, 0.48687949776649475, -0.7357114553451538, -0.7878935933113098, -0.9570844173431396, 0.06173883005976677, -0.7415964030125417, 0.5502939030526193, -6.090817353737659, 9362.0, 30146.0, 35388.0, 9362.0, 8.33057975769043, 0.45835044980049133, -0.008545025251805782, 0.3943067491054535, 0.00804118998348713, -0.06979555636644363, 0.9984940886497498, -0.06503910571336746, 0.05000114440917969, 1.5, 1.58349609375, 0.3784332275390625, 1.497802734375, 1.31982421875, 10.0, 1.420601725578308, 1.5, 1.420601725578308
29436, -1.7607333660125732, -7.393868923187256, 6.15578031539917, 0.7661515474319458, 0.2730673551559448, -8.977949142456055, 1.3663283586502075, 0.48687949776649475, -0.7357114553451538, -0.7878774404525757, -0.9570639729499817, 0.06176484003663063, -0.7610959851733342, 0.5472577867250834, -6.097347193980171, 9362.0, 30146.0, 35388.0, 9362.0, 8.33057975769043, 0.0015361275291070342, 0.2754169702529907, -0.021764053031802177, 0.010287592187523842, -0.06810642033815384, 0.9960171580314636, -0.06503910571336746, 0.05000114440917969, 1.5, 1.58349609375, 0.3784332275390625, 1.497802734375, 1.31982421875, 10.0, 1.420601725578308, 1.5, 1.420601725578308
29446, -1.758655071258545, -7.395893096923828, 6.156319618225098, 0.7661515474319458, 0.2730673551559448, -8.977949142456055, 1.3663283586502075, 0.48687949776649475, -0.7357114553451538, -0.7879088521003723, -0.9571059942245483, 0.06174034997820854, -0.7419324523590973, 0.538278641321142, -6.082157737879887, 9362.0, 30146.0, 35388.0, 9362.0, 8.33057975769043, -0.1776355355978012, -0.050801459699869156, 0.3291780352592468, 0.010287592187523842, -0.06810642033815384, 0.9960171580314636, -0.09284348040819168, -0.10231781005859375, 1.487548828125, 1.58349609375, 0.3784332275390625, 1.497802734375, 1.31982421875, 10.0, 1.420601725578308, 1.5, 1.420601725578308
29596, -1.7687228918075562, -7.406726837158203, 6.153501987457275, 0.9388974905014038, 0.33461761474609375, -9.067000389099121, 1.512844443321228, 0.5389643907546997, -0.7484744191169739, -0.7878955006599426, -0.9570688605308533, 0.06175222992897034, -0.7605248405183184, 0.5363483848171313, -6.087567596156555, 9362.0, 30146.0, 35388.0, 9362.0, 8.33057975769043, -0.09121504426002502, -0.07463832199573517, 0.08726033568382263, 0.009785205125808716, -0.06848546862602234, 0.9972932934761047, -0.09284348040819168, -0.10231781005859375, 1.487548828125, 1.58056640625, 0.3715972900390625, 1.49560546875, 1.31982421875, 10.0, 1.4238966703414917, 1.5, 1.4238966703414917
29606, -1.7694648504257202, -7.406127452850342, 6.152317523956299, 0.9388974905014038, 0.33461761474609375, -9.067000389099121, 1.512844443321228, 0.5389643907546997, -0.7484744191169739, -0.7878815531730652, -0.9570965766906738, 0.06174951046705246, -0.7442639499096695, 0.5441645288469203, -6.081026325384901, 9362.0, 30146.0, 35388.0, 9362.0, 8.33057975769043, 0.07461176067590714, 0.08688147366046906, 0.15904606878757477, 0.008796283043920994, -0.0687650740146637, 0.999212920665741, -0.09284348040819168, -0.10231781005859375, 1.487548828125, 1.58056640625, 0.3715972900390625, 1.49560546875, 1.31982421875, 10.0, 1.4237645864486694, 1.5, 1.4237645864486694
29616, -1.7714835405349731, -7.403831481933594, 6.152909278869629, 0.9388974905014038, 0.33461761474609375, -9.067000389099121, 1.512844443321228, 0.5389643907546997, -0.7484744191169739, -0.7879002690315247, -0.9570997953414917, 0.061716228723526, -0.739547536761427, 0.5385762142901456, -6.084107812279503, 9362.0, 30146.0, 35388.0, 9362.0, 8.33057975769043, -0.3270162045955658, -0.11244584619998932, 0.048857755959033966, 0.008796283043920994, -0.0687650740146637, 0.999212920665741, -0.09284348040819168, -0.10231781005859375, 1.487548828125, 1.083984375, 1.4775848388671875, 1.49560546875, 1.31982421875, 10.0, 1.4235774278640747, 1.5, 1.4235774278640747
29626, -1.7722973823547363, -7.403764247894287, 6.153260707855225, 1.063831090927124, 0.3791241943836212, -9.127260208129883, 1.610530138015747, 0.5737384557723999, -0.7576615214347839, -0.7878975868225098, -0.9570965766906738, 0.06171836704015732, -0.7422499232510654, 0.539403754497016, -6.085906228152554, 9362.0, 30146.0, 35388.0, 9362.0, 8.33057975769043, -0.12859387695789337, 0.03988633304834366, 0.22984497249126434, 0.010626178234815598, -0.06713835150003433, 0.9965792894363403, -0.09284348040819168, -0.10231781005859375, 1.487548828125, 1.336669921875, 0.0177764892578125, 1.49560546875, 1.31982421875, 10.0, 1.42380952835083, 1.5, 1.42380952835083
29636, -1.7731561660766602, -7.404468536376953, 6.154734134674072, 1.0799974203109741, 0.3848833441734314, -9.134842872619629, 1.6227282285690308, 0.5780938863754272, -0.7588391304016113, -0.7878896594047546, -0.9570605754852295, 0.06177409365773201, -0.7620688045778633, 0.5395822099997645, -6.091531823882445, 9362.0, 30146.0, 35388.0, 9362.0, 8.33057975769043, -0.23037046194076538, 0.3096976578235626, 0.21285749971866608, 0.008962919004261494, -0.06715866923332214, 0.9969755411148071, -0.09284348040819168, -0.10231781005859375, 1.487548828125, 1.1865234375, 0.4651947021484375, 1.49560546875, 1.31982421875, 10.0, 1.4232637882232666, 1.5, 1.4232637882232666
29646, -1.7758362293243408, -7.405154705047607, 6.154054164886475, 1.0962857007980347, 0.3906860649585724, -9.142436981201172, 1.6349292993545532, 0.5824522376060486, -0.7599863409996033, -0.7879043221473694, -0.9571030735969543, 0.061722129583358765, -0.7342429043893703, 0.5411632513340976, -6.088941256207478, 9362.0, 30146.0, 35388.0, 9362.0, 8.310744285583496, -0.19142912328243256, 0.20664194226264954, 0.007504674606025219, 0.008962919004261494, -0.06715866923332214, 0.9969755411148071, -0.09284348040819168, -0.10231781005859375, 1.487548828125, 1.314697265625, 0.0319061279296875, 1.49560546875, 1.31982421875, 10.0, 1.4232637882232666, 1.5, 1.4232637882232666
29686, -1.7742568254470825, -7.4045634269714355, 6.152256488800049, 1.1292282342910767, 0.40242230892181396, -9.157660484313965, 1.659322738647461, 0.5911722183227539, -0.7623786926269531, -0.7879068851470947, -0.9570576548576355, 0.06174174323678017, -0.7528639749982234, 0.539364764003949, -6.097173713438842, 9362.0, 30146.0, 35388.0, 9362.0, 8.310744285583496, 0.06530018150806427, -0.07996179908514023, 0.2875938415527344, 0.0075124576687812805, -0.06703373044729233, 0.9968909025192261, -0.09284348040819168, -0.10231781005859375, 1.487548828125, 1.34765625, 0.0154571533203125, 1.49560546875, 1.31982421875, 10.0, 1.423064947128296, 1.5, 1.423064947128296
29696, -1.7744786739349365, -7.407123565673828, 6.153330326080322, 1.1292282342910767, 0.40242230892181396, -9.157660484313965, 1.659322738647461, 0.5911722183227539, -0.7623786926269531, -0.7879137992858887, -0.9571109414100647, 0.061730869114398956, -0.7407437557286572, 0.5458698757397542, -6.08780442072796, 9362.0, 30146.0, 35388.0, 9362.0, 8.310744285583496, -0.16835826635360718, -0.17109502851963043, 0.004666157066822052, 0.0075566512532532215, -0.06932322680950165, 0.9964288473129272, -0.09284348040819168, -0.10231781005859375, 1.487548828125, 1.34765625, 0.0154571533203125, 1.49560546875, 1.31982421875, 10.0, 1.423064947128296, 1.5, 1.423064947128296
29706, -1.7739020586013794, -7.408928394317627, 6.1545090675354, 1.1292282342910767, 0.40242230892181396, -9.157660484313965, 1.659322738647461, 0.5911722183227539, -0.7623786926269531, -0.7879180908203125, -0.9570765495300293, 0.06177623197436333, -0.7544319896594891, 0.5290234345831379, -6.072177403958947, 9362.0, 30146.0, 35388.0, 9362.0, 8.310744285583496, -0.1329185962677002, 0.43252474069595337, 0.19770818948745728, 0.010511184111237526, -0.06937471777200699, 0.9974628686904907, -0.09284348040819168, -0.10231781005859375, 1.487548828125, 1.34765625, 0.0154571533203125, 1.49560546875, 1.31982421875, 10.0, 1.423064947128296, 1.5, 1.423064947128296
29716, -1.7732698917388916, -7.410584926605225, 6.156447887420654, 1.1292282342910767, 0.40242230892181396, -9.157660484313965, 1.659322738647461, 0.5911722183227539, -0.7623786926269531, -0.7879072427749634, -0.9571148753166199, 0.06171642988920212, -0.7477942258897006, 0.5405550833680479, -6.095358992666234, 9362.0, 30146.0, 35388.0, 9362.0, 8.310744285583496, -0.1329185962677002, 0.43252474069595337, 0.19770818948745728, 0.008450482971966267, -0.06901691108942032, 0.9958603978157043, -0.09284348040819168, -0.10231781005859375, 1.487548828125, 1.34765625, 0.0154571533203125, 1.49560546875, 1.31982421875, 10.0, 1.423064947128296, 1.5, 1.423064947128296
29726, -1.7734683752059937, -7.411574363708496, 6.158236980438232, 1.1292282342910767, 0.40242230892181396, -9.157660484313965, 1.659322738647461, 0.5911722183227539, -0.7623786926269531, -0.7878901958465576, -0.9570714831352234, 0.061773065477609634, -0.7567357152732518, 0.5305576650594332, -6.0965570121733546, 9362.0, 30146.0, 35388.0, 9362.0, 8.310744285583496, 0.03504539281129837, 0.16763800382614136, 0.13994228839874268, 0.00824557151645422, -0.06868743896484375, 0.9976348280906677, -0.09284348040819168, -0.10231781005859375, 1.487548828125, 1.34765625, 0.0154571533203125, 1.49560546875, 1.31982421875, 10.0, 1.423064947128296, 1.5, 1.423064947128296
