timeTick, roll, pitch, yaw, stateX, stateY, stateZ, stateVX, stateVY, stateVZ, otX0, otY0, otZ0, otRoll0, otPitch0, otYaw0, left wing, pitch motor, yaw motor, right wing, voltage, roll rate, pitch rate, yaw rate, A_x, A_y, A_z, current, i_raw, v_raw, airflow_voltage, airflow_speed, pot_Pitch, voltage_nKF, kFFx, volt_KF_vel, kP, volt_KF_pos
16341, -0.43913328647613525, 3.2765884399414062, -0.03873651474714279, 0, 0, 0, 0, 0, 0, -0.7954458594322205, -0.9578096270561218, 0.0626341849565506, -0.35027323060791243, 0.3800637328941434, 0.4483186117041962, 0, 0, 0, 0, 0, 0, 0, 0, 0, 0, 0, 0, 0, 0, 0, 0, 0, 0, 0, 0, 0, 0
16351, -0.43926942348480225, 3.275083541870117, -0.03798513114452362, 0.0003663236857391894, -4.9541686166776344e-05, -2.65730881690979, 0.0038236696273088455, -0.0005189051735214889, -0.3613305389881134, -0.7954468131065369, -0.9578056931495667, 0.06264472752809525, -0.34924646589194874, 0.38730464023450395, 0.4404979839088199, 9362.0, 30146.0, 35388.0, 9362.0, 0, -0.2292676568031311, -0.05518116429448128, 0.029200652614235878, 0.004855126142501831, -0.06320817023515701, 0.9976025819778442, 0, 0, 0, 0, 0, 0, 0, 0, 0, 0, 0
16361, -0.4398656487464905, 3.2755112648010254, -0.037757717072963715, 0.0003766251029446721, -5.0965474656550214e-05, -2.6609246730804443, -0.00176340714097023, 0.00023407400294672698, -0.36183029413223267, -0.795478880405426, -0.9578169584274292, 0.06263001263141632, -0.3469061543980305, 0.3803211712416612, 0.4290762227645772, 9362.0, 30146.0, 35388.0, 9362.0, 0, 0.12565654516220093, 0.24344749748706818, -0.10281030833721161, 0.004374053794890642, -0.06537529826164246, 0.9997569918632507, 0, 0, 0, 1.39453125, 0.035003662109375, 0, 1.3154296875, 10.0, 1.37725031375885, 1.5, 1.37725031375885
16371, -0.43844056129455566, 3.2739827632904053, -0.03871006518602371, 0.0003310380852781236, -4.485457975533791e-05, -2.6645450592041016, -0.007353996392339468, 0.0009880824945867062, -0.36222371459007263, -0.7954647541046143, -0.9577958583831787, 0.06260479241609573, -0.33172435130996775, 0.3846565585006658, 0.4271723141820571, 9362.0, 30146.0, 35388.0, 9362.0, 0, 0.16022512316703796, 0.15486110746860504, -0.09929922223091125, 0.004131881985813379, -0.06487765908241272, 1.0009241104125977, 0, 0, 0, 1.392333984375, 0.03314208984375, 1.49267578125, 1.119140625, 10.0, 1.376821756362915, 1.5, 1.376821756362915
16381, -0.4379119873046875, 3.272880792617798, -0.04042666777968407, 0.0002294871082995087, -3.1191269954433665e-05, -2.668168306350708, -0.012956195510923862, 0.0017446692800149322, -0.3624267578125, -0.7954612970352173, -0.957806408405304, 0.06259110569953918, -0.33830929001772136, 0.3925877863244409, 0.43552604567663783, 9362.0, 30146.0, 35388.0, 9362.0, 0, 0.08895754814147949, 0.08948678523302078, 0.1956017017364502, 0.004843452014029026, -0.06207716092467308, 1.00055992603302, 0, 0, 0, 1.18359375, 0.4842071533203125, 1.49267578125, 1.437744140625, 10.0, 1.3768576383590698, 1.5, 1.3768576383590698
16391, -0.4374904930591583, 3.272371292114258, -0.03881431370973587, 7.189554162323475e-05, -9.969555321731605e-06, -2.671792984008789, -0.018562091514468193, 0.0024998390581458807, -0.362518846988678, -0.7954942584037781, -0.957801103591919, 0.0626245066523552, -0.33673718960600263, 0.3768393469656246, 0.4192368539350868, 9362.0, 30146.0, 35388.0, 9362.0, 0, 0.1253369301557541, -0.19189265370368958, 0.037637922912836075, 0.004184948746114969, -0.06300745904445648, 0.9978370070457458, 0, 0, 0, 1.24951171875, 0.1648101806640625, 1.491943359375, 1.487548828125, 10.0, 1.3772121667861938, 1.5, 1.3772121667861938
16401, -0.4366863965988159, 3.2724337577819824, -0.0380498506128788, -0.00014174520038068295, 1.8800117686623707e-05, -2.6754186153411865, -0.024166075512766838, 0.0032539372332394123, -0.3626118004322052, -0.7954813838005066, -0.9577829837799072, 0.06259389221668243, -0.3234969245776215, 0.39024660200604444, 0.4284587583689108, 9362.0, 30146.0, 35388.0, 9362.0, 0, -0.04583285003900528, -0.2021235078573227, -0.05390753969550133, 0.004287219140678644, -0.06409701704978943, 0.9968593716621399, 0, 0, 0, 1.42236328125, 0.0649566650390625, 1.491943359375, 1.477294921875, 10.0, 1.3766942024230957, 1.5, 1.3766942024230957
16411, -0.4365977942943573, 3.273179054260254, -0.03833930194377899, -0.00041135193896479905, 5.5097021686378866e-05, -2.679046392440796, -0.029755285009741783, 0.004005368333309889, -0.3629482090473175, -0.7954777479171753, -0.9578216075897217, 0.06256694346666336, -0.340419482795105, 0.3753833786941243, 0.42414889697422625, 9362.0, 30146.0, 35388.0, 9362.0, 0, 0.0011413453612476587, -0.1737585961818695, -0.07099265605211258, 0.004500189796090126, -0.06345777958631516, 0.9994465708732605, 0, 0, 0, 1.142578125, 0.8070068359375, 1.496337890625, 1.49267578125, 10.0, 1.3763502836227417, 1.5, 1.3763502836227417
16421, -0.4362943470478058, 3.2737326622009277, -0.038426004350185394, -0.0007368095102719963, 9.88953688647598e-05, -2.68267822265625, -0.0353362113237381, 0.0047543286345899105, -0.3634313941001892, -0.7954463958740234, -0.9578215479850769, 0.06261669099330902, -0.352306163043286, 0.386790186860253, 0.45170154404096097, 9362.0, 30146.0, 35388.0, 9362.0, 0, 0.1041591465473175, 0.03938544541597366, -0.029267404228448868, 0.003865152597427368, -0.06199796125292778, 1.0008102655410767, 0, 0, 0, 1.434814453125, 0.081787109375, 1.496337890625, 1.456787109375, 10.0, 1.3762861490249634, 1.5, 1.3762861490249634
16431, -0.43559667468070984, 3.273029327392578, -0.03934536501765251, -0.0011181571753695607, 0.00015019270358607173, -2.6863136291503906, -0.04093330726027489, 0.005505146458745003, -0.3636537790298462, -0.7954459190368652, -0.9577990174293518, 0.06263534724712372, -0.3458494846547102, 0.3878426275062168, 0.43935500459358057, 9362.0, 30146.0, 35388.0, 9362.0, 0, -0.09803613275289536, 0.2963125705718994, 0.025274252519011497, 0.0040159206837415695, -0.061987556517124176, 0.9964647889137268, 0, 0, 0, 1.14990234375, 0.7412872314453125, 1.497802734375, 1.49267578125, 10.0, 1.3766329288482666, 1.5, 1.3766329288482666
16441, -0.4354363679885864, 3.272630214691162, -0.04016168415546417, -0.0015555100981146097, 0.0002089996269205585, -2.689950704574585, -0.04653727635741234, 0.00625632656738162, -0.3637726902961731, -0.7954416871070862, -0.9577909708023071, 0.06261780858039856, -0.34911546440410623, 0.38306577483575666, 0.44822363228104334, 9362.0, 30146.0, 35388.0, 9362.0, 8.390083312988281, 0.03453049436211586, -0.21877245604991913, -0.17248846590518951, 0.003804884385317564, -0.06242430582642555, 0.9978747963905334, -0.0813349261879921, -0.10231781005859375, 1.487548828125, 1.197509765625, 0.3980255126953125, 1.497802734375, 1.49267578125, 10.0, 1.376617431640625, 1.5, 1.376617431640625
16451, -0.4351106584072113, 3.2744252681732178, -0.04158907011151314, -0.0020487939473241568, 0.00027529909857548773, -2.6935908794403076, -0.052119478583335876, 0.007003645412623882, -0.36425068974494934, -0.7954542636871338, -0.9578117728233337, 0.0626138374209404, -0.3493868994412694, 0.3845797004535427, 0.44262139470251055, 9362.0, 30146.0, 35388.0, 9362.0, 8.390083312988281, 0.18509289622306824, -0.2880012094974518, -0.28468263149261475, 0.004087353125214577, -0.061726875603199005, 0.9974408149719238, -0.0813349261879921, -0.10231781005859375, 1.487548828125, 1.371826171875, 0.02008056640625, 1.49560546875, 1.453857421875, 10.0, 1.3766963481903076, 1.5, 1.3766963481903076
16461, -0.43431171774864197, 3.27443790435791, -0.042920250445604324, -0.0025979136116802692, 0.000349073059624061, -2.697235584259033, -0.05770440772175789, 0.00775128835812211, -0.36466869711875916, -0.7954360246658325, -0.9578090906143188, 0.06260717660188675, -0.3426729026145802, 0.3741314531958153, 0.45171492214026393, 9362.0, 30146.0, 35388.0, 9362.0, 8.390083312988281, -0.22784091532230377, -0.10567373782396317, -0.04461299255490303, 0.005183192901313305, -0.06167475879192352, 0.9968041777610779, -0.0813349261879921, -0.10231781005859375, 1.487548828125, 1.19677734375, 0.40228271484375, 1.49560546875, 1.1806640625, 10.0, 1.3763408660888672, 1.5, 1.3763408660888672
16471, -0.4363023638725281, 3.2753970623016357, -0.04293668270111084, -0.0032029051799327135, 0.00043032236862927675, -2.7008843421936035, -0.06329388916492462, 0.008498705923557281, -0.3650607764720917, -0.7954707145690918, -0.9578186869621277, 0.06261434406042099, -0.3530288015712696, 0.37950440119828954, 0.4419390926942713, 9362.0, 30146.0, 35388.0, 9362.0, 8.390083312988281, 0.0657905787229538, 0.2281210869550705, 0.1299120932817459, 0.004770783707499504, -0.06393235921859741, 0.99755859375, -0.0813349261879921, -0.10231781005859375, 1.487548828125, 1.486083984375, 0.16845703125, 1.494140625, 1.481689453125, 10.0, 1.3755571842193604, 1.5, 1.3755571842193604
16481, -0.43577831983566284, 3.275228500366211, -0.042526137083768845, -0.0038637700490653515, 0.0005190368392504752, -2.7045373916625977, -0.06887908279895782, 0.009244183078408241, -0.3655281364917755, -0.7954820990562439, -0.9578326940536499, 0.06256604194641113, -0.34369580517153264, 0.3950760488761773, 0.42501890547376514, 9362.0, 30146.0, 35388.0, 9362.0, 8.390083312988281, -0.0835607573390007, 0.0037347450852394104, 0.11115759611129761, 0.004084467422217131, -0.06477675586938858, 0.9995619654655457, -0.0813349261879921, -0.10231781005859375, 1.487548828125, 1.1953125, 0.4109344482421875, 1.494140625, 1.51171875, 10.0, 1.3750922679901123, 1.5, 1.3750922679901123
16491, -0.4366995692253113, 3.2765352725982666, -0.04173639789223671, -0.004580511711537838, 0.0006152252899482846, -2.7081947326660156, -0.07446927577257156, 0.009993471205234528, -0.3659369647502899, -0.795498788356781, -0.957804799079895, 0.06265758723020554, -0.37229705101765465, 0.34217739848352835, 0.40827136014011695, 9362.0, 30146.0, 35388.0, 9362.0, 8.390083312988281, -0.09758162498474121, -0.5687017440795898, -0.18533504009246826, 0.00408738199621439, -0.06363464891910553, 0.998352587223053, -0.0813349261879921, -0.10231781005859375, 1.487548828125, 1.47802734375, 0.1532745361328125, 1.49267578125, 1.456787109375, 10.0, 1.3753341436386108, 1.5, 1.3753341436386108
16501, -0.4367658495903015, 3.280118227005005, -0.04276549443602562, -0.005353203043341637, 0.0007189085008576512, -2.711855173110962, -0.08006897568702698, 0.010743099264800549, -0.3661746382713318, -0.7954918146133423, -0.9578042030334473, 0.06260699033737183, -0.34073677850244055, 0.3918800469502912, 0.4373606276462227, 9362.0, 30146.0, 35388.0, 9362.0, 8.390083312988281, 0.024204934015870094, 0.3061661720275879, 0.1021004244685173, 0.0015547539805993438, -0.06306275725364685, 0.9984690546989441, -0.0813349261879921, -0.10231781005859375, 1.487548828125, 1.398193359375, 0.03826904296875, 1.49267578125, 1.450927734375, 10.0, 1.3757520914077759, 1.5, 1.3757520914077759
16511, -0.4365934431552887, 3.2782273292541504, -0.041989948600530624, -0.0061818864196538925, 0.0008300933404825628, -2.7155184745788574, -0.08566764742136002, 0.011493971571326256, -0.36646929383277893, -0.7954866290092468, -0.9578142762184143, 0.06259865313768387, -0.33874024618635246, 0.39342967335122125, 0.4393975554845381, 9362.0, 30146.0, 35388.0, 9362.0, 8.390083312988281, -0.02296638675034046, -0.2946453392505646, -0.342654287815094, 0.0026745188515633345, -0.06319992989301682, 1.0000066757202148, -0.0813349261879921, -0.10231781005859375, 1.487548828125, 1.409912109375, 0.0501251220703125, 1.493408203125, 1.231201171875, 10.0, 1.3761615753173828, 1.5, 1.3761615753173828
16521, -0.4365646541118622, 3.281155824661255, -0.04442239925265312, -0.0070665860548615456, 0.0009487878996878862, -2.719184637069702, -0.09127230197191238, 0.012244862504303455, -0.36676663160324097, -0.7954705953598022, -0.9578083753585815, 0.06260267645120621, -0.3513036243427597, 0.3896678684894823, 0.4261508582126374, 9362.0, 30146.0, 35388.0, 9362.0, 8.390083312988281, -0.03140801936388016, -0.045937713235616684, -0.21704818308353424, 0.0024614797439426184, -0.0621945895254612, 1.000565767288208, -0.0813349261879921, -0.10231781005859375, 1.487548828125, 1.389404296875, 0.03082275390625, 1.493408203125, 1.46923828125, 10.0, 1.376531958580017, 1.5, 1.376531958580017
16531, -0.4366852641105652, 3.281677722930908, -0.04707896336913109, -0.00800735130906105, 0.0010749942157417536, -2.722853183746338, -0.096880704164505, 0.012996635399758816, -0.3669414520263672, -0.7954683303833008, -0.9577943086624146, 0.06260666251182556, -0.3400491413646396, 0.3971124492476861, 0.43499022791960396, 9362.0, 30146.0, 35388.0, 9362.0, 8.390083312988281, 0.09049723297357559, -0.1193358451128006, 0.20519080758094788, 0.003095620311796665, -0.06041935831308365, 0.9971557259559631, -0.0813349261879921, -0.10231781005859375, 1.487548828125, 1.1865234375, 0.4651947021484375, 1.48828125, 1.294921875, 10.0, 1.3769694566726685, 1.5, 1.3769694566726685
16541, -0.4361462891101837, 3.2816267013549805, -0.046654112637043, -0.009004238992929459, 0.001208720961585641, -2.7265231609344482, -0.10249672830104828, 0.013748977333307266, -0.36707043647766113, -0.7954593300819397, -0.957820475101471, 0.06260478496551514, -0.34759519014777673, 0.38729900383765425, 0.43948913643502985, 9362.0, 30146.0, 35388.0, 9362.0, 8.390083312988281, 0.03699621185660362, 0.16446058452129364, -0.12506146728992462, 0.004603550303727388, -0.061962246894836426, 0.9966638684272766, -0.08084894716739655, -0.2635974884033203, 1.474365234375, 1.316162109375, 0.030517578125, 1.48828125, 1.377685546875, 10.0, 1.377256989479065, 1.5, 1.377256989479065
16551, -0.4356629252433777, 3.2806310653686523, -0.04706116020679474, -0.010057209990918636, 0.0013499626656994224, -2.730195999145508, -0.10809747874736786, 0.014499322511255741, -0.36748164892196655, -0.7954726815223694, -0.9578203558921814, 0.06261464953422546, -0.34673396836198844, 0.3891559246872305, 0.4378214325197336, 9362.0, 30146.0, 35388.0, 9362.0, 8.390083312988281, -0.02843535877764225, -0.0736188217997551, -0.10903704166412354, 0.004708759021013975, -0.062339868396520615, 0.9980064630508423, -0.08084894716739655, -0.2635974884033203, 1.474365234375, 1.04443359375, 2.0972442626953125, 1.49267578125, 1.234130859375, 10.0, 1.3775057792663574, 1.5, 1.3775057792663574
16561, -0.4361018240451813, 3.2803521156311035, -0.047230981290340424, -0.011166156269609928, 0.0014986987225711346, -2.7338733673095703, -0.1136917844414711, 0.015247932635247707, -0.3680032193660736, -0.7954688668251038, -0.957817554473877, 0.06260363757610321, -0.3535759089747105, 0.3913803715497295, 0.44107353943473, 9362.0, 30146.0, 35388.0, 9362.0, 8.390083312988281, 0.10264459997415543, 0.1982596069574356, 0.23164498805999756, 0.0037543647922575474, -0.06157446652650833, 0.9965709447860718, -0.08084894716739655, -0.2635974884033203, 1.474365234375, 1.159423828125, 0.66131591796875, 1.49267578125, 0.9580078125, 10.0, 1.3778786659240723, 1.5, 1.3778786659240723
16571, -0.4352997839450836, 3.278333902359009, -0.0466008335351944, -0.012331080622971058, 0.001654922729358077, -2.7375552654266357, -0.11929299682378769, 0.015996884554624557, -0.36837464570999146, -0.7954723238945007, -0.9578277468681335, 0.06257329136133194, -0.35298169841294186, 0.3964376564750296, 0.44008953995724603, 9362.0, 30146.0, 35388.0, 9362.0, 8.390083312988281, 0.025859102606773376, 0.10048795491456985, 0.12089923769235611, 0.002821145113557577, -0.06156012788414955, 0.9967032074928284, -0.08084894716739655, -0.2635974884033203, 1.474365234375, 1.510986328125, 0.217864990234375, 1.494140625, 1.156494140625, 10.0, 1.3783657550811768, 1.5, 1.3783657550811768
16581, -0.43505746126174927, 3.276982069015503, -0.04537107050418854, -0.013551995158195496, 0.0018186375964432955, -2.741241216659546, -0.12489002197980881, 0.016746023669838905, -0.36881136894226074, -0.7954586148262024, -0.9578096270561218, 0.06258044391870499, -0.3499913014725838, 0.39059160063152376, 0.42832624142756226, 9362.0, 30146.0, 35388.0, 9362.0, 8.390083312988281, -0.013235182501375675, -0.22315970063209534, 0.16318611800670624, 0.0031450081150978804, -0.06249255686998367, 0.9979996681213379, -0.08084894716739655, -0.2635974884033203, 1.474365234375, 1.442138671875, 0.0926361083984375, 1.494140625, 1.358642578125, 10.0, 1.3787028789520264, 1.5, 1.3787028789520264
16591, -0.43562641739845276, 3.2783701419830322, -0.04342643544077873, -0.014828845858573914, 0.0019898342434316874, -2.744931936264038, -0.130480095744133, 0.017493199557065964, -0.3693094551563263, -0.7955026626586914, -0.9578155875205994, 0.06263895332813263, -0.38003488748313924, 0.3411764541996831, 0.4055442969380288, 9362.0, 30146.0, 35388.0, 9362.0, 8.390083312988281, -0.02150365151464939, 0.030388468876481056, 0.004950598813593388, 0.002527221804484725, -0.061946697533130646, 0.9998944401741028, -0.08084894716739655, -0.2635974884033203, 1.474365234375, 1.15576171875, 0.6913604736328125, 1.487548828125, 1.345458984375, 10.0, 1.378690242767334, 1.5, 1.378690242767334
16601, -0.43626439571380615, 3.2769455909729004, -0.0427238792181015, -0.016161620616912842, 0.0021685047540813684, -2.748626947402954, -0.13607490062713623, 0.018240714445710182, -0.3696841895580292, -0.79545658826828, -0.9577912092208862, 0.06260772049427032, -0.33876443228459496, 0.38902814444656997, 0.4378657656754677, 9362.0, 30146.0, 35388.0, 9362.0, 8.390083312988281, 0.118290476500988, -0.1309305727481842, -0.13512223958969116, 0.0026956184301525354, -0.06412654370069504, 0.9989331960678101, -0.08084894716739655, -0.2635974884033203, 1.474365234375, 1.49560546875, 0.1868743896484375, 1.487548828125, 1.42236328125, 10.0, 1.3783713579177856, 1.5, 1.3783713579177856
16611, -0.4353678822517395, 3.2769274711608887, -0.042656127363443375, -0.017550408840179443, 0.0023546614684164524, -2.7523248195648193, -0.14168277382850647, 0.01899055764079094, -0.3698730170726776, -0.7954530119895935, -0.9578047394752502, 0.0626116469502449, -0.3544976525557583, 0.3863058223095095, 0.43652673944333087, 9362.0, 30146.0, 35388.0, 9362.0, 8.390083312988281, -0.017991933971643448, 0.02658834680914879, -0.016131119802594185, 0.002785203279927373, -0.06363340467214584, 0.9982641935348511, -0.08084894716739655, -0.2635974884033203, 1.474365234375, 1.481689453125, 0.1600799560546875, 1.487548828125, 1.389404296875, 10.0, 1.3784751892089844, 1.5, 1.3784751892089844
16621, -0.4352078437805176, 3.2761995792388916, -0.042614541947841644, -0.018995245918631554, 0.002548319287598133, -2.7560248374938965, -0.1472846269607544, 0.019741004332900047, -0.37012460827827454, -0.7954557538032532, -0.9578169584274292, 0.06264195591211319, -0.3518221282463142, 0.3872397328665045, 0.44891736711544356, 9362.0, 30146.0, 35388.0, 9362.0, 8.390083312988281, 0.033382534980773926, 0.12025301903486252, -0.08060195297002792, 0.004892808385193348, -0.06276467442512512, 0.9983506798744202, -0.08084894716739655, -0.2635974884033203, 1.474365234375, 1.4794921875, 0.155975341796875, 1.487548828125, 1.417236328125, 10.0, 1.3786280155181885, 1.5, 1.3786280155181885
16631, -0.43519124388694763, 3.274667501449585, -0.04294769838452339, -0.020496070384979248, 0.0027494695968925953, -2.759727954864502, -0.15288013219833374, 0.02048906497657299, -0.3704862594604492, -0.7955183386802673, -0.957818329334259, 0.06254440546035767, -0.3546530474067632, 0.37013703552443644, 0.46397739097921, 9362.0, 30146.0, 35388.0, 9362.0, 8.390083312988281, 0.15767410397529602, -0.08790232241153717, -0.1064683347940445, 0.004892808385193348, -0.06276467442512512, 0.9983506798744202, -0.08084894716739655, -0.2635974884033203, 1.474365234375, 1.503662109375, 0.2029876708984375, 1.48974609375, 1.29638671875, 10.0, 1.3782764673233032, 1.5, 1.3782764673233032
16651, -0.4344344139099121, 3.276475191116333, -0.043575696647167206, -0.020496070384979248, 0.0027494695968925953, -2.759727954864502, -0.15288013219833374, 0.02048906497657299, -0.3704862594604492, -0.7954704761505127, -0.9578108191490173, 0.06262750923633575, -0.3451081098235396, 0.3864466397174908, 0.454032842263764, 9362.0, 30146.0, 35388.0, 9362.0, 8.390083312988281, 0.15767410397529602, -0.08790232241153717, -0.1064683347940445, 0.0015183903742581606, -0.06407420337200165, 0.9978399276733398, -0.08084894716739655, -0.2635974884033203, 1.474365234375, 1.503662109375, 0.2029876708984375, 1.491943359375, 1.29638671875, 10.0, 1.3786327838897705, 1.5, 1.3786327838897705
16661, -0.4332290589809418, 3.2769341468811035, -0.04535840451717377, -0.025334123522043228, 0.003397783264517784, -2.770859718322754, -0.1696546971797943, 0.022731173783540726, -0.3716488182544708, -0.7954474687576294, -0.95781010389328, 0.06259927898645401, -0.34762543052792794, 0.3677042719338317, 0.450200157371918, 9362.0, 30146.0, 35388.0, 9362.0, 8.390083312988281, 0.07400974631309509, 0.016009323298931122, -0.14400739967823029, 0.0015183903742581606, -0.06407420337200165, 0.9978399276733398, -0.08084894716739655, -0.2635974884033203, 1.474365234375, 1.503662109375, 0.2029876708984375, 1.491943359375, 1.144775390625, 10.0, 1.3786327838897705, 1.5, 1.3786327838897705
16671, -0.43266013264656067, 3.277395248413086, -0.04623468220233917, -0.027058638632297516, 0.003628827165812254, -2.774578094482422, -0.17524845898151398, 0.023477789014577866, -0.37202683091163635, -0.7954670190811157, -0.9578055739402771, 0.06261702626943588, -0.3433738492985712, 0.38295668745482203, 0.4360581729744738, 9362.0, 30146.0, 35388.0, 9362.0, 8.390083312988281, -0.0012738581281155348, 0.12711581587791443, -0.1309577226638794, 0.0015183903742581606, -0.06407420337200165, 0.9978399276733398, -0.08084894716739655, -0.2635974884033203, 1.474365234375, 1.503662109375, 0.2029876708984375, 1.491943359375, 1.389404296875, 10.0, 1.3786327838897705, 1.5, 1.3786327838897705
16681, -0.4324397146701813, 3.2778422832489014, -0.04693595692515373, -0.028839046135544777, 0.003867321414873004, -2.7783010005950928, -0.18083322048187256, 0.02422112412750721, -0.37257617712020874, -0.7954422235488892, -0.9578186869621277, 0.06261572986841202, -0.3546034234326489, 0.38092543764491893, 0.44003673887542233, 9362.0, 30146.0, 35388.0, 9362.0, 8.390083312988281, 0.05318224057555199, -0.07417275011539459, 0.059497155249118805, 0.0015183903742581606, -0.06407420337200165, 0.9978399276733398, -0.08084894716739655, -0.2635974884033203, 1.474365234375, 1.503662109375, 0.2029876708984375, 1.491943359375, 1.467041015625, 10.0, 1.3786327838897705, 1.5, 1.3786327838897705
16691, -0.43249645829200745, 3.2784311771392822, -0.04643220081925392, -0.0306753721088171, 0.004113253206014633, -2.7820284366607666, -0.18643201887607574, 0.024965327233076096, -0.3728933036327362, -0.7954575419425964, -0.957811176776886, 0.06258494406938553, -0.3516510571755995, 0.3764641391120449, 0.45527415486178935, 9362.0, 30146.0, 35388.0, 9362.0, 8.390083312988281, 0.16604633629322052, -0.49263304471969604, 0.045991893857717514, 0.0015183903742581606, -0.06407420337200165, 0.9978399276733398, -0.08084894716739655, -0.2635974884033203, 1.474365234375, 1.503662109375, 0.2029876708984375, 1.491943359375, 1.207763671875, 10.0, 1.3786327838897705, 1.5, 1.3786327838897705
16701, -0.4320642948150635, 3.2813446521759033, -0.04588502645492554, -0.032567694783210754, 0.004366626031696796, -2.7857589721679688, -0.19203241169452667, 0.025709209963679314, -0.3731958866119385, -0.7954676151275635, -0.9578120112419128, 0.06262870877981186, -0.352928233143755, 0.3881276702337857, 0.4499748063532429, 9362.0, 30146.0, 35388.0, 9362.0, 8.390083312988281, -0.05629304051399231, 0.19316741824150085, 0.2401626706123352, 0.0015183903742581606, -0.06407420337200165, 0.9978399276733398, -0.08084894716739655, -0.2635974884033203, 1.474365234375, 1.503662109375, 0.2029876708984375, 1.491943359375, 1.45458984375, 10.0, 1.3786327838897705, 1.5, 1.3786327838897705
16711, -0.43299204111099243, 3.280961751937866, -0.04429536312818527, -0.034516025334596634, 0.004627438262104988, -2.78949236869812, -0.1976337730884552, 0.026453131809830666, -0.37349942326545715, -0.7954652905464172, -0.9578012228012085, 0.0625983402132988, -0.3431395820760617, 0.39112573485397206, 0.4340837992527356, 9362.0, 30146.0, 35388.0, 9362.0, 8.390083312988281, -0.02404669113457203, 0.013176936656236649, 0.27793973684310913, 0.0015183903742581606, -0.06407420337200165, 0.9978399276733398, -0.08084894716739655, -0.2635974884033203, 1.474365234375, 1.503662109375, 0.2029876708984375, 1.491943359375, 1.45458984375, 10.0, 1.3789784908294678, 1.5, 1.3789784908294678
16721, -0.43360790610313416, 3.281147003173828, -0.04330507665872574, -0.03652041777968407, 0.004895688500255346, -2.7932283878326416, -0.20324459671974182, 0.02719675749540329, -0.37372541427612305, -0.7954660654067993, -0.9578157663345337, 0.06254804879426956, -0.3509657201101356, 0.37689676949449336, 0.43139476074750865, 9362.0, 30146.0, 35388.0, 9362.0, 8.390083312988281, -0.1752185821533203, -0.16477921605110168, 0.1101776584982872, 0.0015183903742581606, -0.06407420337200165, 0.9978399276733398, -0.08084894716739655, -0.2635974884033203, 1.474365234375, 1.503662109375, 0.2029876708984375, 1.491943359375, 1.45458984375, 10.0, 1.3791930675506592, 1.5, 1.3791930675506592
16731, -0.4350438714027405, 3.2830746173858643, -0.042022962123155594, -0.03858088701963425, 0.005171378143131733, -2.7969672679901123, -0.20884893834590912, 0.027941100299358368, -0.37405282258987427, -0.7954992651939392, -0.9578198194503784, 0.06256130337715149, -0.3439791363767628, 0.3773976621181987, 0.4241441255008729, 9362.0, 30146.0, 35388.0, 9362.0, 8.390083312988281, 0.04509427025914192, 0.13651035726070404, 0.01624462753534317, 0.0015183903742581606, -0.06407420337200165, 0.9978399276733398, -0.08084894716739655, -0.2635974884033203, 1.474365234375, 1.503662109375, 0.2029876708984375, 1.491943359375, 1.45458984375, 10.0, 1.3793010711669922, 1.5, 1.3793010711669922
16741, -0.43537437915802, 3.2834982872009277, -0.04257720336318016, -0.0406973659992218, 0.005454511381685734, -2.8007099628448486, -0.21444661915302277, 0.02868543192744255, -0.37450259923934937, -0.7954856157302856, -0.957814633846283, 0.06254327297210693, -0.350500115730894, 0.3680201173525859, 0.44137609596743776, 9362.0, 30146.0, 35388.0, 9362.0, 8.390083312988281, 0.0034658315125852823, -0.008922151289880276, 0.06934177875518799, 0.0015183903742581606, -0.06407420337200165, 0.9978399276733398, -0.08084894716739655, -0.2635974884033203, 1.474365234375, 1.503662109375, 0.2029876708984375, 1.491943359375, 1.45458984375, 10.0, 1.3793010711669922, 1.5, 1.3793010711669922
16751, -0.43553340435028076, 3.283813714981079, -0.04303599148988724, -0.04286981001496315, 0.005745096132159233, -2.804457664489746, -0.22004246711730957, 0.029431598260998726, -0.3750416040420532, -0.7954788208007812, -0.9577979445457458, 0.06257326900959015, -0.3475130877296388, 0.3673402028210262, 0.43973292164508887, 9362.0, 30146.0, 35388.0, 9362.0, 8.390083312988281, 0.03801776096224785, 0.05095062777400017, 0.05464327335357666, 0.003229558700695634, -0.06164727732539177, 0.998219907283783, -0.08084894716739655, -0.2635974884033203, 1.474365234375, 1.503662109375, 0.2029876708984375, 1.491943359375, 1.45458984375, 10.0, 1.3793010711669922, 1.5, 1.3793010711669922
16761, -0.4360239505767822, 3.2834677696228027, -0.043782759457826614, -0.04286981001496315, 0.005745096132159233, -2.804457664489746, -0.22004246711730957, 0.029431598260998726, -0.3750416040420532, -0.7955041527748108, -0.9578004479408264, 0.06260070949792862, -0.34257126673937016, 0.37930328793856916, 0.43281008904075274, 9362.0, 30146.0, 35388.0, 9362.0, 8.390083312988281, -0.041011564433574677, -0.08357232809066772, 0.0465422049164772, 0.003975422587245703, -0.05917808413505554, 0.9984591603279114, -0.08084894716739655, -0.2635974884033203, 1.474365234375, 1.477294921875, 0.1519775390625, 1.491943359375, 1.45458984375, 10.0, 1.3793010711669922, 1.5, 1.3793010711669922
16771, -0.4367712140083313, 3.285179615020752, -0.04519709199666977, -0.04738280177116394, 0.00634869234636426, -2.8119657039642334, -0.23125778138637543, 0.03092837519943714, -0.3757423758506775, -0.7954915165901184, -0.9578067064285278, 0.06259194016456604, -0.3556175722459587, 0.3784006745813713, 0.4148595376745441, 9362.0, 30146.0, 35388.0, 9362.0, 8.390083312988281, -0.09923837333917618, 0.037043482065200806, 0.2539784908294678, 0.0029989127069711685, -0.06131147965788841, 0.9994267821311951, -0.08084894716739655, -0.2635974884033203, 1.474365234375, 1.477294921875, 0.1519775390625, 1.491943359375, 1.45458984375, 10.0, 1.3793010711669922, 1.5, 1.3793010711669922
16781, -0.437570720911026, 3.2859530448913574, -0.04499124363064766, -0.04738280177116394, 0.00634869234636426, -2.8119657039642334, -0.23125778138637543, 0.03092837519943714, -0.3757423758506775, -0.7955021858215332, -0.9578266143798828, 0.06259559094905853, -0.3614311742538199, 0.3934700365208528, 0.42543868792414685, 9362.0, 30146.0, 35388.0, 9362.0, 8.390083312988281, 0.014554297551512718, 0.15865789353847504, 0.03457312285900116, 0.0028939207550138235, -0.06419862806797028, 0.99757981300354, -0.08084894716739655, -0.2635974884033203, 1.474365234375, 1.477294921875, 0.1519775390625, 1.491943359375, 1.45458984375, 10.0, 1.3793010711669922, 1.5, 1.3793010711669922
16801, -0.4369004964828491, 3.287484884262085, -0.04551064968109131, -0.054573021829128265, 0.007310316897928715, -2.8232522010803223, -0.24809010326862335, 0.033181339502334595, -0.3767380714416504, -0.7955159544944763, -0.9578241109848022, 0.06257631629705429, -0.3468547727107301, 0.3946848352789232, 0.42172965683271585, 9362.0, 30146.0, 35388.0, 9362.0, 8.390083312988281, 0.001980667933821678, 0.05591572821140289, -0.0013045486994087696, 0.005447668023407459, -0.0613815002143383, 0.9973939657211304, -0.08084894716739655, -0.2635974884033203, 1.474365234375, 1.477294921875, 0.1519775390625, 1.489013671875, 1.45458984375, 10.0, 1.3793010711669922, 1.5, 1.3793010711669922
16811, -0.43753039836883545, 3.287994861602783, -0.04623067378997803, -0.054573021829128265, 0.007310316897928715, -2.8232522010803223, -0.24809010326862335, 0.033181339502334595, -0.3767380714416504, -0.7954939007759094, -0.9578121900558472, 0.06260219216346741, -0.3464321508922825, 0.3859067576487689, 0.4260265094543599, 9362.0, 30146.0, 35388.0, 9362.0, 8.390083312988281, 0.03471052646636963, 0.2909685969352722, 0.09331084042787552, 0.005447668023407459, -0.0613815002143383, 0.9973939657211304, -0.08084894716739655, -0.2635974884033203, 1.474365234375, 1.477294921875, 0.1519775390625, 1.491943359375, 1.45458984375, 10.0, 1.3793010711669922, 1.5, 1.3793010711669922
16831, -0.43766945600509644, 3.289919137954712, -0.0480748675763607, -0.06226818263530731, 0.008339567109942436, -2.8345723152160645, -0.26493099331855774, 0.03543652966618538, -0.377793550491333, -0.795504093170166, -0.957825779914856, 0.06259810924530029, -0.3495939984410464, 0.3931010427363333, 0.43076875474469606, 9362.0, 30146.0, 35388.0, 9362.0, 8.390083312988281, -0.020637331530451775, 0.0017392393201589584, 0.02015182562172413, 0.0036847470328211784, -0.06133886054158211, 0.998811662197113, -0.08084894716739655, -0.2635974884033203, 1.474365234375, 1.477294921875, 0.1519775390625, 1.491943359375, 1.159423828125, 10.0, 1.3793010711669922, 1.5, 1.3793010711669922
16851, -0.43730512261390686, 3.2940125465393066, -0.05052710324525833, -0.06767920404672623, 0.009063374251127243, -2.8421337604522705, -0.2761676609516144, 0.03694325312972069, -0.3784385323524475, -0.7955188751220703, -0.957818865776062, 0.062577024102211, -0.36017723270923013, 0.39083214003312605, 0.4292489368612009, 9362.0, 30146.0, 35388.0, 9362.0, 8.390083312988281, -0.022978877648711205, -0.49560827016830444, -0.034859947860240936, 0.0036847470328211784, -0.06133886054158211, 0.998811662197113, -0.05966193228960037, -0.04855918884277344, 1.491943359375, 1.477294921875, 0.1519775390625, 1.491943359375, 1.505859375, 10.0, 1.3793010711669922, 1.5, 1.3793010711669922
16861, -0.43697628378868103, 3.298250675201416, -0.05122753977775574, -0.07046901434659958, 0.009436574764549732, -2.845919132232666, -0.28179430961608887, 0.03769705072045326, -0.3786531388759613, -0.7955155372619629, -0.9578129649162292, 0.06255687028169632, -0.35347255682891787, 0.39209004478428255, 0.4293181944570742, 9362.0, 30146.0, 35388.0, 9362.0, 8.390083312988281, 0.07803230732679367, -0.11974714696407318, -0.10133316367864609, 0.0036847470328211784, -0.06133886054158211, 0.998811662197113, -0.05966193228960037, -0.04855918884277344, 1.491943359375, 1.477294921875, 0.1519775390625, 1.491943359375, 1.50732421875, 10.0, 1.3793010711669922, 1.5, 1.3793010711669922
16871, -0.4372181296348572, 3.2986090183258057, -0.05160142481327057, -0.07331511378288269, 0.009817310608923435, -2.8497068881988525, -0.2874258756637573, 0.03845023363828659, -0.37889519333839417, -0.7954800128936768, -0.9577950835227966, 0.06258725374937057, -0.3530925205582861, 0.40797763592667025, 0.39477854424435127, 9362.0, 30146.0, 35388.0, 9362.0, 8.390083312988281, -0.015529222786426544, 0.06054863706231117, 0.2698802351951599, 0.0036847470328211784, -0.06133886054158211, 0.998811662197113, -0.05966193228960037, -0.04855918884277344, 1.491943359375, 1.477294921875, 0.1519775390625, 1.491943359375, 1.1484375, 10.0, 1.3793010711669922, 1.5, 1.3793010711669922
16881, -0.43680688738822937, 3.2986767292022705, -0.04983384534716606, -0.07621753960847855, 0.010205572471022606, -2.8534975051879883, -0.2930598258972168, 0.0392022430896759, -0.37922099232673645, -0.7954894304275513, -0.9577956795692444, 0.06258097290992737, -0.3424860178492481, 0.41038627536198646, 0.40755560060517515, 9362.0, 30146.0, 35388.0, 9362.0, 8.390083312988281, -0.015529222786426544, 0.06054863706231117, 0.2698802351951599, 0.0036961783189326525, -0.06357517093420029, 0.997820258140564, -0.05966193228960037, -0.04855918884277344, 1.491943359375, 1.477294921875, 0.1519775390625, 1.491943359375, 1.1484375, 10.0, 1.377653956413269, 1.5, 1.377653956413269
16891, -0.4367012083530426, 3.2989089488983154, -0.05061303824186325, -0.07621753960847855, 0.010205572471022606, -2.8534975051879883, -0.2930598258972168, 0.0392022430896759, -0.37922099232673645, -0.7954996228218079, -0.9578039646148682, 0.06257371604442596, -0.354587306627944, 0.40578611675940124, 0.4055542389397105, 9362.0, 30146.0, 35388.0, 9362.0, 8.390083312988281, -0.015529222786426544, 0.06054863706231117, 0.2698802351951599, 0.003989094868302345, -0.06387851387262344, 0.9960445165634155, -0.05966193228960037, -0.04855918884277344, 1.491943359375, 1.477294921875, 0.1519775390625, 1.49267578125, 1.1484375, 10.0, 1.3780461549758911, 1.5, 1.3780461549758911
16901, -0.43556320667266846, 3.2990882396698, -0.05241657793521881, -0.07621753960847855, 0.010205572471022606, -2.8534975051879883, -0.2930598258972168, 0.0392022430896759, -0.37922099232673645, -0.7954787015914917, -0.9578016400337219, 0.06255055963993073, -0.34938804611185553, 0.38667034254945065, 0.40537245422847745, 9362.0, 30146.0, 35388.0, 9362.0, 8.390083312988281, -0.10977930575609207, 0.12134820967912674, 0.07015582919120789, 0.0031834898982197046, -0.0607801117002964, 0.9969297051429749, -0.05966193228960037, -0.04855918884277344, 1.491943359375, 1.477294921875, 0.1519775390625, 1.49267578125, 1.1484375, 10.0, 1.3780461549758911, 1.5, 1.3780461549758911
16911, -0.43588006496429443, 3.297314167022705, -0.05176863074302673, -0.08526268601417542, 0.011415451765060425, -2.8648924827575684, -0.30994439125061035, 0.04145512357354164, -0.3805411458015442, -0.7954913377761841, -0.957794189453125, 0.06255680322647095, -0.34511985702919407, 0.3976297173624914, 0.4056990858551848, 9362.0, 30146.0, 35388.0, 9362.0, 8.390083312988281, 0.009511377662420273, 0.2810594141483307, 0.17568577826023102, 0.0031834898982197046, -0.0607801117002964, 0.9969297051429749, -0.05966193228960037, -0.04855918884277344, 1.491943359375, 1.477294921875, 0.1519775390625, 1.49267578125, 1.048095703125, 10.0, 1.3780461549758911, 1.5, 1.3780461549758911
16921, -0.43544673919677734, 3.29577898979187, -0.05089348927140236, -0.08839026093482971, 0.01183374598622322, -2.8687002658843994, -0.31557121872901917, 0.04220360517501831, -0.3810155987739563, -0.79549640417099, -0.9577949047088623, 0.06254617124795914, -0.3455819727110403, 0.4082329587896538, 0.41124033471686683, 9362.0, 30146.0, 35388.0, 9362.0, 8.390083312988281, 0.009511377662420273, 0.2810594141483307, 0.17568577826023102, 0.002788732759654522, -0.06317614763975143, 0.9975765943527222, -0.05966193228960037, -0.04855918884277344, 1.491943359375, 1.477294921875, 0.1519775390625, 1.49267578125, 1.089111328125, 10.0, 1.3780461549758911, 1.5, 1.3780461549758911
16931, -0.4362308979034424, 3.2977311611175537, -0.05170873925089836, -0.08839026093482971, 0.01183374598622322, -2.8687002658843994, -0.31557121872901917, 0.04220360517501831, -0.3810155987739563, -0.7955018877983093, -0.9577959775924683, 0.06257294118404388, -0.34257524473362405, 0.39313374023649317, 0.4070590726871826, 9362.0, 30146.0, 35388.0, 9362.0, 8.390083312988281, 0.009511377662420273, 0.2810594141483307, 0.17568577826023102, 0.003129994496703148, -0.06528642028570175, 0.9973688721656799, -0.05966193228960037, -0.04855918884277344, 1.491943359375, 1.477294921875, 0.1519775390625, 1.49267578125, 1.089111328125, 10.0, 1.379198670387268, 1.5, 1.379198670387268
16941, -0.43703216314315796, 3.298286199569702, -0.052789513021707535, -0.08839026093482971, 0.01183374598622322, -2.8687002658843994, -0.31557121872901917, 0.04220360517501831, -0.3810155987739563, -0.7954936623573303, -0.9577886462211609, 0.0625278651714325, -0.35423019918875304, 0.3922553220307634, 0.3983754426863674, 9362.0, 30146.0, 35388.0, 9362.0, 8.390083312988281, 0.009511377662420273, 0.2810594141483307, 0.17568577826023102, 0.003129994496703148, -0.06528642028570175, 0.9973688721656799, -0.06615384668111801, -0.10231781005859375, 1.487548828125, 1.477294921875, 0.1519775390625, 1.49267578125, 1.089111328125, 10.0, 1.379198670387268, 1.5, 1.379198670387268
16951, -0.437129944562912, 3.2985000610351562, -0.053035784512758255, -0.08839026093482971, 0.01183374598622322, -2.8687002658843994, -0.31557121872901917, 0.04220360517501831, -0.3810155987739563, -0.7955442667007446, -0.9577966928482056, 0.06246142461895943, -0.36307725258163587, 0.3717813619419701, 0.4219972574318321, 9362.0, 30146.0, 35388.0, 9362.0, 8.390083312988281, 0.009511377662420273, 0.2810594141483307, 0.17568577826023102, 0.003129994496703148, -0.06528642028570175, 0.9973688721656799, -0.06615384668111801, -0.10231781005859375, 1.487548828125, 1.477294921875, 0.1519775390625, 1.49267578125, 1.19091796875, 10.0, 1.3789016008377075, 1.5, 1.3789016008377075
16961, -0.4368741810321808, 3.295558214187622, -0.0535317063331604, -0.10146375000476837, 0.013581912964582443, -2.883965253829956, -0.3381047546863556, 0.04520677402615547, -0.3822419047355652, -0.7955551743507385, -0.9578196406364441, 0.06249280273914337, -0.3580568235998784, 0.3800778074561606, 0.4168894562173999, 9362.0, 30146.0, 35388.0, 9362.0, 8.390083312988281, -0.018393635749816895, -0.2671259641647339, -0.16514505445957184, 0.003129994496703148, -0.06528642028570175, 0.9973688721656799, -0.06615384668111801, -0.10231781005859375, 1.487548828125, 1.477294921875, 0.1519775390625, 1.49267578125, 1.29345703125, 10.0, 1.3789016008377075, 1.5, 1.3789016008377075
16971, -0.43677815794944763, 3.2978577613830566, -0.05480922386050224, -0.104872927069664, 0.014037737622857094, -2.8877899646759033, -0.3437310755252838, 0.045958176255226135, -0.3827056288719177, -0.7954891324043274, -0.9578103423118591, 0.06254112720489502, -0.35555603562137905, 0.40714294838309684, 0.40580027226188703, 9362.0, 30146.0, 35388.0, 9362.0, 8.390083312988281, 0.10264173150062561, -0.18917255103588104, -0.028802286833524704, 0.003129994496703148, -0.06528642028570175, 0.9973688721656799, -0.06615384668111801, -0.10231781005859375, 1.487548828125, 1.477294921875, 0.1519775390625, 1.49267578125, 1.23486328125, 10.0, 1.3789016008377075, 1.5, 1.3789016008377075
16981, -0.4360942244529724, 3.2998108863830566, -0.05525485798716545, -0.10833834856748581, 0.014501075260341167, -2.8916192054748535, -0.34935370087623596, 0.04670943692326546, -0.3831472396850586, -0.7954872250556946, -0.9578144550323486, 0.06254655122756958, -0.3565896119497467, 0.3964906071713017, 0.39534722922014043, 9362.0, 30146.0, 35388.0, 9362.0, 8.390083312988281, 0.09968619793653488, 0.16980169713497162, 0.041306231170892715, 0.003129994496703148, -0.06528642028570175, 0.9973688721656799, -0.06615384668111801, -0.10231781005859375, 1.487548828125, 1.477294921875, 0.1519775390625, 1.49267578125, 1.1982421875, 10.0, 1.3789016008377075, 1.5, 1.3789016008377075
16991, -0.4366185963153839, 3.299917221069336, -0.05540094152092934, -0.11186005920171738, 0.014971930533647537, -2.8954522609710693, -0.35498863458633423, 0.04746169596910477, -0.3834434151649475, -0.7955569624900818, -0.9577823877334595, 0.0624576099216938, -0.35512690208256803, 0.3646737265928266, 0.4435676775999028, 9362.0, 30146.0, 35388.0, 9362.0, 8.390083312988281, 0.3509916067123413, 0.12562456727027893, -0.16767166554927826, 0.003129994496703148, -0.06528642028570175, 0.9973688721656799, -0.06615384668111801, -0.10231781005859375, 1.487548828125, 1.477294921875, 0.1519775390625, 1.49267578125, 1.06640625, 10.0, 1.3789016008377075, 1.5, 1.3789016008377075
17001, -0.43480631709098816, 3.299442768096924, -0.056764278560876846, -0.11543816328048706, 0.015450306236743927, -2.899287700653076, -0.36063167452812195, 0.04821344092488289, -0.3836577534675598, -0.7954875230789185, -0.9577962756156921, 0.06257274746894836, -0.3440671571806585, 0.39677261553964627, 0.40660001985650246, 9362.0, 30146.0, 35388.0, 9362.0, 8.390083312988281, 0.14255517721176147, 0.3597772419452667, 0.2816903293132782, 0.003129994496703148, -0.06528642028570175, 0.9973688721656799, -0.06615384668111801, -0.10231781005859375, 1.487548828125, 1.477294921875, 0.1519775390625, 1.49267578125, 1.135986328125, 10.0, 1.3789016008377075, 1.5, 1.3789016008377075
17011, -0.4342010021209717, 3.2972664833068848, -0.05483994632959366, -0.11907267570495605, 0.015936201438307762, -2.903125762939453, -0.36627110838890076, 0.04896571487188339, -0.3839370906352997, -0.7954980731010437, -0.9577891826629639, 0.06253880262374878, -0.34551231102777213, 0.405651392761456, 0.41619957557464804, 9362.0, 30146.0, 35388.0, 9362.0, 8.390083312988281, 0.08914102613925934, -0.160732239484787, -0.16976599395275116, 0.004208085127174854, -0.06416201591491699, 0.9976492524147034, -0.06615384668111801, -0.10231781005859375, 1.487548828125, 1.477294921875, 0.1519775390625, 1.491943359375, 1.135986328125, 10.0, 1.3789016008377075, 1.5, 1.3789016008377075
17021, -0.43351876735687256, 3.2987444400787354, -0.056438710540533066, -0.12276351451873779, 0.0164295956492424, -2.9069676399230957, -0.37189677357673645, 0.04971298202872276, -0.3844403922557831, -0.7954961657524109, -0.9577745199203491, 0.06254570931196213, -0.3428220428152548, 0.39604252662951467, 0.40424574875768865, 9362.0, 30146.0, 35388.0, 9362.0, 8.390083312988281, 0.06463487446308136, 0.32346755266189575, 0.09386852383613586, 0.004208085127174854, -0.06416201591491699, 0.9976492524147034, -0.06615384668111801, -0.10231781005859375, 1.487548828125, 1.477294921875, 0.1519775390625, 1.491943359375, 1.135986328125, 10.0, 1.3758031129837036, 1.5, 1.3758031129837036
17031, -0.43307092785835266, 3.298081636428833, -0.05645880103111267, -0.1265106201171875, 0.016930460929870605, -2.910814046859741, -0.3775242865085602, 0.0504600964486599, -0.3848482370376587, -0.7954875826835632, -0.9578121900558472, 0.06255693733692169, -0.353469598370029, 0.4024336530791004, 0.4004831312202549, 9362.0, 30146.0, 35388.0, 9362.0, 8.390083312988281, 0.06463487446308136, 0.32346755266189575, 0.09386852383613586, 0.005498881451785564, -0.06304112821817398, 0.9969146847724915, -0.06615384668111801, -0.10231781005859375, 1.487548828125, 1.477294921875, 0.1519775390625, 1.491943359375, 1.135986328125, 10.0, 1.3761234283447266, 1.5, 1.3761234283447266
17041, -0.43232932686805725, 3.3001749515533447, -0.05675257742404938, -0.13031402230262756, 0.017438793554902077, -2.9146645069122314, -0.3831559121608734, 0.05120627582073212, -0.38522738218307495, -0.7955079078674316, -0.9578112363815308, 0.06256566196680069, -0.35419179761011743, 0.39548252358198965, 0.4048342011329384, 9362.0, 30146.0, 35388.0, 9362.0, 8.390083312988281, -0.04751789942383766, -0.07099256664514542, -0.10788590461015701, 0.005498881451785564, -0.06304112821817398, 0.9969146847724915, -0.06615384668111801, -0.10231781005859375, 1.487548828125, 1.477294921875, 0.1519775390625, 1.491943359375, 1.135986328125, 10.0, 1.3759502172470093, 1.5, 1.3759502172470093
17051, -0.43177640438079834, 3.3005921840667725, -0.05693177878856659, -0.1341737061738968, 0.01795458048582077, -2.9185192584991455, -0.38878101110458374, 0.05195099860429764, -0.38570141792297363, -0.7954896092414856, -0.9578116536140442, 0.06253412365913391, -0.36016233180343493, 0.40518945638024206, 0.40805183172994497, 9362.0, 30146.0, 35388.0, 9362.0, 8.390083312988281, -0.04751789942383766, -0.07099256664514542, -0.10788590461015701, 0.003794268472120166, -0.06267914175987244, 1.0004425048828125, -0.06615384668111801, -0.10231781005859375, 1.487548828125, 1.477294921875, 0.1519775390625, 1.491943359375, 1.135986328125, 10.0, 1.376220703125, 1.5, 1.376220703125
17061, -0.4320824146270752, 3.300454616546631, -0.05655749887228012, -0.13808968663215637, 0.01847781054675579, -2.9223783016204834, -0.3944145441055298, 0.052695125341415405, -0.38608938455581665, -0.7954884171485901, -0.9578141570091248, 0.06255479156970978, -0.35859055735446493, 0.3983914004656981, 0.40917225209975394, 9362.0, 30146.0, 35388.0, 9362.0, 8.390083312988281, -0.22617709636688232, -0.14153072237968445, -0.13241730630397797, 0.002264839131385088, -0.06272237747907639, 1.0006989240646362, -0.06615384668111801, -0.10231781005859375, 1.487548828125, 1.477294921875, 0.1519775390625, 1.491943359375, 1.135986328125, 10.0, 1.376220703125, 1.5, 1.376220703125
17071, -0.4324343800544739, 3.301083564758301, -0.05730917304754257, -0.14206208288669586, 0.019008487462997437, -2.9262397289276123, -0.4000643193721771, 0.053440310060977936, -0.3862098455429077, -0.7954850196838379, -0.9577886462211609, 0.06254151463508606, -0.34462042926933845, 0.40027569101462745, 0.39910139045889853, 9362.0, 30146.0, 35388.0, 9362.0, 8.390083312988281, 0.225002259016037, 0.16385923326015472, 0.15766188502311707, 0.0037215519696474075, -0.061924103647470474, 0.9988720417022705, -0.06615384668111801, -0.10231781005859375, 1.487548828125, 1.477294921875, 0.1519775390625, 1.491943359375, 1.135986328125, 10.0, 1.376220703125, 1.5, 1.376220703125
17081, -0.43140456080436707, 3.2997121810913086, -0.05626552924513817, -0.14206208288669586, 0.019008487462997437, -2.9262397289276123, -0.4000643193721771, 0.053440310060977936, -0.3862098455429077, -0.7955004572868347, -0.9577930569648743, 0.0625874474644661, -0.34776860601765086, 0.39426916554035074, 0.4188598027750134, 9362.0, 30146.0, 35388.0, 9362.0, 8.390083312988281, 0.18158389627933502, -0.2248694896697998, 0.06024325266480446, 0.004575320053845644, -0.06353756040334702, 0.997855007648468, -0.06615384668111801, -0.10231781005859375, 1.487548828125, 1.4619140625, 0.1246185302734375, 1.491943359375, 1.135986328125, 10.0, 1.376220703125, 1.5, 1.376220703125
17091, -0.4312041699886322, 3.300647020339966, -0.05654902011156082, -0.14206208288669586, 0.019008487462997437, -2.9262397289276123, -0.4000643193721771, 0.053440310060977936, -0.3862098455429077, -0.7955101728439331, -0.9577837586402893, 0.0626019537448883, -0.37245161197711496, 0.35491507027469993, 0.38023759080559444, 9362.0, 30146.0, 35388.0, 9362.0, 8.390083312988281, -0.06969782710075378, -0.12344572693109512, -0.10019185394048691, 0.004458337556570768, -0.06285365670919418, 0.9982563257217407, -0.06615384668111801, -0.10231781005859375, 1.487548828125, 1.47509765625, 0.147857666015625, 1.491943359375, 1.135986328125, 10.0, 1.376220703125, 1.5, 1.376220703125
17101, -0.43177610635757446, 3.30127215385437, -0.05768465995788574, -0.14206208288669586, 0.019008487462997437, -2.9262397289276123, -0.4000643193721771, 0.053440310060977936, -0.3862098455429077, -0.7954877018928528, -0.9578078985214233, 0.06255371868610382, -0.3546864538408336, 0.39427005243695135, 0.40503768743621865, 9362.0, 30146.0, 35388.0, 9362.0, 8.390083312988281, 0.18928994238376617, 0.04809240251779556, 0.14093466103076935, 0.004348400980234146, -0.06357084214687347, 0.9969125390052795, -0.06615384668111801, -0.10231781005859375, 1.487548828125, 1.47509765625, 0.147857666015625, 1.491943359375, 1.135986328125, 10.0, 1.376220703125, 1.5, 1.376220703125
17121, -0.43133482336997986, 3.3022069931030273, -0.05900342017412186, -0.1627705693244934, 0.02177356369793415, -2.9455814361572266, -0.428259015083313, 0.05715932697057724, -0.3877532184123993, -0.7954891920089722, -0.9577934145927429, 0.06257057934999466, -0.34452296605088917, 0.4025961621379963, 0.42199502770703906, 9362.0, 30146.0, 35388.0, 9362.0, 8.390083312988281, -0.103030264377594, -0.4580259919166565, -0.38935181498527527, 0.005776782985776663, -0.06491526961326599, 0.9987441301345825, -0.06615384668111801, -0.10231781005859375, 1.487548828125, 1.47509765625, 0.147857666015625, 1.491943359375, 1.49560546875, 10.0, 1.376220703125, 1.5, 1.376220703125
17131, -0.43210673332214355, 3.3054184913635254, -0.061476510018110275, -0.16708138585090637, 0.022348875179886818, -2.949460029602051, -0.43390417098999023, 0.05790314823389053, -0.3879851698875427, -0.7954773902893066, -0.9577927589416504, 0.06252680718898773, -0.3438305920282194, 0.3851464264207607, 0.4095803319155242, 9362.0, 30146.0, 35388.0, 9362.0, 8.390083312988281, -0.010796001181006432, 0.06913966685533524, -0.010676519945263863, 0.005776782985776663, -0.06491526961326599, 0.9987441301345825, -0.06615384668111801, -0.10231781005859375, 1.487548828125, 1.47509765625, 0.147857666015625, 1.491943359375, 1.4677734375, 10.0, 1.376220703125, 1.5, 1.376220703125
17141, -0.43271908164024353, 3.3054091930389404, -0.06099157780408859, -0.17144864797592163, 0.022931624203920364, -2.953341245651245, -0.4395476281642914, 0.05864688381552696, -0.3882613778114319, -0.7954822778701782, -0.9577882289886475, 0.06255363672971725, -0.3541612867020112, 0.4097533300392797, 0.4018278427514252, 9362.0, 30146.0, 35388.0, 9362.0, 8.390083312988281, -0.012479339726269245, 0.11766317486763, 0.31673017144203186, 0.006201996933668852, -0.062327705323696136, 0.9986956715583801, -0.06615384668111801, -0.10231781005859375, 1.487548828125, 1.47509765625, 0.147857666015625, 1.491943359375, 1.4677734375, 10.0, 1.376220703125, 1.5, 1.376220703125
17151, -0.4335750341415405, 3.3049089908599854, -0.05822737142443657, -0.17144864797592163, 0.022931624203920364, -2.953341245651245, -0.4395476281642914, 0.05864688381552696, -0.3882613778114319, -0.795488178730011, -0.9577775597572327, 0.06257424503564835, -0.3499370732387113, 0.405686260911466, 0.4146162435819082, 9362.0, 30146.0, 35388.0, 9362.0, 8.390083312988281, 0.04173535853624344, -0.44115984439849854, -0.18301188945770264, 0.006201996933668852, -0.062327705323696136, 0.9986956715583801, -0.06615384668111801, -0.10231781005859375, 1.487548828125, 1.47509765625, 0.147857666015625, 1.491943359375, 1.4677734375, 10.0, 1.3714317083358765, 1.5, 1.3714317083358765
17161, -0.43371230363845825, 3.3069355487823486, -0.05860493332147598, -0.1803525686264038, 0.024119466543197632, -2.9611122608184814, -0.45084452629089355, 0.060137540102005005, -0.38883212208747864, -0.7954959869384766, -0.9578041434288025, 0.0625486746430397, -0.3553221932758, 0.39769394489960064, 0.4201939212900174, 9362.0, 30146.0, 35388.0, 9362.0, 8.390083312988281, -0.15807121992111206, 0.48423662781715393, 0.03830232471227646, 0.006201996933668852, -0.062327705323696136, 0.9986956715583801, -0.06615384668111801, -0.10231781005859375, 1.487548828125, 1.47509765625, 0.147857666015625, 1.491943359375, 1.4677734375, 10.0, 1.3714317083358765, 1.5, 1.3714317083358765
17171, -0.43429210782051086, 3.3028531074523926, -0.05728912726044655, -0.18488922715187073, 0.024724574759602547, -2.9650022983551025, -0.4564874768257141, 0.06088414788246155, -0.3891979455947876, -0.7954826354980469, -0.9578030705451965, 0.06256984919309616, -0.35594719472419234, 0.400997957457065, 0.40692094925561395, 9362.0, 30146.0, 35388.0, 9362.0, 8.390083312988281, -0.10216160863637924, 0.10270389914512634, -0.13729389011859894, 0.006201996933668852, -0.062327705323696136, 0.9986956715583801, -0.06615384668111801, -0.10231781005859375, 1.487548828125, 1.47509765625, 0.147857666015625, 1.491943359375, 1.474365234375, 10.0, 1.3714317083358765, 1.5, 1.3714317083358765
17181, -0.43486323952674866, 3.302111864089966, -0.05877767503261566, -0.18488922715187073, 0.024724574759602547, -2.9650022983551025, -0.4564874768257141, 0.06088414788246155, -0.3891979455947876, -0.7954773306846619, -0.9577832818031311, 0.06258441507816315, -0.339403876342991, 0.3957328178043156, 0.4112417822027496, 9362.0, 30146.0, 35388.0, 9362.0, 8.390083312988281, -0.05094936862587929, 0.0633288100361824, -0.11712251603603363, 0.006201996933668852, -0.062327705323696136, 0.9986956715583801, -0.06615384668111801, -0.10231781005859375, 1.487548828125, 1.4736328125, 0.1452178955078125, 1.491943359375, 1.474365234375, 10.0, 1.3722790479660034, 1.5, 1.3722790479660034
17191, -0.4346802830696106, 3.302091121673584, -0.06082385778427124, -0.1941319704055786, 0.02595721371471882, -2.9727914333343506, -0.4677821695804596, 0.0623798705637455, -0.38977521657943726, -0.7954977750778198, -0.9577756524085999, 0.062558114528656, -0.35009028842425477, 0.4050997605455393, 0.4059444058577486, 9362.0, 30146.0, 35388.0, 9362.0, 8.390083312988281, -0.05094936862587929, 0.0633288100361824, -0.11712251603603363, 0.0021128959488123655, -0.06256004422903061, 0.9997610449790955, -0.06615384668111801, -0.10231781005859375, 1.487548828125, 1.4736328125, 0.1452178955078125, 1.4912109375, 1.474365234375, 10.0, 1.3727296590805054, 1.5, 1.3727296590805054
17201, -0.43438631296157837, 3.3006978034973145, -0.06141771748661995, -0.19883795082569122, 0.026584751904010773, -2.976691484451294, -0.4734148383140564, 0.06312815099954605, -0.39023590087890625, -0.7954672574996948, -0.957789421081543, 0.06254632771015167, -0.3518171018758028, 0.38966188185628425, 0.4025189052376738, 9362.0, 30146.0, 35388.0, 9362.0, 8.390083312988281, -0.05094936862587929, 0.0633288100361824, -0.11712251603603363, 0.0032499569933861494, -0.062018632888793945, 0.9996300935745239, -0.06615384668111801, -0.10231781005859375, 1.487548828125, 1.4736328125, 0.1452178955078125, 1.4912109375, 1.377685546875, 10.0, 1.3727296590805054, 1.5, 1.3727296590805054
17211, -0.4333534836769104, 3.2974302768707275, -0.06020957604050636, -0.19883795082569122, 0.026584751904010773, -2.976691484451294, -0.4734148383140564, 0.06312815099954605, -0.39023590087890625, -0.7954857349395752, -0.957796573638916, 0.06258421391248703, -0.3531945880671814, 0.40168127675255505, 0.3999339446280855, 9362.0, 30146.0, 35388.0, 9362.0, 8.390083312988281, -0.05094936862587929, 0.0633288100361824, -0.11712251603603363, 0.003807609900832176, -0.06313483417034149, 0.9984909892082214, -0.06615384668111801, -0.10231781005859375, 1.487548828125, 1.4736328125, 0.1452178955078125, 1.494873046875, 1.377685546875, 10.0, 1.3733017444610596, 1.5, 1.3733017444610596
17221, -0.43339574337005615, 3.297527313232422, -0.05964883789420128, -0.19883795082569122, 0.026584751904010773, -2.976691484451294, -0.4734148383140564, 0.06312815099954605, -0.39023590087890625, -0.795483410358429, -0.9577868580818176, 0.06260257214307785, -0.3452531546180174, 0.40671864615111986, 0.4172269843396972, 9362.0, 30146.0, 35388.0, 9362.0, 8.390083312988281, -0.05094936862587929, 0.0633288100361824, -0.11712251603603363, 0.005355877336114645, -0.0653252899646759, 1.000842571258545, -0.06615384668111801, -0.10231781005859375, 1.487548828125, 1.4736328125, 0.1452178955078125, 1.494873046875, 1.377685546875, 10.0, 1.3737372159957886, 1.5, 1.3737372159957886
17231, -0.43270742893218994, 3.2970056533813477, -0.05899903178215027, -0.19883795082569122, 0.026584751904010773, -2.976691484451294, -0.4734148383140564, 0.06312815099954605, -0.39023590087890625, -0.795488715171814, -0.9577771425247192, 0.06257408112287521, -0.35196888551846023, 0.4025472045310323, 0.416567917154308, 9362.0, 30146.0, 35388.0, 9362.0, 8.390083312988281, -0.05094936862587929, 0.0633288100361824, -0.11712251603603363, 0.00546044297516346, -0.06398894637823105, 0.998445987701416, -0.06615384668111801, -0.10231781005859375, 1.487548828125, 1.4736328125, 0.1452178955078125, 1.49560546875, 1.377685546875, 10.0, 1.3739793300628662, 1.5, 1.3739793300628662
17241, -0.43291792273521423, 3.2973885536193848, -0.058381106704473495, -0.19883795082569122, 0.026584751904010773, -2.976691484451294, -0.4734148383140564, 0.06312815099954605, -0.39023590087890625, -0.7954927086830139, -0.9577964544296265, 0.06254542618989944, -0.3511808285511509, 0.3962645294528784, 0.40540656979372497, 9362.0, 30146.0, 35388.0, 9362.0, 8.390083312988281, -0.05094936862587929, 0.0633288100361824, -0.11712251603603363, 0.0048358505591750145, -0.0632660761475563, 0.9956055879592896, -0.06615384668111801, -0.10231781005859375, 1.487548828125, 1.4736328125, 0.1452178955078125, 1.49560546875, 1.474365234375, 10.0, 1.374248743057251, 1.5, 1.374248743057251
17251, -0.4325929284095764, 3.2975552082061768, -0.05873861536383629, -0.19883795082569122, 0.026584751904010773, -2.976691484451294, -0.4734148383140564, 0.06312815099954605, -0.39023590087890625, -0.7954760193824768, -0.9577955603599548, 0.06255891919136047, -0.35429166955450586, 0.39577990053311396, 0.41116478300336085, 9362.0, 30146.0, 35388.0, 9362.0, 8.390083312988281, -0.1312287449836731, 0.0911199226975441, 0.1409592628479004, 0.005524085834622383, -0.06134156137704849, 0.9982357621192932, -0.06615384668111801, -0.10231781005859375, 1.487548828125, 1.4736328125, 0.1452178955078125, 1.49560546875, 1.469970703125, 10.0, 1.374248743057251, 1.5, 1.374248743057251
17261, -0.43416106700897217, 3.296051502227783, -0.057533420622348785, -0.19883795082569122, 0.026584751904010773, -2.976691484451294, -0.4734148383140564, 0.06312815099954605, -0.39023590087890625, -0.7954856157302856, -0.9577880501747131, 0.06261317431926727, -0.34514237441554846, 0.39885676563594075, 0.41083181770899335, 9362.0, 30146.0, 35388.0, 9362.0, 8.390083312988281, -0.1312287449836731, 0.0911199226975441, 0.1409592628479004, 0.005524085834622383, -0.06134156137704849, 0.9982357621192932, -0.06615384668111801, -0.10231781005859375, 1.487548828125, 1.4736328125, 0.1452178955078125, 1.49560546875, 1.469970703125, 10.0, 1.3743727207183838, 1.5, 1.3743727207183838
17281, -0.4333243668079376, 3.295504331588745, -0.059030935168266296, -0.23335881531238556, 0.031186996027827263, -3.0040693283081055, -0.512864887714386, 0.068356454372406, -0.3923470079898834, -0.7954820990562439, -0.9577699899673462, 0.06255052238702774, -0.35142056569036245, 0.3868855307274828, 0.41615471617560446, 9362.0, 30146.0, 35388.0, 9362.0, 8.390083312988281, 0.047673359513282776, 0.031587619334459305, -0.21929818391799927, 0.004362835548818111, -0.06379804760217667, 0.9975953102111816, -0.06615384668111801, -0.10231781005859375, 1.487548828125, 1.4736328125, 0.1452178955078125, 1.49560546875, 1.452392578125, 10.0, 1.3741775751113892, 1.5, 1.3741775751113892
