timeTick, roll, pitch, yaw, stateX, stateY, stateZ, stateVX, stateVY, stateVZ, otX0, otY0, otZ0, otRoll0, otPitch0, otYaw0, left wing, pitch motor, yaw motor, right wing, voltage, roll rate, pitch rate, yaw rate, A_x, A_y, A_z, current, i_raw, v_raw, airflow_voltage, airflow_speed, pot_Pitch, voltage_nKF, kFFx, volt_KF_vel, kP, volt_KF_pos
41304, -1.5443392992019653, -12.08514404296875, -2.1062047481536865, 0, 0, 0, 0, 0, 0, -0.793066680431366, -0.9598630666732788, 0.062409549951553345, -0.6573253845538217, 0.2606215315749978, -8.123235571269726, 0, 0, 0, 0, 0, 0, 0, 0, 0, 0, 0, 0, 0, 0, 0, 0, 0, 0, 0, 0, 0, 0
41314, -1.5451316833496094, -12.08545207977295, -2.1072890758514404, -0.0003071714600082487, -2.813449827954173e-05, -3.3930392265319824, 0.005212774965912104, 0.0004770345985889435, -0.1719551384449005, -0.793088972568512, -0.9598589539527893, 0.06237827241420746, -0.6632806232490972, 0.26879609094928014, -8.127780187446636, 9362.0, 30146.0, 35388.0, 9362.0, 0, -0.12283831089735031, 0.2718764543533325, 0.04402310028672218, 0.00534467538818717, -0.06602334976196289, 0.9999942183494568, 0, 0, 0, 0, 0, 0, 0, 0, 0, 0, 0
41324, -1.5430794954299927, -12.085424423217773, -2.1058876514434814, -0.0001519824581919238, -1.3927734471508302e-05, -3.3947699069976807, 0.025825047865509987, 0.0023639583960175514, -0.17417475581169128, -0.7930644750595093, -0.9598568677902222, 0.062391407787799835, -0.6619565541956569, 0.2576040209446262, -8.123398498023805, 9362.0, 30146.0, 35388.0, 9362.0, 0, -0.029384376481175423, -0.24470748007297516, 0.1914854794740677, 0.004334622994065285, -0.06601172685623169, 0.9978231191635132, 0, 0, 0, 1.239990234375, 0.1979827880859375, 0, 1.484619140625, 10.0, 1.3911672830581665, 1.5, 1.3911672830581665
41334, -1.5435024499893188, -12.080970764160156, -2.1060519218444824, 0.00020924622367601842, 1.9145116311847232e-05, -3.3965232372283936, 0.04642064869403839, 0.004251041915267706, -0.17647430300712585, -0.7930731177330017, -0.9598462581634521, 0.06239944323897362, -0.6521959487562318, 0.2670242092370927, -8.12636681638168, 9362.0, 30146.0, 35388.0, 9362.0, 0, -0.14503230154514313, -0.5261310338973999, -0.2081013172864914, 0.004055378492921591, -0.06483194977045059, 0.9993723034858704, 0, 0, 0, 1.345458984375, 0.0156707763671875, 1.4853515625, 1.447998046875, 10.0, 1.3908865451812744, 1.5, 1.3908865451812744
41344, -1.5427926778793335, -12.083223342895508, -2.106313943862915, 0.0007763630128465593, 7.106769044185057e-05, -3.3982996940612793, 0.06700290739536285, 0.006133420392870903, -0.1788344532251358, -0.7930885553359985, -0.9598616361618042, 0.06239141523838043, -0.649735145139076, 0.2735740275046794, -8.129040795648109, 9362.0, 30146.0, 35388.0, 9362.0, 0, -0.018774377182126045, 0.2697988748550415, -0.10362998396158218, 0.0053703575395047665, -0.06669943779706955, 1.0000196695327759, 0, 0, 0, 1.481689453125, 0.1600799560546875, 1.4853515625, 1.3798828125, 10.0, 1.3909096717834473, 1.5, 1.3909096717834473
41354, -1.5433037281036377, -12.079522132873535, -2.1093990802764893, 0.001549429027363658, 0.00014183370512910187, -3.400099039077759, 0.08761022984981537, 0.008019665256142616, -0.18104301393032074, -0.7930733561515808, -0.9598516225814819, 0.06239353492856026, -0.6464649531956013, 0.26613624135407576, -8.125639187092077, 9362.0, 30146.0, 35388.0, 9362.0, 0, 0.21457624435424805, -0.43574631214141846, -0.13508519530296326, 0.004017540253698826, -0.06750170886516571, 1.000483751296997, 0, 0, 0, 1.456787109375, 0.115966796875, 1.49267578125, 1.342529296875, 10.0, 1.3902690410614014, 1.5, 1.3902690410614014
41364, -1.5431917905807495, -12.076456069946289, -2.1114068031311035, 0.002528575249016285, 0.0002314538724021986, -3.4019205570220947, 0.10821928083896637, 0.009903273545205593, -0.18326108157634735, -0.7930746078491211, -0.9598518013954163, 0.06238342449069023, -0.6557638620855794, 0.268452100385133, -8.129599131794658, 9362.0, 30146.0, 35388.0, 9362.0, 0, -0.13664349913597107, -0.4342764914035797, -0.16104720532894135, 0.004222067538648844, -0.06567566096782684, 0.9985451102256775, 0, 0, 0, 1.20849609375, 0.3375701904296875, 1.49267578125, 1.50732421875, 10.0, 1.3904073238372803, 1.5, 1.3904073238372803
41374, -1.542683482170105, -12.077351570129395, -2.1118648052215576, 0.003713807091116905, 0.00033991242526099086, -3.403764247894287, 0.128827303647995, 0.011787704192101955, -0.18545441329479218, -0.7930705547332764, -0.9598550200462341, 0.06240299716591835, -0.663083640369227, 0.26603787880770824, -8.125021796937144, 9362.0, 30146.0, 35388.0, 9362.0, 0, -0.07793235033750534, 0.38530054688453674, 0.12051425129175186, 0.004725062288343906, -0.06304161995649338, 0.9964013695716858, 0, 0, 0, 1.124267578125, 0.9879302978515625, 1.49267578125, 1.46630859375, 10.0, 1.390394926071167, 1.5, 1.390394926071167
41384, -1.5424778461456299, -12.07841682434082, -2.110687732696533, 0.005104811396449804, 0.0004671858041547239, -3.4056310653686523, 0.14937354624271393, 0.013666796498000622, -0.1879110038280487, -0.7930933237075806, -0.9598445296287537, 0.0623592846095562, -0.6412314861471291, 0.2723243900558998, -8.127334734675122, 9362.0, 30146.0, 35388.0, 9362.0, 0, -0.10831151157617569, 0.017050370573997498, 0.19395677745342255, 0.00501385610550642, -0.0639045462012291, 0.9975461959838867, 0, 0, 0, 1.37109375, 0.0197906494140625, 1.49267578125, 1.179931640625, 10.0, 1.3908241987228394, 1.5, 1.3908241987228394
41394, -1.5425808429718018, -12.078369140625, -2.1122353076934814, 0.006701228208839893, 0.0006132394191808999, -3.407522678375244, 0.1699097603559494, 0.015544346533715725, -0.19042134284973145, -0.7930673956871033, -0.9598420262336731, 0.06237354874610901, -0.6325034194110994, 0.27780023703223833, -8.138747535471401, 9362.0, 30146.0, 35388.0, 9362.0, 0, 0.23135021328926086, 0.07299679517745972, -0.27130794525146484, 0.0043923621997237206, -0.06619895994663239, 0.9989173412322998, 0, 0, 0, 1.30224609375, 0.0460052490234375, 1.494140625, 1.4853515625, 10.0, 1.3908196687698364, 1.5, 1.3908196687698364
41404, -1.5434901714324951, -12.075505256652832, -2.114680051803589, 0.008503149263560772, 0.0007780807791277766, -3.4094388484954834, 0.19047445058822632, 0.017423372715711594, -0.19280782341957092, -0.7930853962898254, -0.9598634839057922, 0.06237716227769852, -0.667117319927602, 0.2629922589866567, -8.114959914648647, 9362.0, 30146.0, 35388.0, 9362.0, 8.390083312988281, 0.11660437285900116, -0.3843366205692291, -0.3795870840549469, 0.005522461608052254, -0.06782889366149902, 0.9989663362503052, -0.06742289662361145, 0.12168121337890625, 1.505859375, 1.3798828125, 0.0243377685546875, 1.494140625, 1.54833984375, 10.0, 1.3903920650482178, 1.5, 1.3903920650482178
41414, -1.542786955833435, -12.074959754943848, -2.115628242492676, 0.010510791093111038, 0.0009617172181606293, -3.4113786220550537, 0.2110539823770523, 0.019303059205412865, -0.19512473046779633, -0.7930648922920227, -0.9598562717437744, 0.062418725341558456, -0.6631772891786333, 0.2445807758217029, -8.116490533687156, 9362.0, 30146.0, 35388.0, 9362.0, 8.390083312988281, -0.06749937683343887, -0.02966136671602726, -0.08216984570026398, 0.007110556587576866, -0.06764395534992218, 0.9981241822242737, -0.06742289662361145, 0.12168121337890625, 1.505859375, 1.459716796875, 0.120849609375, 1.489013671875, 1.565185546875, 10.0, 1.3902409076690674, 1.5, 1.3902409076690674
41424, -1.5433175563812256, -12.076171875, -2.1137516498565674, 0.012724234722554684, 0.0011641576420515776, -3.4133412837982178, 0.23163484036922455, 0.021184653043746948, -0.19741277396678925, -0.7930762767791748, -0.9598580598831177, 0.06240694597363472, -0.6631594153285932, 0.2555738214557266, -8.1113676161875, 9362.0, 30146.0, 35388.0, 9362.0, 8.390083312988281, -0.1246916726231575, -0.018035857006907463, 0.0815243050456047, 0.005982756614685059, -0.06447034329175949, 0.9979073405265808, -0.06742289662361145, 0.12168121337890625, 1.505859375, 1.427490234375, 0.0716400146484375, 1.489013671875, 1.5146484375, 10.0, 1.3889524936676025, 1.5, 1.3889524936676025
41434, -1.5427677631378174, -12.076184272766113, -2.112675428390503, 0.01514335535466671, 0.0013853947166353464, -3.415327548980713, 0.25218912959098816, 0.023063458502292633, -0.1998201161623001, -0.7930610775947571, -0.9598591923713684, 0.0624241940677166, -0.6728991007731779, 0.2657954306791055, -8.113606841417234, 9362.0, 30146.0, 35388.0, 9362.0, 8.390083312988281, -0.16262012720108032, 0.2658601701259613, 0.09678667783737183, 0.006687188055366278, -0.062114838510751724, 0.9996696710586548, -0.06742289662361145, 0.12168121337890625, 1.505859375, 1.414306640625, 0.05517578125, 1.49267578125, 1.53955078125, 10.0, 1.387795329093933, 1.5, 1.387795329093933
41444, -1.5424696207046509, -12.076934814453125, -2.1115148067474365, 0.01776808872818947, 0.001625432982109487, -3.417337417602539, 0.27275756001472473, 0.024944553151726723, -0.2021711766719818, -0.7930564880371094, -0.9598649144172668, 0.06240593641996384, -0.6670967941203767, 0.26095781819930153, -8.115065068459105, 9362.0, 30146.0, 35388.0, 9362.0, 8.390083312988281, -0.13462267816066742, -0.2857661843299866, 0.10683851689100266, 0.004133094102144241, -0.06652098894119263, 0.9995057582855225, -0.06742289662361145, 0.12168121337890625, 1.505859375, 1.46923828125, 0.137359619140625, 1.49267578125, 1.46044921875, 10.0, 1.3881149291992188, 1.5, 1.3881149291992188
41454, -1.5429418087005615, -12.074559211730957, -2.1105763912200928, 0.02059866115450859, 0.0018842935096472502, -3.419370174407959, 0.293356716632843, 0.026827948167920113, -0.20437908172607422, -0.7930577397346497, -0.9598525762557983, 0.062428466975688934, -0.6687756185236923, 0.2595569259462138, -8.119597292498302, 9362.0, 30146.0, 35388.0, 9362.0, 8.390083312988281, -0.022174378857016563, -0.22668735682964325, -0.013138857670128345, 0.004941840190440416, -0.06666417419910431, 0.9979095458984375, -0.06742289662361145, 0.12168121337890625, 1.505859375, 1.39599609375, 0.0362701416015625, 1.493408203125, 1.56591796875, 10.0, 1.387194037437439, 1.5, 1.387194037437439
41464, -1.5424941778182983, -12.074910163879395, -2.111405849456787, 0.02363508567214012, 0.0021619738545268774, -3.4214255809783936, 0.3139282166957855, 0.02870849519968033, -0.20672133564949036, -0.7930740118026733, -0.9598661065101624, 0.06240502744913101, -0.6619756315837788, 0.24911906351943003, -8.118579849883469, 9362.0, 30146.0, 35388.0, 9362.0, 8.390083312988281, 0.0038986012805253267, 0.34572097659111023, -0.035935938358306885, 0.0030034875962883234, -0.06658662110567093, 0.9996970891952515, -0.06742289662361145, 0.12168121337890625, 1.505859375, 1.264892578125, 0.119354248046875, 1.493408203125, 1.550537109375, 10.0, 1.3875409364700317, 1.5, 1.3875409364700317
41474, -1.5427169799804688, -12.071372032165527, -2.112732410430908, 0.02687716856598854, 0.002458462957292795, -3.423504590988159, 0.3344884216785431, 0.03058900311589241, -0.20909740030765533, -0.79305100440979, -0.9598517417907715, 0.06241234019398689, -0.6617351265140899, 0.2543420140387127, -8.116457439872205, 9362.0, 30146.0, 35388.0, 9362.0, 8.390083312988281, 0.0658152624964714, -0.311275452375412, -0.2667589783668518, 0.0038126036524772644, -0.06534409523010254, 0.9999333024024963, -0.06742289662361145, 0.12168121337890625, 1.505859375, 1.48388671875, 0.1642303466796875, 1.494873046875, 1.0458984375, 10.0, 1.3876277208328247, 1.5, 1.3876277208328247
41484, -1.5417520999908447, -12.07075309753418, -2.1120383739471436, 0.030325083062052727, 0.002773772459477186, -3.4256064891815186, 0.355094850063324, 0.03247242793440819, -0.21126049757003784, -0.793063759803772, -0.9598708748817444, 0.062401555478572845, -0.6631384957903536, 0.25160935933260475, -8.119909618561017, 9362.0, 30146.0, 35388.0, 9362.0, 8.390083312988281, 0.049367599189281464, 0.02546476200222969, 0.24469295144081116, 0.005330127198249102, -0.06775188446044922, 0.9987596869468689, -0.06742289662361145, 0.12168121337890625, 1.505859375, 1.053955078125, 1.93438720703125, 1.494873046875, 1.46044921875, 10.0, 1.3880934715270996, 1.5, 1.3880934715270996
41494, -1.5415022373199463, -12.069999694824219, -2.1148386001586914, 0.03397894650697708, 0.0031079091131687164, -3.4277303218841553, 0.37567806243896484, 0.03435509651899338, -0.21350322663784027, -0.7930562496185303, -0.959863007068634, 0.062412139028310776, -0.6623959096367776, 0.2686861119595676, -8.115304399586172, 9362.0, 30146.0, 35388.0, 9362.0, 8.390083312988281, 0.05468009412288666, -0.16439910233020782, -0.08817388117313385, 0.004548649303615093, -0.06848322600126266, 0.998164176940918, -0.06742289662361145, 0.12168121337890625, 1.505859375, 1.470703125, 0.1399383544921875, 1.493408203125, 1.2919921875, 10.0, 1.3885993957519531, 1.5, 1.3885993957519531
41504, -1.5405426025390625, -12.070340156555176, -2.1146419048309326, 0.03783855587244034, 0.003460858017206192, -3.4298770427703857, 0.39624378085136414, 0.036233656108379364, -0.2158225178718567, -0.7930645942687988, -0.9598689079284668, 0.06239740177989006, -0.6622209671981225, 0.2586770053939347, -8.110946330063879, 9362.0, 30146.0, 35388.0, 9362.0, 8.370248794555664, -0.04558893293142319, -0.051991432905197144, 0.044445302337408066, 0.0030100378207862377, -0.0673556849360466, 0.9988334774971008, -0.07370375841856003, -0.04855918884277344, 1.491943359375, 1.2861328125, 0.0716094970703125, 1.493408203125, 1.53369140625, 10.0, 1.388962745666504, 1.5, 1.388962745666504
41514, -1.540126085281372, -12.071857452392578, -2.114847183227539, 0.04190368950366974, 0.003832574002444744, -3.4320473670959473, 0.41678276658058167, 0.038109567016363144, -0.21826042234897614, -0.7930888533592224, -0.9598469734191895, 0.06237656623125076, -0.654172112403704, 0.25894940750595197, -8.133817878950378, 9362.0, 30146.0, 35388.0, 9362.0, 8.370248794555664, 0.13366639614105225, 0.19807730615139008, 0.026039548218250275, 0.003058993024751544, -0.0682528167963028, 1.0003149509429932, -0.07370375841856003, -0.04855918884277344, 1.491943359375, 1.150634765625, 0.734954833984375, 1.490478515625, 1.519775390625, 10.0, 1.3894983530044556, 1.5, 1.3894983530044556
41524, -1.5406581163406372, -12.07186222076416, -2.1156904697418213, 0.046174414455890656, 0.004223058931529522, -3.43424129486084, 0.4373618960380554, 0.03998737782239914, -0.22051383554935455, -0.7930861115455627, -0.9598549604415894, 0.06236450374126434, -0.656792866599985, 0.26241023018306464, -8.131496080538648, 9362.0, 30146.0, 35388.0, 9362.0, 8.370248794555664, -0.024589788168668747, 0.021094508469104767, 0.03190731257200241, 0.005415638908743858, -0.06658671796321869, 1.0000808238983154, -0.07370375841856003, -0.04855918884277344, 1.491943359375, 1.453857421875, 0.1110687255859375, 1.490478515625, 1.33740234375, 10.0, 1.3900554180145264, 1.5, 1.3900554180145264
41534, -1.5391284227371216, -12.072154998779297, -2.1161253452301025, 0.05065102130174637, 0.004632325377315283, -3.436457395553589, 0.45795994997024536, 0.041865602135658264, -0.22269155085086823, -0.7930830717086792, -0.9598507881164551, 0.0623832531273365, -0.6586562811672668, 0.2574126184437091, -8.130475468689204, 9362.0, 30146.0, 35388.0, 9362.0, 8.370248794555664, 0.025396063923835754, -0.3007339835166931, -0.15171407163143158, 0.004732686094939709, -0.06747852265834808, 0.9999890923500061, -0.07370375841856003, -0.04855918884277344, 1.491943359375, 1.527099609375, 0.2517852783203125, 1.4970703125, 1.35205078125, 10.0, 1.3904510736465454, 1.5, 1.3904510736465454
41544, -1.538935661315918, -12.070387840270996, -2.1185145378112793, 0.05533359944820404, 0.005060375668108463, -3.438695192337036, 0.4785553812980652, 0.043744273483753204, -0.2248813658952713, -0.7930899858474731, -0.9598435163497925, 0.062376730144023895, -0.6591403957934838, 0.25516151294033307, -8.125663873932847, 9362.0, 30146.0, 35388.0, 9362.0, 8.370248794555664, 0.11017043143510818, -0.38491111993789673, -0.2204587310552597, 0.005832599941641092, -0.06785363703966141, 0.997230589389801, -0.07370375841856003, -0.04855918884277344, 1.491943359375, 1.469970703125, 0.1386566162109375, 1.4970703125, 1.308837890625, 10.0, 1.3908084630966187, 1.5, 1.3908084630966187
41554, -1.5388503074645996, -12.067119598388672, -2.1210005283355713, 0.06022198498249054, 0.005507185123860836, -3.440955638885498, 0.4991218149662018, 0.045616794377565384, -0.2272086888551712, -0.7930939197540283, -0.9598644375801086, 0.06237435340881348, -0.6682088956474798, 0.2635090887077354, -8.128952330797835, 9362.0, 30146.0, 35388.0, 9362.0, 8.370248794555664, -0.07949294149875641, -0.07743161171674728, -0.21596898138523102, 0.005283142905682325, -0.06439784914255142, 0.9964880347251892, -0.07370375841856003, -0.04855918884277344, 1.491943359375, 1.17333984375, 0.554962158203125, 1.48974609375, 1.5498046875, 10.0, 1.3907322883605957, 1.5, 1.3907322883605957
41564, -1.5394833087921143, -12.066393852233887, -2.1221842765808105, 0.06531579792499542, 0.005972694605588913, -3.4432404041290283, 0.5196412205696106, 0.04748419672250748, -0.22974035143852234, -0.7931018471717834, -0.9598569273948669, 0.062356941401958466, -0.6523169721409166, 0.27147284915631076, -8.127225060279061, 9362.0, 30146.0, 35388.0, 9362.0, 8.370248794555664, -0.10196029394865036, -0.3258073627948761, 0.17800958454608917, 0.005344337318092585, -0.06667519360780716, 0.9982804656028748, -0.07370375841856003, -0.04855918884277344, 1.491943359375, 1.433349609375, 0.0797576904296875, 1.48974609375, 1.237060546875, 10.0, 1.3911744356155396, 1.5, 1.3911744356155396
41574, -1.5384459495544434, -12.064461708068848, -2.121119260787964, 0.07061488926410675, 0.0064568836241960526, -3.445549964904785, 0.5401769280433655, 0.0493532158434391, -0.2321704626083374, -0.7931115627288818, -0.9598513841629028, 0.06229489669203758, -0.6637328582003742, 0.2511070522500347, -8.118988509048233, 9362.0, 30146.0, 35388.0, 9362.0, 8.370248794555664, 0.17679817974567413, -0.198968306183815, 0.10849656164646149, 0.004681574180722237, -0.06644759327173233, 0.997734785079956, -0.07370375841856003, -0.04855918884277344, 1.491943359375, 1.399658203125, 0.0396575927734375, 1.493408203125, 1.197509765625, 10.0, 1.3917030096054077, 1.5, 1.3917030096054077
41584, -1.537588357925415, -12.065642356872559, -2.1210384368896484, 0.07611937075853348, 0.00695977034047246, -3.4478836059570312, 0.560719907283783, 0.051224470138549805, -0.23456047475337982, -0.7931258678436279, -0.9598559737205505, 0.06230772286653519, -0.6681143680216768, 0.2555979044688286, -8.114949634942365, 9362.0, 30146.0, 35388.0, 9362.0, 8.370248794555664, 0.0794747918844223, -0.20698127150535583, -0.13077986240386963, 0.0052403649315238, -0.06641995906829834, 0.9987295866012573, -0.07370375841856003, -0.04855918884277344, 1.491943359375, 1.320556640625, 0.02685546875, 1.493408203125, 1.134521484375, 10.0, 1.3918113708496094, 1.5, 1.3918113708496094
41594, -1.5379761457443237, -12.064444541931152, -2.121904134750366, 0.08182930201292038, 0.007481366395950317, -3.4502410888671875, 0.5812661647796631, 0.05309472233057022, -0.23691952228546143, -0.7931216955184937, -0.9598240256309509, 0.06228096783161163, -0.6618964503623203, 0.2756865862843938, -8.142129198359077, 9362.0, 30146.0, 35388.0, 9362.0, 8.370248794555664, 0.060762688517570496, 0.008035116828978062, -0.1385996788740158, 0.005419305060058832, -0.06568880379199982, 0.9974608421325684, -0.07370375841856003, -0.04855918884277344, 1.491943359375, 1.300048828125, 0.0489654541015625, 1.48974609375, 1.472900390625, 10.0, 1.3912649154663086, 1.5, 1.3912649154663086
41604, -1.538831353187561, -12.066730499267578, -2.122009754180908, 0.08774466812610626, 0.008021654561161995, -3.452622175216675, 0.6018077731132507, 0.05496255308389664, -0.23930905759334564, -0.7931305766105652, -0.9598488211631775, 0.06229345500469208, -0.6694739963462067, 0.26839367875876974, -8.122750876396045, 9362.0, 30146.0, 35388.0, 9362.0, 8.370248794555664, -0.10185924172401428, -0.16791126132011414, -0.036265600472688675, 0.005059344694018364, -0.06722329556941986, 0.9984571933746338, -0.08171511441469193, -0.0037593841552734375, 1.49560546875, 1.379150390625, 0.0238189697265625, 1.48974609375, 1.0576171875, 10.0, 1.391517996788025, 1.5, 1.391517996788025
41614, -1.5377779006958008, -12.065695762634277, -2.1206538677215576, 0.08774466812610626, 0.008021654561161995, -3.452622175216675, 0.6018077731132507, 0.05496255308389664, -0.23930905759334564, -0.7931248545646667, -0.959835410118103, 0.06229144707322121, -0.6686367296016377, 0.26504800417470165, -8.124573283001043, 9362.0, 30146.0, 35388.0, 9362.0, 8.370248794555664, -0.029237456619739532, -0.0033866616431623697, 0.2229025810956955, 0.0062664276920259, -0.06731784343719482, 0.9973732233047485, -0.08171511441469193, -0.0037593841552734375, 1.49560546875, 1.289794921875, 0.065032958984375, 1.48828125, 1.0576171875, 10.0, 1.391517996788025, 1.5, 1.391517996788025
41624, -1.537508487701416, -12.066254615783691, -2.1212897300720215, 0.08774466812610626, 0.008021654561161995, -3.452622175216675, 0.6018077731132507, 0.05496255308389664, -0.23930905759334564, -0.7931249737739563, -0.9598456621170044, 0.062291741371154785, -0.6676640148939668, 0.26221186027859744, -8.118622122807054, 9362.0, 30146.0, 35388.0, 9362.0, 8.370248794555664, 0.13886494934558868, -0.14919111132621765, -0.3884011507034302, 0.007001734338700771, -0.06536617130041122, 0.9967964291572571, -0.08171511441469193, -0.0037593841552734375, 1.49560546875, 1.289794921875, 0.065032958984375, 1.48828125, 1.38720703125, 10.0, 1.391517996788025, 1.5, 1.391517996788025
41634, -1.5368553400039673, -12.065873146057129, -2.120065927505493, 0.08774466812610626, 0.008021654561161995, -3.452622175216675, 0.6018077731132507, 0.05496255308389664, -0.23930905759334564, -0.7931257486343384, -0.959839940071106, 0.06228083372116089, -0.668291588396445, 0.26827986773747625, -8.125071641369729, 9362.0, 30146.0, 35388.0, 9362.0, 8.370248794555664, 0.17005430161952972, -0.049328770488500595, 0.15104509890079498, 0.005550657864660025, -0.06651464104652405, 0.9977884888648987, -0.08171511441469193, -0.0037593841552734375, 1.49560546875, 1.289794921875, 0.065032958984375, 1.48828125, 1.346923828125, 10.0, 1.391517996788025, 1.5, 1.391517996788025
41694, -1.5329722166061401, -12.065303802490234, -2.1159257888793945, 0.14245854318141937, 0.01301607210189104, -3.472550630569458, 0.766014814376831, 0.06988555938005447, -0.2590245306491852, -0.7931308150291443, -0.9598525166511536, 0.06231745332479477, -0.662360610886285, 0.25913367073698623, -8.120004320666322, 9362.0, 30146.0, 35388.0, 9362.0, 8.370248794555664, 0.07266674190759659, -0.19293959438800812, -0.18220773339271545, 0.00610855408012867, -0.06528650969266891, 0.9986291527748108, -0.08171511441469193, -0.0037593841552734375, 1.49560546875, 1.289794921875, 0.065032958984375, 1.49560546875, 1.2509765625, 10.0, 1.391517996788025, 1.5, 1.391517996788025
41714, -1.532898187637329, -12.064682960510254, -2.1171135902404785, 0.15819017589092255, 0.014451062306761742, -3.4777770042419434, 0.807135820388794, 0.07361223548650742, -0.26365965604782104, -0.7931303977966309, -0.959846019744873, 0.06230730563402176, -0.6626476904845282, 0.263433664331302, -8.123350417756427, 9362.0, 30146.0, 35388.0, 9362.0, 8.370248794555664, -0.06664471328258514, -0.08180682361125946, 0.13071052730083466, 0.005938419606536627, -0.0649011880159378, 0.999656617641449, -0.08171511441469193, -0.0037593841552734375, 1.49560546875, 1.289794921875, 0.065032958984375, 1.49560546875, 1.505126953125, 10.0, 1.391517996788025, 1.5, 1.391517996788025
41724, -1.53342866897583, -12.065666198730469, -2.1180810928344727, 0.15819017589092255, 0.014451062306761742, -3.4777770042419434, 0.807135820388794, 0.07361223548650742, -0.26365965604782104, -0.7931280136108398, -0.9598408341407776, 0.06229142099618912, -0.6661124036655158, 0.25961627232703677, -8.11617637471324, 9362.0, 30146.0, 35388.0, 9362.0, 8.370248794555664, -0.04624718427658081, -0.0961303785443306, -0.42370474338531494, 0.005875939968973398, -0.06612476706504822, 0.9994888305664062, -0.08171511441469193, -0.0037593841552734375, 1.49560546875, 1.289794921875, 0.065032958984375, 1.49560546875, 1.469970703125, 10.0, 1.391517996788025, 1.5, 1.391517996788025
41734, -1.5326523780822754, -12.067604064941406, -2.1195290088653564, 0.15819017589092255, 0.014451062306761742, -3.4777770042419434, 0.807135820388794, 0.07361223548650742, -0.26365965604782104, -0.7931219339370728, -0.9598450064659119, 0.062319349497556686, -0.6700256759350515, 0.25830338397966557, -8.114640013942482, 9362.0, 30146.0, 35388.0, 9362.0, 8.370248794555664, 0.23239412903785706, 0.2510400116443634, 0.05355183035135269, 0.005833634175360203, -0.06605080515146255, 0.9999668002128601, -0.08171511441469193, -0.0037593841552734375, 1.49560546875, 1.289794921875, 0.065032958984375, 1.49560546875, 1.512451171875, 10.0, 1.391517996788025, 1.5, 1.391517996788025
41744, -1.5332738161087036, -12.068291664123535, -2.1179213523864746, 0.15819017589092255, 0.014451062306761742, -3.4777770042419434, 0.807135820388794, 0.07361223548650742, -0.26365965604782104, -0.7931220531463623, -0.9598418474197388, 0.06231517344713211, -0.6703981274677522, 0.25999573541358245, -8.121379892277144, 9362.0, 30146.0, 35388.0, 9362.0, 8.370248794555664, 0.01798953488469124, 0.19512410461902618, -0.11409730464220047, 0.0068170842714607716, -0.06404377520084381, 0.9973224997520447, -0.08171511441469193, -0.0037593841552734375, 1.49560546875, 1.289794921875, 0.065032958984375, 1.49560546875, 1.48828125, 10.0, 1.391517996788025, 1.5, 1.391517996788025
41754, -1.5329692363739014, -12.068328857421875, -2.118523597717285, 0.15819017589092255, 0.014451062306761742, -3.4777770042419434, 0.807135820388794, 0.07361223548650742, -0.26365965604782104, -0.7931191325187683, -0.959846556186676, 0.06228062883019447, -0.6667388883727554, 0.26802131173195676, -8.122880522574187, 9362.0, 30146.0, 35388.0, 9362.0, 8.370248794555664, -0.0399981364607811, -0.40761592984199524, -0.24196197092533112, 0.004995190538465977, -0.06377032399177551, 0.9989036917686462, -0.08171511441469193, -0.0037593841552734375, 1.49560546875, 1.5439453125, 0.2884979248046875, 1.49560546875, 1.48828125, 10.0, 1.391517996788025, 1.5, 1.391517996788025
41764, -1.5324252843856812, -12.069499969482422, -2.1184394359588623, 0.15819017589092255, 0.014451062306761742, -3.4777770042419434, 0.807135820388794, 0.07361223548650742, -0.26365965604782104, -0.7931286692619324, -0.9598316550254822, 0.06228959560394287, -0.6651711572592772, 0.26076612169069335, -8.126893816555205, 9362.0, 30146.0, 35388.0, 9362.0, 8.370248794555664, 0.10882455110549927, 0.08853146433830261, 0.0014124733861535788, 0.004824640229344368, -0.06621704250574112, 1.0003302097320557, -0.08171511441469193, -0.0037593841552734375, 1.49560546875, 1.5439453125, 0.2884979248046875, 1.49560546875, 1.50146484375, 10.0, 1.391517996788025, 1.5, 1.391517996788025
41774, -1.5328619480133057, -12.071459770202637, -2.118142604827881, 0.15819017589092255, 0.014451062306761742, -3.4777770042419434, 0.807135820388794, 0.07361223548650742, -0.26365965604782104, -0.7931317090988159, -0.9598351120948792, 0.062312133610248566, -0.6622103701594875, 0.2660023581666735, -8.120047196801195, 9362.0, 30146.0, 35388.0, 9362.0, 8.370248794555664, -0.2595692276954651, 0.1780187487602234, 0.07860150933265686, 0.005942263640463352, -0.06661763042211533, 0.9989001750946045, -0.08171511441469193, -0.0037593841552734375, 1.49560546875, 1.5439453125, 0.2884979248046875, 1.49560546875, 1.51904296875, 10.0, 1.391517996788025, 1.5, 1.391517996788025
41784, -1.5332340002059937, -12.072017669677734, -2.118212938308716, 0.15819017589092255, 0.014451062306761742, -3.4777770042419434, 0.807135820388794, 0.07361223548650742, -0.26365965604782104, -0.7931203246116638, -0.9598568677902222, 0.06230757385492325, -0.675712034610901, 0.2615486155596898, -8.125837306443815, 9362.0, 30146.0, 35388.0, 9362.0, 8.370248794555664, 0.034268587827682495, 0.0296159815043211, 0.16187971830368042, 0.007098111789673567, -0.06541745364665985, 0.9992042183876038, -0.08171511441469193, -0.0037593841552734375, 1.49560546875, 1.265625, 0.1174468994140625, 1.49560546875, 1.464111328125, 10.0, 1.391517996788025, 1.5, 1.391517996788025
41794, -1.5326440334320068, -12.069746971130371, -2.1193714141845703, 0.15819017589092255, 0.014451062306761742, -3.4777770042419434, 0.807135820388794, 0.07361223548650742, -0.26365965604782104, -0.7931209802627563, -0.959845244884491, 0.06228211522102356, -0.6665007541713238, 0.2607373646643225, -8.121051390166965, 9362.0, 30146.0, 35388.0, 9362.0, 8.370248794555664, 0.14250515401363373, -0.37184271216392517, -0.2526210844516754, 0.005241024307906628, -0.06562956422567368, 0.9987339377403259, -0.08171511441469193, -0.0037593841552734375, 1.49560546875, 1.24072265625, 0.1952667236328125, 1.49560546875, 1.517578125, 10.0, 1.391517996788025, 1.5, 1.391517996788025
41814, -1.531549096107483, -12.069719314575195, -2.1209170818328857, 0.15819017589092255, 0.014451062306761742, -3.4777770042419434, 0.807135820388794, 0.07361223548650742, -0.26365965604782104, -0.79312664270401, -0.9598254561424255, 0.06229504942893982, -0.6744182573005135, 0.25888061614770663, -8.11730086162907, 9362.0, 30146.0, 35388.0, 9362.0, 8.390083312988281, 0.10276279598474503, -0.11833807080984116, -0.034322481602430344, 0.006642132066190243, -0.06732068955898285, 0.9968215823173523, -0.04654671624302864, 0.09480094909667969, 1.503662109375, 1.24072265625, 0.1952667236328125, 1.494140625, 1.517578125, 10.0, 1.391517996788025, 1.5, 1.391517996788025
41824, -1.5320484638214111, -12.071834564208984, -2.119872570037842, 0.2698554992675781, 0.024626273661851883, -3.511054277420044, 1.053919792175293, 0.0959625169634819, -0.29123881459236145, -0.7931158542633057, -0.9598466157913208, 0.06230556219816208, -0.6661024218610905, 0.25624841586341063, -8.126277800832925, 9362.0, 30146.0, 35388.0, 9362.0, 8.390083312988281, -0.032206643372774124, 0.15613380074501038, 0.1637367457151413, 0.006642132066190243, -0.06732068955898285, 0.9968215823173523, -0.04654671624302864, 0.09480094909667969, 1.503662109375, 1.24072265625, 0.1952667236328125, 1.494140625, 1.517578125, 10.0, 1.391517996788025, 1.5, 1.391517996788025
41834, -1.53104829788208, -12.07145881652832, -2.1204512119293213, 0.2698554992675781, 0.024626273661851883, -3.511054277420044, 1.053919792175293, 0.0959625169634819, -0.29123881459236145, -0.793126106262207, -0.9598442912101746, 0.062285810708999634, -0.6678897937865658, 0.2606593262705701, -8.121274903792823, 9362.0, 30146.0, 35388.0, 9362.0, 8.390083312988281, 0.12518315017223358, 0.19899827241897583, 0.04483873397111893, 0.0046847364865243435, -0.067847840487957, 1.0010573863983154, -0.04654671624302864, 0.09480094909667969, 1.503662109375, 1.24072265625, 0.1952667236328125, 1.494140625, 1.517578125, 10.0, 1.391517996788025, 1.5, 1.391517996788025
41844, -1.5308973789215088, -12.074812889099121, -2.121535539627075, 0.29134511947631836, 0.026582706719636917, -3.516925811767578, 1.0950688123703003, 0.09968345612287521, -0.295792818069458, -0.7931315898895264, -0.9598469138145447, 0.062295179814100266, -0.6665414823717714, 0.2625274250012808, -8.1274497748828, 9362.0, 30146.0, 35388.0, 9362.0, 8.390083312988281, -0.12573258578777313, 0.31840649247169495, -0.2169097661972046, 0.005586170591413975, -0.06766031682491302, 0.9984996318817139, -0.04654671624302864, 0.09480094909667969, 1.503662109375, 1.24072265625, 0.1952667236328125, 1.494140625, 1.517578125, 10.0, 1.391517996788025, 1.5, 1.391517996788025
41854, -1.5304802656173706, -12.073019027709961, -2.1214170455932617, 0.29134511947631836, 0.026582706719636917, -3.516925811767578, 1.0950688123703003, 0.09968345612287521, -0.295792818069458, -0.793138861656189, -0.9598447680473328, 0.062287572771310806, -0.6620207478973469, 0.2577077070660039, -8.120815060837646, 9362.0, 30146.0, 35388.0, 9362.0, 8.390083312988281, 0.117672398686409, -0.1389094740152359, 0.06474539637565613, 0.0038417598698288202, -0.06402922421693802, 0.9974503517150879, -0.04654671624302864, 0.09480094909667969, 1.503662109375, 1.24072265625, 0.1952667236328125, 1.4912109375, 1.517578125, 10.0, 1.391517996788025, 1.5, 1.391517996788025
41864, -1.5305649042129517, -12.074212074279785, -2.1211092472076416, 0.29134511947631836, 0.026582706719636917, -3.516925811767578, 1.0950688123703003, 0.09968345612287521, -0.295792818069458, -0.7931140065193176, -0.959847629070282, 0.06230540573596954, -0.6691764904405471, 0.2676561342408377, -8.116062354031657, 9362.0, 30146.0, 35388.0, 9362.0, 8.390083312988281, 0.14065279066562653, -0.04933246970176697, -0.02546839229762554, 0.004833733197301626, -0.06571433693170547, 0.9986483454704285, -0.04654671624302864, 0.09480094909667969, 1.503662109375, 0.92578125, 4.9995880126953125, 1.4912109375, 1.4296875, 10.0, 1.391517996788025, 1.5, 1.391517996788025
41874, -1.5291332006454468, -12.070813179016113, -2.120107412338257, 0.29134511947631836, 0.026582706719636917, -3.516925811767578, 1.0950688123703003, 0.09968345612287521, -0.295792818069458, -0.7931413650512695, -0.9598503112792969, 0.0622931532561779, -0.6612729298644969, 0.2631427297175719, -8.119964161195371, 9362.0, 30146.0, 35388.0, 9362.0, 8.390083312988281, 0.1179441437125206, -0.5108036994934082, -0.058689605444669724, 0.004833733197301626, -0.06571433693170547, 0.9986483454704285, -0.04654671624302864, 0.09480094909667969, 1.503662109375, 0.92578125, 4.9995880126953125, 1.490478515625, 1.4296875, 10.0, 1.391517996788025, 1.5, 1.391517996788025
41884, -1.5301790237426758, -12.067550659179688, -2.121011972427368, 0.29134511947631836, 0.026582706719636917, -3.516925811767578, 1.0950688123703003, 0.09968345612287521, -0.295792818069458, -0.7931235432624817, -0.9598425626754761, 0.062308646738529205, -0.6659926297096393, 0.26352302357540225, -8.132968183198788, 9362.0, 30146.0, 35388.0, 9362.0, 8.390083312988281, -0.0076850163750350475, -0.17288146913051605, -0.15450648963451385, 0.004518318921327591, -0.06634150445461273, 0.9986581206321716, -0.04654671624302864, 0.09480094909667969, 1.503662109375, 0.947021484375, 4.3471832275390625, 1.490478515625, 1.4296875, 10.0, 1.391517996788025, 1.5, 1.391517996788025
41894, -1.5312596559524536, -12.06474781036377, -2.1257882118225098, 0.29134511947631836, 0.026582706719636917, -3.516925811767578, 1.0950688123703003, 0.09968345612287521, -0.295792818069458, -0.7931296229362488, -0.9598287343978882, 0.062294796109199524, -0.6641383051175621, 0.26065137729023036, -8.115584807962263, 9362.0, 30146.0, 35388.0, 9362.0, 8.390083312988281, -0.01171641144901514, -0.060730285942554474, -0.49827882647514343, 0.004378999583423138, -0.06538533419370651, 1.0000197887420654, -0.04654671624302864, 0.09480094909667969, 1.503662109375, 1.2919921875, 0.0613250732421875, 1.493408203125, 1.4296875, 10.0, 1.391517996788025, 1.5, 1.391517996788025
41904, -1.5304700136184692, -12.064787864685059, -2.1257846355438232, 0.29134511947631836, 0.026582706719636917, -3.516925811767578, 1.0950688123703003, 0.09968345612287521, -0.295792818069458, -0.7931199669837952, -0.9598463773727417, 0.06228743493556976, -0.6597223503010405, 0.26661198718380774, -8.127102918633861, 9362.0, 30146.0, 35388.0, 9362.0, 8.370248794555664, -0.01171641144901514, -0.060730285942554474, -0.49827882647514343, 0.00573626346886158, -0.06855271756649017, 0.9981344938278198, -0.04654671624302864, 0.09480094909667969, 1.503662109375, 1.184326171875, 0.479400634765625, 1.493408203125, 1.39306640625, 10.0, 1.391517996788025, 1.5, 1.391517996788025
41914, -1.529489278793335, -12.064050674438477, -2.1245927810668945, 0.29134511947631836, 0.026582706719636917, -3.516925811767578, 1.0950688123703003, 0.09968345612287521, -0.295792818069458, -0.7931239604949951, -0.9598351716995239, 0.062273818999528885, -0.668457983934291, 0.26742020620790186, -8.127385252528175, 9362.0, 30146.0, 35388.0, 9362.0, 8.370248794555664, -0.1157926619052887, -0.3656662702560425, -0.06239071115851402, 0.00664881244301796, -0.06612884998321533, 0.9981820583343506, -0.04654671624302864, 0.09480094909667969, 1.503662109375, 1.184326171875, 0.479400634765625, 1.493408203125, 1.4853515625, 10.0, 1.391517996788025, 1.5, 1.391517996788025
41924, -1.529704213142395, -12.06091022491455, -2.125664234161377, 0.29134511947631836, 0.026582706719636917, -3.516925811767578, 1.0950688123703003, 0.09968345612287521, -0.295792818069458, -0.7931332588195801, -0.9598277807235718, 0.06229666620492935, -0.662002740446611, 0.25966418068665575, -8.117849785573753, 9362.0, 30146.0, 35388.0, 9362.0, 8.370248794555664, 0.21031568944454193, -0.15808308124542236, -0.08430201560258865, 0.006019541993737221, -0.06454399228096008, 0.9988402128219604, -0.04654671624302864, 0.09480094909667969, 1.503662109375, 1.184326171875, 0.479400634765625, 1.493408203125, 1.462646484375, 10.0, 1.391517996788025, 1.5, 1.391517996788025
41934, -1.529098629951477, -12.060612678527832, -2.125523328781128, 0.29134511947631836, 0.026582706719636917, -3.516925811767578, 1.0950688123703003, 0.09968345612287521, -0.295792818069458, -0.7931444048881531, -0.9598464369773865, 0.06228790804743767, -0.6654760144036328, 0.2552174549877577, -8.118277590026523, 9362.0, 30146.0, 35388.0, 9362.0, 8.370248794555664, 0.004240701906383038, 0.058800384402275085, 0.1857079118490219, 0.005960205569863319, -0.06476348638534546, 1.0005794763565063, -0.04654671624302864, 0.09480094909667969, 1.503662109375, 1.184326171875, 0.479400634765625, 1.494873046875, 1.462646484375, 10.0, 1.391517996788025, 1.5, 1.391517996788025
41954, -1.5289517641067505, -12.061661720275879, -2.1268553733825684, 0.29134511947631836, 0.026582706719636917, -3.516925811767578, 1.0950688123703003, 0.09968345612287521, -0.295792818069458, -0.7931254506111145, -0.9598398804664612, 0.06230243295431137, -0.6729775262273524, 0.2612532455196117, -8.124490466425353, 9362.0, 30146.0, 35388.0, 9362.0, 8.370248794555664, 0.1565254181623459, 0.16840066015720367, -0.15478968620300293, 0.0050130365416407585, -0.0674392580986023, 0.9964926242828369, -0.04654671624302864, 0.09480094909667969, 1.503662109375, 1.184326171875, 0.479400634765625, 1.494873046875, 1.45166015625, 10.0, 1.391517996788025, 1.5, 1.391517996788025
41984, -1.5295506715774536, -12.059662818908691, -2.1282405853271484, 0.46480584144592285, 0.04235744848847389, -3.560610771179199, 1.382826805114746, 0.125652477145195, -0.32849639654159546, -0.7931313514709473, -0.959836483001709, 0.06229744106531143, -0.6726386758905402, 0.26081225377399164, -8.123913115839642, 9362.0, 30146.0, 35388.0, 9362.0, 8.370248794555664, -0.12176961451768875, 0.018409615382552147, 0.05747968703508377, 0.004689452704042196, -0.06470192968845367, 0.9982933402061462, -0.04654671624302864, 0.09480094909667969, 1.503662109375, 1.184326171875, 0.479400634765625, 1.491943359375, 1.388671875, 10.0, 1.391517996788025, 1.5, 1.391517996788025
41994, -1.5308303833007812, -12.058453559875488, -2.1282601356506348, 0.46480584144592285, 0.04235744848847389, -3.560610771179199, 1.382826805114746, 0.125652477145195, -0.32849639654159546, -0.7931416630744934, -0.9598349928855896, 0.06230843812227249, -0.6654087203170553, 0.27419853974132025, -8.123413661420086, 9362.0, 30146.0, 35388.0, 9362.0, 8.370248794555664, -0.18690136075019836, -0.36205628514289856, -0.0032119431998580694, 0.005279927980154753, -0.0662456750869751, 0.9978436231613159, -0.04654671624302864, 0.09480094909667969, 1.503662109375, 1.184326171875, 0.479400634765625, 1.491943359375, 1.515380859375, 10.0, 1.391517996788025, 1.5, 1.391517996788025
42024, -1.5300565958023071, -12.060192108154297, -2.12589168548584, 0.5217621326446533, 0.047531820833683014, -3.5739383697509766, 1.4649869203567505, 0.13307072222232819, -0.33785995841026306, -0.7931218147277832, -0.9598375558853149, 0.06230127066373825, -0.6617677020743884, 0.26809555976595334, -8.128431262762907, 9362.0, 30146.0, 35388.0, 9362.0, 8.370248794555664, -0.14713236689567566, -0.3104604184627533, 0.18947802484035492, 0.00584992952644825, -0.06581336259841919, 0.9997592568397522, -0.08925001323223114, -0.05751800537109375, 1.4912109375, 1.31982421875, 0.0273590087890625, 1.4794921875, 1.450927734375, 10.0, 1.391517996788025, 1.5, 1.391517996788025
42034, -1.5289751291275024, -12.06136417388916, -2.1241648197174072, 0.5217621326446533, 0.047531820833683014, -3.5739383697509766, 1.4649869203567505, 0.13307072222232819, -0.33785995841026306, -0.793144702911377, -0.9598513841629028, 0.06230144575238228, -0.6719225091754863, 0.26633567483557385, -8.120733015753402, 9362.0, 30146.0, 35388.0, 9362.0, 8.370248794555664, 0.086505226790905, 0.16457810997962952, 0.31373047828674316, 0.00663529708981514, -0.06441137194633484, 1.000005841255188, -0.08925001323223114, -0.05751800537109375, 1.4912109375, 1.31982421875, 0.0273590087890625, 1.4794921875, 1.56298828125, 10.0, 1.381762146949768, 1.5, 1.381762146949768
42044, -1.5285269021987915, -12.058509826660156, -2.1240274906158447, 0.5217621326446533, 0.047531820833683014, -3.5739383697509766, 1.4649869203567505, 0.13307072222232819, -0.33785995841026306, -0.7931241393089294, -0.9598451852798462, 0.06229892745614052, -0.670529236133992, 0.25930772243060574, -8.121092817611599, 9362.0, 30146.0, 35388.0, 9362.0, 8.370248794555664, 0.037839069962501526, -0.6086187362670898, -0.18801845610141754, 0.004754503257572651, -0.06637022644281387, 0.9982277154922485, -0.08925001323223114, -0.05751800537109375, 1.4912109375, 1.31982421875, 0.0273590087890625, 1.4794921875, 1.5322265625, 10.0, 1.381762146949768, 1.5, 1.381762146949768
42054, -1.5275743007659912, -12.059154510498047, -2.1233277320861816, 0.5217621326446533, 0.047531820833683014, -3.5739383697509766, 1.4649869203567505, 0.13307072222232819, -0.33785995841026306, -0.7931321263313293, -0.9598533511161804, 0.062296897172927856, -0.664129659886888, 0.270794157640438, -8.119777088953514, 9362.0, 30146.0, 35388.0, 9362.0, 8.370248794555664, 0.17303980886936188, 0.29661867022514343, 0.09876874089241028, 0.004245033022016287, -0.06803645193576813, 0.9979628920555115, -0.08925001323223114, -0.05751800537109375, 1.4912109375, 1.37109375, 0.0197906494140625, 1.4794921875, 1.518310546875, 10.0, 1.381762146949768, 1.5, 1.381762146949768
42064, -1.527039647102356, -12.06060791015625, -2.122431993484497, 0.5217621326446533, 0.047531820833683014, -3.5739383697509766, 1.4649869203567505, 0.13307072222232819, -0.33785995841026306, -0.7931280136108398, -0.9598470330238342, 0.062301602214574814, -0.6651022147357575, 0.2678609112739707, -8.124133120584535, 9362.0, 30146.0, 35388.0, 9362.0, 8.370248794555664, -0.026530155912041664, 0.4341575503349304, 0.13657435774803162, 0.005717778112739325, -0.06845580041408539, 0.9975998401641846, -0.08925001323223114, -0.05751800537109375, 1.4912109375, 1.37109375, 0.0197906494140625, 1.4794921875, 1.51904296875, 10.0, 1.381762146949768, 1.5, 1.381762146949768
42074, -1.5255606174468994, -12.062970161437988, -2.1234545707702637, 0.5217621326446533, 0.047531820833683014, -3.5739383697509766, 1.4649869203567505, 0.13307072222232819, -0.33785995841026306, -0.7931274175643921, -0.959844708442688, 0.06230870634317398, -0.6693848216907007, 0.253111805151093, -8.123017637953494, 9362.0, 30146.0, 35388.0, 9362.0, 8.370248794555664, 0.07565518468618393, -0.18255716562271118, -0.2231069803237915, 0.006325843278318644, -0.06486807763576508, 0.998060941696167, -0.08925001323223114, -0.05751800537109375, 1.4912109375, 1.37109375, 0.0197906494140625, 1.4794921875, 1.51904296875, 10.0, 1.381762146949768, 1.5, 1.381762146949768
42084, -1.5267596244812012, -12.061322212219238, -2.124183177947998, 0.6133611798286438, 0.0558500774204731, -3.5946197509765625, 1.5882636308670044, 0.1441936045885086, -0.3517639636993408, -0.7931289672851562, -0.9598458409309387, 0.06230355054140091, -0.6652655421426238, 0.2641521748540754, -8.131958196251178, 9362.0, 30146.0, 35388.0, 9362.0, 8.370248794555664, -0.12369994819164276, 0.02725294977426529, 0.3345131576061249, 0.0043135047890245914, -0.06684223562479019, 0.9996966123580933, -0.08925001323223114, -0.05751800537109375, 1.4912109375, 1.37109375, 0.0197906494140625, 1.4794921875, 1.51904296875, 10.0, 1.381762146949768, 1.5, 1.381762146949768
42094, -1.5274184942245483, -12.061491012573242, -2.1231160163879395, 0.6133611798286438, 0.0558500774204731, -3.5946197509765625, 1.5882636308670044, 0.1441936045885086, -0.3517639636993408, -0.7931328415870667, -0.9598462581634521, 0.062292203307151794, -0.6693361330492805, 0.26357762291195286, -8.12444963650231, 9362.0, 30146.0, 35388.0, 9362.0, 8.370248794555664, -0.23858104646205902, -0.14361736178398132, 0.053969766944646835, 0.0022044514771550894, -0.06803945451974869, 0.9976119995117188, -0.08925001323223114, -0.05751800537109375, 1.4912109375, 1.133056640625, 0.8980560302734375, 1.4794921875, 1.47802734375, 10.0, 1.381762146949768, 1.5, 1.381762146949768
42114, -1.526437520980835, -12.059853553771973, -2.1226701736450195, 0.6133611798286438, 0.0558500774204731, -3.5946197509765625, 1.5882636308670044, 0.1441936045885086, -0.3517639636993408, -0.7931348085403442, -0.959844172000885, 0.06227957457304001, -0.6682314369209768, 0.26275842683523365, -8.121403861512963, 9362.0, 30146.0, 35388.0, 9362.0, 8.370248794555664, 0.16507604718208313, -0.012151856906712055, -0.022309301421046257, 0.006172363180667162, -0.0649818554520607, 0.9972507953643799, -0.06842473894357681, -0.01271820068359375, 1.494873046875, 1.270751953125, 0.104522705078125, 1.494873046875, 1.47802734375, 10.0, 1.381762146949768, 1.5, 1.381762146949768
42124, -1.5259207487106323, -12.059135437011719, -2.1239569187164307, 0.6785349249839783, 0.06176573038101196, -3.608879566192627, 1.670376181602478, 0.15158869326114655, -0.36142390966415405, -0.7931208610534668, -0.9598350524902344, 0.06229906901717186, -0.6610760602937023, 0.2606464196627485, -8.124823503860426, 9362.0, 30146.0, 35388.0, 9362.0, 8.370248794555664, 0.1625356376171112, -0.42721670866012573, -0.3565797805786133, 0.006020593456923962, -0.0650051087141037, 1.0000345706939697, -0.06842473894357681, -0.01271820068359375, 1.494873046875, 1.270751953125, 0.104522705078125, 1.494873046875, 1.47802734375, 10.0, 1.381762146949768, 1.5, 1.381762146949768
42134, -1.525723934173584, -12.060805320739746, -2.1231837272644043, 0.6785349249839783, 0.06176573038101196, -3.608879566192627, 1.670376181602478, 0.15158869326114655, -0.36142390966415405, -0.7931100726127625, -0.9598401784896851, 0.06229054927825928, -0.675697956797398, 0.26448227755551557, -8.11829861914065, 9362.0, 30146.0, 35388.0, 9362.0, 8.370248794555664, -0.10799334943294525, 0.17939196527004242, 0.01699225604534149, 0.005030124448239803, -0.06544577330350876, 0.9987515807151794, -0.06842473894357681, -0.01271820068359375, 1.494873046875, 1.270751953125, 0.104522705078125, 1.494873046875, 1.53515625, 10.0, 1.381762146949768, 1.5, 1.381762146949768
42144, -1.5262465476989746, -12.059915542602539, -2.1223623752593994, 0.6785349249839783, 0.06176573038101196, -3.608879566192627, 1.670376181602478, 0.15158869326114655, -0.36142390966415405, -0.7931284308433533, -0.9598425626754761, 0.062287088483572006, -0.6669795848451113, 0.2626868769680186, -8.12348911832946, 9362.0, 30146.0, 35388.0, 9362.0, 8.370248794555664, -0.11942271888256073, 0.06643586605787277, 0.3564295172691345, 0.004101102706044912, -0.06477966904640198, 0.997896671295166, -0.06842473894357681, -0.01271820068359375, 1.494873046875, 1.166015625, 0.6093902587890625, 1.494873046875, 1.48095703125, 10.0, 1.381762146949768, 1.5, 1.381762146949768
42154, -1.525601863861084, -12.058161735534668, -2.1242177486419678, 0.6785349249839783, 0.06176573038101196, -3.608879566192627, 1.670376181602478, 0.15158869326114655, -0.36142390966415405, -0.7931236624717712, -0.9598424434661865, 0.06230191886425018, -0.6681828440338943, 0.2612658372786143, -8.125454239102599, 9362.0, 30146.0, 35388.0, 9362.0, 8.370248794555664, 0.08437356352806091, -0.19059871137142181, -0.22140389680862427, 0.004816683474928141, -0.06577584147453308, 0.9991369247436523, -0.06842473894357681, -0.01271820068359375, 1.494873046875, 1.200439453125, 0.3812713623046875, 1.494873046875, 1.48095703125, 10.0, 1.381762146949768, 1.5, 1.381762146949768
42164, -1.5257585048675537, -12.05854320526123, -2.1241683959960938, 0.6785349249839783, 0.06176573038101196, -3.608879566192627, 1.670376181602478, 0.15158869326114655, -0.36142390966415405, -0.793134868144989, -0.9598550200462341, 0.0623055174946785, -0.6681564561130275, 0.26304408245133004, -8.122278756266105, 9362.0, 30146.0, 35388.0, 9362.0, 8.370248794555664, -0.003957964945584536, -0.1574448049068451, 0.18576933443546295, 0.005697533022612333, -0.06637635082006454, 0.9986581206321716, -0.06842473894357681, -0.01271820068359375, 1.494873046875, 1.4150390625, 0.05596923828125, 1.494873046875, 1.48095703125, 10.0, 1.381762146949768, 1.5, 1.381762146949768
42174, -1.525461196899414, -12.058965682983398, -2.1229591369628906, 0.6785349249839783, 0.06176573038101196, -3.608879566192627, 1.670376181602478, 0.15158869326114655, -0.36142390966415405, -0.7931416630744934, -0.9598357081413269, 0.06228743866086006, -0.6628456926819338, 0.2728528788927349, -8.134214727604066, 9362.0, 30146.0, 35388.0, 9362.0, 8.370248794555664, 0.10576778650283813, -0.10298863798379898, 0.03519652038812637, 0.006450859364122152, -0.0664999932050705, 0.9965822100639343, -0.06842473894357681, -0.01271820068359375, 1.494873046875, 1.35205078125, 0.015380859375, 1.494873046875, 1.358642578125, 10.0, 1.381762146949768, 1.5, 1.381762146949768
42184, -1.5254067182540894, -12.060108184814453, -2.12235164642334, 0.7824559211730957, 0.07119393348693848, -3.6309814453125, 1.7936296463012695, 0.16268156468868256, -0.37542203068733215, -0.7931299805641174, -0.9598407745361328, 0.06227361038327217, -0.6752130329553738, 0.26025040157466606, -8.122094400917426, 9362.0, 30146.0, 35388.0, 9362.0, 8.370248794555664, 0.09120349586009979, 0.23677608370780945, 0.054396167397499084, 0.004939372185617685, -0.06737732887268066, 0.9969469904899597, -0.06842473894357681, -0.01271820068359375, 1.494873046875, 1.35205078125, 0.015380859375, 1.494873046875, 1.358642578125, 10.0, 1.381762146949768, 1.5, 1.381762146949768
42194, -1.5258965492248535, -12.063117027282715, -2.1246731281280518, 0.7824559211730957, 0.07119393348693848, -3.6309814453125, 1.7936296463012695, 0.16268156468868256, -0.37542203068733215, -0.7931373119354248, -0.9598292112350464, 0.06230536848306656, -0.663497625307118, 0.2707354150992103, -8.132107327570228, 9362.0, 30146.0, 35388.0, 9362.0, 8.370248794555664, -0.1233082264661789, 0.1894843578338623, -0.11630174517631531, 0.00604625279083848, -0.06692816317081451, 0.9963712096214294, -0.06842473894357681, -0.01271820068359375, 1.494873046875, 1.35205078125, 0.015380859375, 1.494140625, 1.358642578125, 10.0, 1.381762146949768, 1.5, 1.381762146949768
42214, -1.5244879722595215, -12.062594413757324, -2.128743886947632, 0.7824559211730957, 0.07119393348693848, -3.6309814453125, 1.7936296463012695, 0.16268156468868256, -0.37542203068733215, -0.793131411075592, -0.9598419070243835, 0.06228575482964516, -0.6716194092252762, 0.2671475967180186, -8.12351980166664, 9362.0, 30146.0, 35388.0, 9362.0, 8.370248794555664, 0.10297154635190964, 0.12124338746070862, -0.41212695837020874, 0.004797287750989199, -0.06509514153003693, 1.0006191730499268, -0.06687040627002716, -0.27255821228027344, 1.4736328125, 1.35205078125, 0.015380859375, 1.4912109375, 1.51318359375, 10.0, 1.381762146949768, 1.5, 1.381762146949768
42224, -1.5244966745376587, -12.060086250305176, -2.131230115890503, 0.7824559211730957, 0.07119393348693848, -3.6309814453125, 1.7936296463012695, 0.16268156468868256, -0.37542203068733215, -0.7931122779846191, -0.9598190188407898, 0.06229810044169426, -0.6689054409218452, 0.26137315980659537, -8.122551513012622, 9362.0, 30146.0, 35388.0, 9362.0, 8.370248794555664, -0.13411062955856323, -0.4098101258277893, 0.06745948642492294, 0.0045962855219841, -0.06500193476676941, 1.0000803470611572, -0.06687040627002716, -0.27255821228027344, 1.4736328125, 1.35205078125, 0.015380859375, 1.4912109375, 1.53955078125, 10.0, 1.381762146949768, 1.5, 1.381762146949768
42234, -1.5255086421966553, -12.058977127075195, -2.1304378509521484, 0.7824559211730957, 0.07119393348693848, -3.6309814453125, 1.7936296463012695, 0.16268156468868256, -0.37542203068733215, -0.7931235432624817, -0.9598336815834045, 0.06231312081217766, -0.6739771103887882, 0.2588914423101585, -8.130837296232118, 9362.0, 30146.0, 35388.0, 9362.0, 8.370248794555664, -0.0038818102329969406, -0.060461170971393585, 0.22065794467926025, 0.0073168156668543816, -0.06526188552379608, 0.9984079599380493, -0.06687040627002716, -0.27255821228027344, 1.4736328125, 1.35205078125, 0.015380859375, 1.4912109375, 1.44287109375, 10.0, 1.381762146949768, 1.5, 1.381762146949768
42274, -1.526039481163025, -12.058653831481934, -2.127077102661133, 0.9325174689292908, 0.08479907363653183, -3.6617777347564697, 1.9579708576202393, 0.1774469017982483, -0.39417940378189087, -0.7931196689605713, -0.9598258137702942, 0.06230330467224121, -0.669043034025145, 0.27299128289325836, -8.122732424883715, 9362.0, 30146.0, 35388.0, 9362.0, 8.370248794555664, 0.1274608075618744, 0.2771349847316742, -0.14694464206695557, 0.006510878913104534, -0.06786338239908218, 0.998404860496521, -0.06687040627002716, -0.27255821228027344, 1.4736328125, 1.35205078125, 0.015380859375, 1.493408203125, 1.307373046875, 10.0, 1.381762146949768, 1.5, 1.381762146949768
42294, -1.5235347747802734, -12.060351371765137, -2.129701852798462, 0.9325174689292908, 0.08479907363653183, -3.6617777347564697, 1.9579708576202393, 0.1774469017982483, -0.39417940378189087, -0.7931240797042847, -0.9598286151885986, 0.06230210140347481, -0.6740908847390055, 0.2712021725378406, -8.126742252987615, 9362.0, 30146.0, 35388.0, 9362.0, 8.370248794555664, 0.06638316065073013, 0.10918499529361725, 0.05058727413415909, 0.005326701793819666, -0.0646701231598854, 0.9994303584098816, -0.06687040627002716, -0.27255821228027344, 1.4736328125, 1.35205078125, 0.015380859375, 1.493408203125, 1.24951171875, 10.0, 1.381762146949768, 1.5, 1.381762146949768
42324, -1.5222200155258179, -12.059076309204102, -2.1301748752593994, 1.0124784708023071, 0.09204450994729996, -3.677736759185791, 2.04010009765625, 0.18482616543769836, -0.40367624163627625, -0.7931366562843323, -0.9598172307014465, 0.062289878726005554, -0.6776577271828522, 0.27266114755005333, -8.129081315827252, 9362.0, 30146.0, 35388.0, 9362.0, 8.370248794555664, 0.004589073359966278, -0.1289851814508438, -0.025209784507751465, 0.005616127047687769, -0.06781655550003052, 0.9976703524589539, -0.06687040627002716, -0.27255821228027344, 1.4736328125, 1.35205078125, 0.015380859375, 1.4912109375, 1.33154296875, 10.0, 1.3796659708023071, 1.5, 1.3796659708023071
42354, -1.5205391645431519, -12.057012557983398, -2.1306111812591553, 1.0124784708023071, 0.09204450994729996, -3.677736759185791, 2.04010009765625, 0.18482616543769836, -0.40367624163627625, -0.7931229472160339, -0.9598247408866882, 0.062287189066410065, -0.6794902135991848, 0.263539055043168, -8.122690540139104, 9362.0, 30146.0, 35388.0, 9362.0, 8.370248794555664, -0.1385173350572586, 0.10100506991147995, 0.22416849434375763, 0.004379635211080313, -0.06840183585882187, 0.9997103810310364, -0.06687040627002716, -0.27255821228027344, 1.4736328125, 1.35205078125, 0.015380859375, 1.49267578125, 1.447265625, 10.0, 1.37911856174469, 1.5, 1.37911856174469
42364, -1.5200883150100708, -12.056721687316895, -2.1310548782348633, 1.0124784708023071, 0.09204450994729996, -3.677736759185791, 2.04010009765625, 0.18482616543769836, -0.40367624163627625, -0.7931265234947205, -0.9598127603530884, 0.06231539323925972, -0.6789419624160354, 0.27143619129086005, -8.126434166673606, 9362.0, 30146.0, 35388.0, 9362.0, 8.370248794555664, 0.1614268273115158, 0.16135984659194946, -0.22829069197177887, 0.004189071245491505, -0.06724892556667328, 0.9993412494659424, -0.06687040627002716, -0.27255821228027344, 1.4736328125, 1.24072265625, 0.1952667236328125, 1.49267578125, 1.447265625, 10.0, 1.37911856174469, 1.5, 1.37911856174469
42374, -1.5200055837631226, -12.056086540222168, -2.130812406539917, 1.0124784708023071, 0.09204450994729996, -3.677736759185791, 2.04010009765625, 0.18482616543769836, -0.40367624163627625, -0.7931345701217651, -0.9598219990730286, 0.0623152032494545, -0.6733619119251417, 0.27762753961746967, -8.13753522750921, 9362.0, 30146.0, 35388.0, 9362.0, 8.370248794555664, -0.22165732085704803, -0.5293423533439636, 0.0010860031470656395, 0.005559118930250406, -0.06708716601133347, 0.9973083138465881, -0.06687040627002716, -0.27255821228027344, 1.4736328125, 1.24072265625, 0.1952667236328125, 1.49267578125, 1.524169921875, 10.0, 1.37911856174469, 1.5, 1.37911856174469
42384, -1.518349289894104, -12.056416511535645, -2.1318283081054688, 1.0124784708023071, 0.09204450994729996, -3.677736759185791, 2.04010009765625, 0.18482616543769836, -0.40367624163627625, -0.7931332588195801, -0.9598209857940674, 0.062303945422172546, -0.6730774924122244, 0.2619839318227264, -8.126832926809113, 9362.0, 30146.0, 35388.0, 9362.0, 8.370248794555664, 0.15592215955257416, -0.0726400688290596, -0.0013579027727246284, 0.007102735806256533, -0.06537286937236786, 0.997768223285675, -0.06687040627002716, -0.27255821228027344, 1.4736328125, 1.24072265625, 0.1952667236328125, 1.49267578125, 1.4912109375, 10.0, 1.37911856174469, 1.5, 1.37911856174469
42394, -1.518444299697876, -12.058938980102539, -2.1319687366485596, 1.0124784708023071, 0.09204450994729996, -3.677736759185791, 2.04010009765625, 0.18482616543769836, -0.40367624163627625, -0.7931309938430786, -0.9598280191421509, 0.062311455607414246, -0.6815405846868231, 0.26485387618265577, -8.123104549023468, 9362.0, 30146.0, 35388.0, 9362.0, 8.370248794555664, 0.027273980900645256, 0.36527499556541443, -0.01830841787159443, 0.004295113496482372, -0.06675315648317337, 1.0011597871780396, -0.06687040627002716, -0.27255821228027344, 1.4736328125, 1.24072265625, 0.1952667236328125, 1.49267578125, 1.512451171875, 10.0, 1.37911856174469, 1.5, 1.37911856174469
42414, -1.5190565586090088, -12.061737060546875, -2.1294331550598145, 1.2267608642578125, 0.11144737154245377, -3.719264268875122, 2.2455222606658936, 0.20321381092071533, -0.42690393328666687, -0.7931385040283203, -0.9598367810249329, 0.06231509521603584, -0.6680827898999047, 0.2701929266585239, -8.122943766932103, 9362.0, 30146.0, 35388.0, 9362.0, 8.370248794555664, 0.0954199731349945, -0.07537098228931427, -0.12065190076828003, 0.005074361804872751, -0.06510767340660095, 0.9983721971511841, -0.07993815839290619, -0.18295860290527344, 1.48095703125, 1.24072265625, 0.1952667236328125, 1.48828125, 1.512451171875, 10.0, 1.37911856174469, 1.5, 1.37911856174469
42424, -1.518061876296997, -12.060850143432617, -2.128694534301758, 1.2720829248428345, 0.11554839462041855, -3.7278454303741455, 2.286667823791504, 0.20688799023628235, -0.43129271268844604, -0.7931289672851562, -0.9598248600959778, 0.0623030886054039, -0.6694132560053347, 0.2727822262059192, -8.13168274270575, 9362.0, 30146.0, 35388.0, 9362.0, 8.370248794555664, 0.10201419144868851, -0.3223777115345001, -0.02234392613172531, 0.005525494925677776, -0.06731097400188446, 0.9966692924499512, -0.07993815839290619, -0.18295860290527344, 1.48095703125, 1.24072265625, 0.1952667236328125, 1.48828125, 1.512451171875, 10.0, 1.37911856174469, 1.5, 1.37911856174469
