timeTick, roll, pitch, yaw, stateX, stateY, stateZ, stateVX, stateVY, stateVZ, otX0, otY0, otZ0, otRoll0, otPitch0, otYaw0, left wing, pitch motor, yaw motor, right wing, voltage, roll rate, pitch rate, yaw rate, A_x, A_y, A_z, current, i_raw, v_raw, airflow_voltage, airflow_speed, pot_Pitch, voltage_nKF, kFFx, volt_KF_vel, kP, volt_KF_pos
19961, -1.0408555269241333, -0.04378463700413704, 3.941922187805176, 0, 0, 0, 0, 0, 0, -0.8008717894554138, -0.9558818340301514, 0.06260723620653152, -0.999587991481624, 0.5636962799711114, -3.945150990529316, 0, 0, 0, 0, 0, 0, 0, 0, 0, 0, 0, 0, 0, 0, 0, 0, 0, 0, 0, 0, 0, 0
19971, -1.0412774085998535, -0.043870218098163605, 3.941230297088623, 8.084190085355658e-06, -0.00031599015346728265, -6.672323226928711, 0.00020025463891215622, -0.007868054322898388, -0.7275919318199158, -0.8008646368980408, -0.9558815956115723, 0.06261737644672394, -1.0057618030133035, 0.5697396690063101, -3.945033476274627, 9362.0, 30146.0, 35388.0, 9362.0, 0, 0, 0, 0, 0, 0, 0, 0, 0, 0, 0, 0, 0, 0, 0, 0, 0, 0
19981, -1.040360927581787, -0.044385943561792374, 3.941549062728882, 9.849607522482984e-06, -0.00038578681414946914, -6.679601192474365, 0.0001528151915408671, -0.006091275718063116, -0.7279880046844482, -0.8008715510368347, -0.9558742046356201, 0.06265440583229065, -1.004635562515042, 0.5615319877287845, -3.936442626981417, 9362.0, 30146.0, 35388.0, 9362.0, 0, -0.04544411972165108, 0.07182080298662186, 0.1371924877166748, 0.008870209567248821, -0.07126045972108841, 0.9966761469841003, 0, 0, 0, 1.53076171875, 0.2596435546875, 0, 1.46337890625, 10.0, 1.3929580450057983, 1.5, 1.3929580450057983
19991, -1.041487693786621, -0.046222787350416183, 3.940829038619995, 1.114511087507708e-05, -0.00043780816486105323, -6.686882019042969, 0.00010630158067215234, -0.004312995355576277, -0.7282185554504395, -0.8008856773376465, -0.9558733701705933, 0.0626133382320404, -1.001694437507513, 0.5622746120924091, -3.9511460704171593, 9362.0, 30146.0, 35388.0, 9362.0, 0, 0.04733698442578316, -0.012344351969659328, -0.3790777921676636, 0.007926677353680134, -0.07077708840370178, 0.9984791874885559, 0, 0, 0, 1.51318359375, 0.2224273681640625, 1.493408203125, 1.213623046875, 10.0, 1.3922202587127686, 1.5, 1.3922202587127686
20001, -1.0406532287597656, -0.047928109765052795, 3.9412217140197754, 1.199053440359421e-05, -0.00047203415306285024, -6.694165229797363, 6.276509520830587e-05, -0.0025322039145976305, -0.7284287810325623, -0.8008780479431152, -0.955914318561554, 0.06264082342386246, -0.98389383387765, 0.5662044029977551, -3.946100451828726, 9362.0, 30146.0, 35388.0, 9362.0, 0, 0.12475545704364777, 0.5309739112854004, 0.10465915501117706, 0.008415162563323975, -0.07077670097351074, 0.9980825781822205, 0, 0, 0, 1.4794921875, 0.155975341796875, 1.493408203125, 1.43115234375, 10.0, 1.3928675651550293, 1.5, 1.3928675651550293
20011, -1.041709303855896, -0.048981744796037674, 3.943474769592285, 1.241544396179961e-05, -0.000488453486468643, -6.701450347900391, 2.214436244685203e-05, -0.0007516685291193426, -0.7285854816436768, -0.8008810877799988, -0.9558929800987244, 0.06263487786054611, -0.9988344808681282, 0.5658791927127425, -3.9531738391937954, 9362.0, 30146.0, 35388.0, 9362.0, 0, -0.10265043377876282, -0.05189337581396103, 0.2823548913002014, 0.006645543966442347, -0.07221844047307968, 0.9988086223602295, 0, 0, 0, 1.188720703125, 0.4511871337890625, 1.48974609375, 1.51318359375, 10.0, 1.3936132192611694, 1.5, 1.3936132192611694
20021, -1.0413596630096436, -0.0505450963973999, 3.9426794052124023, 1.2442004845070187e-05, -0.00048705076915211976, -6.708736419677734, -1.680911191215273e-05, 0.0010322119342163205, -0.7286643385887146, -0.8008620142936707, -0.9558939933776855, 0.06260930746793747, -0.9981678411502385, 0.544008877774445, -3.947101195347808, 9362.0, 30146.0, 35388.0, 9362.0, 0, 0.010197097435593605, -0.029972560703754425, -0.2322959154844284, 0.0072540221735835075, -0.07151605933904648, 1.0001200437545776, 0, 0, 0, 1.10009765625, 1.2657470703125, 1.48974609375, 1.4443359375, 10.0, 1.3942092657089233, 1.5, 1.3942092657089233
20031, -1.0403225421905518, -0.049480799585580826, 3.9449987411499023, 1.209265974466689e-05, -0.0004678092373069376, -6.7160234451293945, -5.313107976689935e-05, 0.0028160952497273684, -0.7287203669548035, -0.8008815050125122, -0.9558712244033813, 0.06260712444782257, -1.003720038419482, 0.5494775978567361, -3.945616973330493, 9362.0, 30146.0, 35388.0, 9362.0, 0, 0.05465594679117203, 0.05709105357527733, 0.27618733048439026, 0.0071875834837555885, -0.06981585919857025, 0.997698187828064, 0, 0, 0, 1.573974609375, 0.35626220703125, 1.493408203125, 1.22314453125, 10.0, 1.394357442855835, 1.5, 1.394357442855835
20041, -1.041060209274292, -0.04782967269420624, 3.946404457092285, 1.1371791515557561e-05, -0.0004307632625568658, -6.7233123779296875, -9.107721416512504e-05, 0.004593093413859606, -0.7290506362915039, -0.8008653521537781, -0.9558727145195007, 0.06265850365161896, -1.0037354052009224, 0.5523928611433178, -3.939157815972181, 9362.0, 30146.0, 35388.0, 9362.0, 0, -0.2222176045179367, 0.10196162760257721, 0.3111063539981842, 0.00782693736255169, -0.07248325645923615, 0.9967163801193237, 0, 0, 0, 1.459716796875, 0.120849609375, 1.493408203125, 1.58349609375, 10.0, 1.3941057920455933, 1.5, 1.3941057920455933
20051, -1.0410629510879517, -0.04810319468379021, 3.947810649871826, 1.0256640052830335e-05, -0.0003759369137696922, -6.73060417175293, -0.00013199787645135075, 0.006372176576405764, -0.7293248176574707, -0.8008812069892883, -0.9558826684951782, 0.06264142692089081, -1.0031351649471631, 0.5698318625879324, -3.9444427830394106, 9362.0, 30146.0, 35388.0, 9362.0, 0, 0.11094661802053452, -0.1967337727546692, 0.12626102566719055, 0.006669334135949612, -0.07155612111091614, 0.9975589513778687, 0, 0, 0, 1.51171875, 0.21942138671875, 1.493408203125, 1.5556640625, 10.0, 1.3943569660186768, 1.5, 1.3943569660186768
20061, -1.041190266609192, -0.04619534686207771, 3.948740005493164, 8.73419594427105e-06, -0.00030331098241731524, -6.737898349761963, -0.0001725141773931682, 0.008153000846505165, -0.7295050621032715, -0.8008612394332886, -0.955869734287262, 0.0626322329044342, -0.9957646740237678, 0.5592631759277538, -3.951677277909602, 9362.0, 30146.0, 35388.0, 9362.0, 8.152067184448242, -0.004992145113646984, -0.3664657473564148, -0.13161145150661469, 0.008070215582847595, -0.07442227751016617, 0.9984203577041626, 0, 0, 0, 1.550537109375, 0.303131103515625, 1.493408203125, 1.282470703125, 10.0, 1.3940376043319702, 1.5, 1.3940376043319702
20071, -1.0400820970535278, -0.04539915919303894, 3.948610305786133, 6.790208317397628e-06, -0.00021288098650984466, -6.745194435119629, -0.0002162767486879602, 0.009933002293109894, -0.7297304272651672, -0.8008740544319153, -0.9558839201927185, 0.06262850761413574, -1.008695285204755, 0.5656078697335261, -3.951580601778031, 9362.0, 30146.0, 35388.0, 9362.0, 8.152067184448242, 0.20407740771770477, 0.14806903898715973, -0.019602378830313683, 0.009301469661295414, -0.07267136871814728, 0.9973341226577759, -0.0759764313697815, -0.11127853393554688, 1.48681640625, 1.5380859375, 0.2755889892578125, 1.490478515625, 1.1982421875, 10.0, 1.3943053483963013, 1.5, 1.3943053483963013
20081, -1.0403825044631958, -0.046390172094106674, 3.9495036602020264, 4.4026519390172325e-06, -0.00010466760431881994, -6.752493381500244, -0.00026126718148589134, 0.011709671467542648, -0.730029821395874, -0.8008572459220886, -0.9559214115142822, 0.06262979656457901, -0.9813986544939766, 0.5457018271365257, -3.9437470728156034, 9362.0, 30146.0, 35388.0, 9362.0, 8.152067184448242, -0.013201466761529446, 0.010806235484778881, -0.05260961130261421, 0.008041054010391235, -0.07253087311983109, 0.9975581169128418, -0.0759764313697815, -0.11127853393554688, 1.48681640625, 1.55126953125, 0.304718017578125, 1.490478515625, 1.177001953125, 10.0, 1.3937808275222778, 1.5, 1.3937808275222778
20091, -1.0412975549697876, -0.04460027813911438, 3.9500160217285156, 1.5730772702227114e-06, 2.1325351553969085e-05, -6.75979471206665, -0.00030465799500234425, 0.01348891668021679, -0.7302219271659851, -0.8008908629417419, -0.9558780789375305, 0.06260394304990768, -1.000760924921896, 0.5615826468027478, -3.956881351583299, 9362.0, 30146.0, 35388.0, 9362.0, 8.152067184448242, -0.2335928976535797, 0.020604176446795464, 0.1377691626548767, 0.008029055781662464, -0.0705777183175087, 0.9982703328132629, -0.0759764313697815, -0.11127853393554688, 1.48681640625, 1.52490234375, 0.247039794921875, 1.493408203125, 1.47509765625, 10.0, 1.3934844732284546, 1.5, 1.3934844732284546
20101, -1.0419859886169434, -0.04576506465673447, 3.9491665363311768, -1.7059901438187808e-06, 0.00016510635032318532, -6.767098426818848, -0.000351134774973616, 0.01526727620512247, -0.7305367588996887, -0.8008643984794617, -0.9558716416358948, 0.0626249611377716, -0.9984829857581503, 0.5413392213535531, -3.9467715321138863, 9362.0, 30146.0, 35388.0, 9362.0, 8.152067184448242, -0.05382633954286575, 0.24102316796779633, -0.17221233248710632, 0.007828549481928349, -0.07049834728240967, 0.9960975646972656, -0.0759764313697815, -0.11127853393554688, 1.48681640625, 1.505859375, 0.2073974609375, 1.493408203125, 0.96826171875, 10.0, 1.3935182094573975, 1.5, 1.3935182094573975
20111, -1.0423121452331543, -0.04666398838162422, 3.9491612911224365, -5.440099357656436e-06, 0.0003266741696279496, -6.774405479431152, -0.0003956918662879616, 0.017046282067894936, -0.7308884263038635, -0.8008769750595093, -0.9558828473091125, 0.06260626763105392, -1.009165489398525, 0.5578193088983596, -3.954400208124298, 9362.0, 30146.0, 35388.0, 9362.0, 8.152067184448242, -0.0058794328942894936, -0.11092917621135712, -0.025414910167455673, 0.009040427394211292, -0.07201673090457916, 0.9968560338020325, -0.0759764313697815, -0.11127853393554688, 1.48681640625, 1.326416015625, 0.022705078125, 1.49267578125, 1.348388671875, 10.0, 1.3930453062057495, 1.5, 1.3930453062057495
20121, -1.0418288707733154, -0.04361497610807419, 3.947847843170166, -9.61226032814011e-06, 0.0005060328985564411, -6.781716346740723, -0.00043868046486750245, 0.018825476989150047, -0.731266438961029, -0.8008370399475098, -0.955881655216217, 0.06261873245239258, -0.9972567831726878, 0.5466550969615582, -3.939816725903949, 9362.0, 30146.0, 35388.0, 9362.0, 8.152067184448242, 0.05698985978960991, -0.44271010160446167, -0.16663683950901031, 0.00799251627177, -0.07364463806152344, 0.9957284331321716, -0.0759764313697815, -0.11127853393554688, 1.48681640625, 1.4267578125, 0.070709228515625, 1.49267578125, 1.184326171875, 10.0, 1.3926252126693726, 1.5, 1.3926252126693726
20131, -1.0418120622634888, -0.044666483998298645, 3.948697328567505, -1.4239793927117717e-05, 0.0007031789282336831, -6.789031028747559, -0.0004868588293902576, 0.020603738725185394, -0.7316303253173828, -0.8008556962013245, -0.9559112787246704, 0.06260556727647781, -0.9759213164236199, 0.5449382552460804, -3.94712386238608, 9362.0, 30146.0, 35388.0, 9362.0, 8.152067184448242, 0.07691726833581924, -0.07942464202642441, -0.06552711129188538, 0.007665842771530151, -0.07306715101003647, 0.9960708618164062, -0.0759764313697815, -0.11127853393554688, 1.48681640625, 1.175537109375, 0.5392303466796875, 1.489013671875, 1.48828125, 10.0, 1.3930280208587646, 1.5, 1.3930280208587646
20141, -1.0425621271133423, -0.04268832504749298, 3.949289083480835, -1.934027750394307e-05, 0.000918107689358294, -6.796349048614502, -0.0005332437576726079, 0.022382009774446487, -0.7319986820220947, -0.8008654713630676, -0.9558835029602051, 0.0626303032040596, -0.9982022987842115, 0.5541584058498188, -3.9608580431997877, 9362.0, 30146.0, 35388.0, 9362.0, 8.152067184448242, -0.10274352878332138, -0.25255271792411804, 0.12027914077043533, 0.008372928015887737, -0.07142547518014908, 0.997530996799469, -0.0759764313697815, -0.11127853393554688, 1.48681640625, 1.484619140625, 0.1656646728515625, 1.489013671875, 1.109619140625, 10.0, 1.392514705657959, 1.5, 1.392514705657959
20151, -1.0432188510894775, -0.04093281179666519, 3.9501516819000244, -2.4922090233303607e-05, 0.0011508286697790027, -6.803670406341553, -0.000583136745262891, 0.024162184447050095, -0.7323199510574341, -0.8008663654327393, -0.9559154510498047, 0.06263495236635208, -0.9731304590459094, 0.5603314200602654, -3.937499882979959, 9362.0, 30146.0, 35388.0, 9362.0, 8.152067184448242, 0.015328802168369293, -0.33712244033813477, 0.027824264019727707, 0.007988585159182549, -0.07151655107736588, 0.9955272674560547, -0.0759764313697815, -0.11127853393554688, 1.48681640625, 1.32421875, 0.024139404296875, 1.48974609375, 1.508056640625, 10.0, 1.3915014266967773, 1.5, 1.3915014266967773
20161, -1.043449878692627, -0.03717220574617386, 3.9486687183380127, -3.101780384895392e-05, 0.0014013393083587289, -6.810996055603027, -0.0006359282415360212, 0.025939946994185448, -0.7328235507011414, -0.8008691668510437, -0.9558694362640381, 0.06263063848018646, -1.0047752362943814, 0.5598482966395864, -3.942697857002574, 9362.0, 30146.0, 35388.0, 9362.0, 8.152067184448242, -0.014421788044273853, -0.3701946437358856, -0.2537769079208374, 0.007198514882475138, -0.07206454128026962, 0.9949530363082886, -0.0759764313697815, -0.11127853393554688, 1.48681640625, 1.147705078125, 0.7606201171875, 1.48974609375, 1.5703125, 10.0, 1.3902137279510498, 1.5, 1.3902137279510498
20171, -1.0437393188476562, -0.037430837750434875, 3.9465489387512207, -3.767366797546856e-05, 0.0016696387901902199, -6.818325996398926, -0.0006951804389245808, 0.027719931676983833, -0.7332028150558472, -0.8008704781532288, -0.9558892846107483, 0.06263835728168488, -0.9988755035253284, 0.555485578497894, -3.951100143006582, 9362.0, 30146.0, 35388.0, 9362.0, 8.152067184448242, -0.009389340877532959, 0.3067623972892761, -0.2887117266654968, 0.0077858734875917435, -0.07090440392494202, 0.9977898597717285, -0.0874832272529602, -0.07543754577636719, 1.48974609375, 1.5, 0.19561767578125, 1.490478515625, 1.305908203125, 10.0, 1.390507459640503, 1.5, 1.390507459640503
20181, -1.043968915939331, -0.03864847496151924, 3.9490909576416016, -4.4920270738657564e-05, 0.0019557580817490816, -6.825658798217773, -0.0007542230887338519, 0.029503924772143364, -0.7333909869194031, -0.8008792400360107, -0.9558807611465454, 0.06262233853340149, -1.0012346337903342, 0.5538590815386613, -3.9464546896183363, 9362.0, 30146.0, 35388.0, 9362.0, 8.152067184448242, -0.19568170607089996, 0.04923330992460251, 0.5672471523284912, 0.007403168361634016, -0.07330363243818283, 0.998081624507904, -0.0874832272529602, -0.07543754577636719, 1.48974609375, 1.619384765625, 0.4635009765625, 1.490478515625, 1.585693359375, 10.0, 1.3907885551452637, 1.5, 1.3907885551452637
20191, -1.043430209159851, -0.03558853268623352, 3.9493179321289062, -5.274727300275117e-05, 0.0022597142960876226, -6.832993984222412, -0.0008111722418107092, 0.031287338584661484, -0.7336403727531433, -0.8008671402931213, -0.9558876752853394, 0.06258464604616165, -1.0035223004534812, 0.5381848261073969, -3.948675827967098, 9362.0, 30146.0, 35388.0, 9362.0, 8.152067184448242, 0.33222898840904236, -0.3177051842212677, 0.1909727305173874, 0.007673108484596014, -0.07335196435451508, 0.9973028898239136, -0.0874832272529602, -0.07543754577636719, 1.48974609375, 1.3359375, 0.01806640625, 1.491943359375, 1.368896484375, 10.0, 1.3904411792755127, 1.5, 1.3904411792755127
20201, -1.0424755811691284, -0.03557884320616722, 3.9488608837127686, -6.116939039202407e-05, 0.0025814934633672237, -6.84033203125, -0.0008732365677133203, 0.033068519085645676, -0.733941912651062, -0.8008748292922974, -0.9559187293052673, 0.06263798475265503, -0.9755081973605005, 0.5709924734330514, -3.9525637354657444, 9362.0, 30146.0, 35388.0, 9362.0, 8.152067184448242, 0.12705785036087036, 0.26645854115486145, -0.09901188313961029, 0.009448024444282055, -0.07373262196779251, 0.9960638284683228, -0.0874832272529602, -0.07543754577636719, 1.48974609375, 1.39306640625, 0.0337982177734375, 1.491943359375, 1.5146484375, 10.0, 1.3901625871658325, 1.5, 1.3901625871658325
20211, -1.0417336225509644, -0.03760899603366852, 3.947552442550659, -7.021114288363606e-05, 0.0029210634529590607, -6.8476738929748535, -0.0009350895998068154, 0.03484547510743141, -0.7343863844871521, -0.8008603453636169, -0.9559109807014465, 0.06259385496377945, -0.980320475507202, 0.5519197940677998, -3.9427566130266953, 9362.0, 30146.0, 35388.0, 9362.0, 8.152067184448242, -0.017690736800432205, 0.04715010151267052, -0.22715306282043457, 0.010124730877578259, -0.07149491459131241, 0.9957517385482788, -0.0874832272529602, -0.07543754577636719, 1.48974609375, 1.27294921875, 0.099334716796875, 1.4912109375, 1.380615234375, 10.0, 1.3893554210662842, 1.5, 1.3893554210662842
20221, -1.0417852401733398, -0.03766622394323349, 3.948667049407959, -7.985369302332401e-05, 0.0032784028444439173, -6.855019569396973, -0.0009934547124430537, 0.03662237897515297, -0.7347771525382996, -0.8008783459663391, -0.955884575843811, 0.06261693686246872, -0.9991125877905931, 0.5700049301596266, -3.960531330916748, 9362.0, 30146.0, 35388.0, 9362.0, 8.152067184448242, -0.02267134003341198, 0.18289528787136078, 0.3853602707386017, 0.01033953670412302, -0.0740438848733902, 0.9962183237075806, -0.0874832272529602, -0.07543754577636719, 1.48974609375, 1.125732421875, 0.9725341796875, 1.4912109375, 1.58203125, 10.0, 1.387958288192749, 1.5, 1.387958288192749
20231, -1.0409663915634155, -0.03727656975388527, 3.9491498470306396, -9.007974585983902e-05, 0.0036535158287733793, -6.862369060516357, -0.0010517691262066364, 0.03840021789073944, -0.7351224422454834, -0.8008961081504822, -0.9558777809143066, 0.06260272860527039, -1.0044795921570207, 0.5534138874886594, -3.94598330631884, 9362.0, 30146.0, 35388.0, 9362.0, 8.152067184448242, 0.16607342660427094, -0.1618119329214096, 0.01368618942797184, 0.008636199869215488, -0.0735822319984436, 0.9972832798957825, -0.0874832272529602, -0.07543754577636719, 1.48974609375, 1.5205078125, 0.237762451171875, 1.493408203125, 1.207763671875, 10.0, 1.3875967264175415, 1.5, 1.3875967264175415
20241, -1.0403536558151245, -0.03772182762622833, 3.9492859840393066, -0.00010089217539643869, 0.004046409856528044, -6.869721412658691, -0.0011107234749943018, 0.04017859324812889, -0.7353582382202148, -0.8008798360824585, -0.9558954834938049, 0.06257424503564835, -1.0076205802237068, 0.543545420871169, -3.9542299762702835, 9362.0, 30146.0, 35388.0, 9362.0, 8.152067184448242, 0.015200197696685791, -0.047670550644397736, -0.11821676045656204, 0.008668637834489346, -0.07222569733858109, 0.9978485703468323, -0.0874832272529602, -0.07543754577636719, 1.48974609375, 1.598876953125, 0.414520263671875, 1.493408203125, 1.57763671875, 10.0, 1.3862123489379883, 1.5, 1.3862123489379883
20251, -1.040651798248291, -0.037588853389024734, 3.949472188949585, -0.00011228957009734586, 0.004457069095224142, -6.877077102661133, -0.0011687598889693618, 0.04195321723818779, -0.7357460856437683, -0.8009031414985657, -0.955898642539978, 0.06259366869926453, -1.0043247670290067, 0.5603054385638302, -3.9542566508345094, 9362.0, 30146.0, 35388.0, 9362.0, 8.152067184448242, -0.13586841523647308, 0.21232889592647552, 0.14438238739967346, 0.006360628642141819, -0.06953693181276321, 0.9947599172592163, -0.0874832272529602, -0.07543754577636719, 1.48974609375, 1.152099609375, 0.7223052978515625, 1.4912109375, 1.224609375, 10.0, 1.385329246520996, 1.5, 1.385329246520996
20261, -1.0399208068847656, -0.035966429859399796, 3.950742244720459, -0.00012426845205482095, 0.004885470494627953, -6.884437084197998, -0.0012270428705960512, 0.04372702166438103, -0.7362058758735657, -0.8008929491043091, -0.9559270143508911, 0.06256875395774841, -0.9746278292502443, 0.5307526151560182, -3.9501917343612005, 9362.0, 30146.0, 35388.0, 9362.0, 8.152067184448242, 0.06839576363563538, -0.5638912320137024, -0.23384389281272888, 0.0065253786742687225, -0.07170608639717102, 0.9970727562904358, -0.0874832272529602, -0.07543754577636719, 1.48974609375, 1.23046875, 0.235137939453125, 1.4912109375, 1.4150390625, 10.0, 1.384472370147705, 1.5, 1.384472370147705
20271, -1.0403144359588623, -0.033302683383226395, 3.950885057449341, -0.00013684442092198879, 0.005331622902303934, -6.891800403594971, -0.0012881448492407799, 0.04550347477197647, -0.7364411950111389, -0.8008862733840942, -0.9558899402618408, 0.06258243322372437, -1.0075810947451134, 0.5422923647063271, -3.965884784213235, 9362.0, 30146.0, 35388.0, 9362.0, 8.152067184448242, 0.10936061292886734, 0.09539664536714554, 0.12532676756381989, 0.00618234695866704, -0.07238397747278214, 0.9974756240844727, -0.06734407693147659, 0.08584022521972656, 1.5029296875, 1.515380859375, 0.2270050048828125, 1.491943359375, 1.5498046875, 10.0, 1.3850454092025757, 1.5, 1.3850454092025757
20771, -1.0442899465560913, -0.04122832790017128, 3.9852473735809326, -0.0015281698433682323, 0.048950765281915665, -7.256371021270752, -0.004411436151713133, 0.13259992003440857, -0.7509279847145081, -0.8009539246559143, -0.9558773636817932, 0.06251001358032227, -1.019483899770666, 0.5723918042270668, -3.935088179200165, 9362.0, 30146.0, 35388.0, 9362.0, 8.152067184448242, 0.041939426213502884, 0.2957507073879242, -0.12802672386169434, 0.009310905821621418, -0.07313262671232224, 0.9987495541572571, -0.09206028282642365, -0.31735801696777344, 1.469970703125, 1.402587890625, 0.0425262451171875, 1.494873046875, 1.3974609375, 10.0, 1.3846302032470703, 1.5, 1.3846302032470703
20811, -1.045570731163025, -0.040506817400455475, 3.9878032207489014, -0.0017090453766286373, 0.05439755320549011, -7.286425590515137, -0.004627575632184744, 0.13973751664161682, -0.7519692182540894, -0.800955057144165, -0.955889105796814, 0.062472108751535416, -1.0304359447552665, 0.55081941111726, -3.9337583948917656, 9362.0, 30146.0, 35388.0, 9362.0, 8.152067184448242, 0.041939426213502884, 0.2957507073879242, -0.12802672386169434, 0.008308702148497105, -0.07361264526844025, 0.9987985491752625, -0.09206028282642365, -0.31735801696777344, 1.469970703125, 1.5087890625, 0.21337890625, 1.4912109375, 1.53515625, 10.0, 1.3852847814559937, 1.5, 1.3852847814559937
20871, -1.0442031621932983, -0.03682208061218262, 3.986503839492798, -0.0019968703854829073, 0.0631033256649971, -7.331591606140137, -0.004975495859980583, 0.1504523754119873, -0.7536877989768982, -0.800950288772583, -0.9558815360069275, 0.0624777227640152, -1.031464175959477, 0.5645691494145808, -3.9265488963739137, 9362.0, 30146.0, 35388.0, 9362.0, 8.152067184448242, 0.041939426213502884, 0.2957507073879242, -0.12802672386169434, 0.00720274867489934, -0.07174075394868851, 0.9966127872467041, -0.054535746574401855, -0.03959846496582031, 1.49267578125, 1.3037109375, 0.04412841796875, 1.49267578125, 1.54833984375, 10.0, 1.383642315864563, 1.5, 1.383642315864563
20881, -1.0440917015075684, -0.037439871579408646, 3.9875996112823486, -0.002097646938636899, 0.06614807993173599, -7.346667766571045, -0.005100876558572054, 0.15402373671531677, -0.7539154887199402, -0.8009676933288574, -0.9558865427970886, 0.06248617544770241, -1.0289327331338967, 0.5660871838047399, -3.929975560402437, 9362.0, 30146.0, 35388.0, 9362.0, 8.152067184448242, 0.041939426213502884, 0.2957507073879242, -0.12802672386169434, 0.00720274867489934, -0.07174075394868851, 0.9966127872467041, -0.054535746574401855, -0.03959846496582031, 1.49267578125, 1.09130859375, 1.378570556640625, 1.49267578125, 1.54833984375, 10.0, 1.382951259613037, 1.5, 1.382951259613037
21021, -1.0450670719146729, -0.03736743703484535, 3.996116876602173, -0.002887078793719411, 0.08981414884328842, -7.454008102416992, -0.006019944790750742, 0.1793055683374405, -0.7580443620681763, -0.8009828925132751, -0.9558837413787842, 0.06249120458960533, -1.017292682315122, 0.5729019398270339, -3.9453371028199715, 9362.0, 30146.0, 35388.0, 9362.0, 8.152067184448242, 0.041939426213502884, 0.2957507073879242, -0.12802672386169434, 0.007768468931317329, -0.07003810256719589, 0.9978178143501282, -0.054535746574401855, -0.03959846496582031, 1.49267578125, 1.576904296875, 0.36309814453125, 1.490478515625, 1.510986328125, 10.0, 1.3860208988189697, 1.5, 1.3860208988189697
21181, -1.047979712486267, -0.03902711346745491, 4.00257682800293, -0.003935487009584904, 0.12099949270486832, -7.576422214508057, -0.006979566998779774, 0.2081124484539032, -0.7624868154525757, -0.8009510636329651, -0.9558736681938171, 0.0624627061188221, -1.0275518165219253, 0.5663549730765851, -3.9311078407021123, 9362.0, 30146.0, 35388.0, 9362.0, 8.152067184448242, 0.1359425038099289, 0.5417309403419495, 0.5999507308006287, 0.007004330400377512, -0.07015643268823624, 0.9999155402183533, -0.07556416094303131, -0.01271820068359375, 1.494873046875, 1.4384765625, 0.0871429443359375, 1.49267578125, 1.5556640625, 10.0, 1.3818817138671875, 1.5, 1.3818817138671875
21191, -1.0473648309707642, -0.03709881007671356, 4.002739906311035, -0.003935487009584904, 0.12099949270486832, -7.576422214508057, -0.006979566998779774, 0.2081124484539032, -0.7624868154525757, -0.8009843230247498, -0.9558836817741394, 0.06248810142278671, -1.0214464645672932, 0.5867590099373672, -3.9392256425689935, 9362.0, 30146.0, 35388.0, 9362.0, 8.152067184448242, 0.1359425038099289, 0.5417309403419495, 0.5999507308006287, 0.007004330400377512, -0.07015643268823624, 0.9999155402183533, -0.07556416094303131, -0.01271820068359375, 1.494873046875, 1.530029296875, 0.2581329345703125, 1.48681640625, 1.5556640625, 10.0, 1.382286548614502, 1.5, 1.382286548614502
21411, -1.0497496128082275, -0.023572329431772232, 3.9957334995269775, -0.005463683046400547, 0.1662033051252365, -7.729295253753662, -0.008360512554645538, 0.24392709136009216, -0.7661175727844238, -0.8009593486785889, -0.9558854103088379, 0.06248745322227478, -1.025761873559353, 0.551426522577799, -3.9320342030225977, 9362.0, 30146.0, 35388.0, 9362.0, 8.152067184448242, 0.1359425038099289, 0.5417309403419495, 0.5999507308006287, 0.008478706702589989, -0.0719323456287384, 0.9993001818656921, -0.06494690477848053, -0.1650371551513672, 1.482421875, 1.41064453125, 0.0509490966796875, 1.493408203125, 1.322021484375, 10.0, 1.3798257112503052, 1.5, 1.3798257112503052
21481, -1.0566123723983765, -0.026870407164096832, 4.001094818115234, -0.006340069230645895, 0.1914912760257721, -7.806005954742432, -0.009177278727293015, 0.26186227798461914, -0.7684783935546875, -0.8010021448135376, -0.9558982849121094, 0.06247385963797569, -1.0064606134625766, 0.5695775458575554, -3.923189261068705, 9362.0, 30146.0, 35388.0, 9362.0, 8.152067184448242, 0.1359425038099289, 0.5417309403419495, 0.5999507308006287, 0.008478706702589989, -0.0719323456287384, 0.9993001818656921, -0.08226724714040756, -0.20087814331054688, 1.4794921875, 1.152099609375, 0.7223052978515625, 1.489013671875, 1.571044921875, 10.0, 1.3749481439590454, 1.5, 1.3749481439590454
21581, -1.0345300436019897, -0.034998659044504166, 4.015982627868652, -0.007296130061149597, 0.21857570111751556, -7.883016109466553, -0.009918047115206718, 0.2797611355781555, -0.7720019817352295, -0.8009636998176575, -0.9558824300765991, 0.06249270960688591, -1.016001988730244, 0.5716301891581281, -3.928055148971189, 9362.0, 30146.0, 35388.0, 9362.0, 8.152067184448242, 0.42856594920158386, 0.33144429326057434, -0.0379229411482811, 0.008623357862234116, -0.07080269604921341, 0.9984744787216187, -0.0788559690117836, -0.05751800537109375, 1.4912109375, 1.24951171875, 0.1648101806640625, 1.494140625, 1.291259765625, 10.0, 1.3766711950302124, 1.5, 1.3766711950302124
21591, -1.0333657264709473, -0.0375942625105381, 4.017619609832764, -0.00739563163369894, 0.22138215601444244, -7.8907365798950195, -0.00998232513666153, 0.2815307676792145, -0.772096574306488, -0.8009676337242126, -0.9559007287025452, 0.06248370558023453, -1.0140955795085174, 0.5697435157090922, -3.929318151520153, 9362.0, 30146.0, 35388.0, 9362.0, 8.152067184448242, -0.0423772819340229, 0.37124937772750854, 0.21002566814422607, 0.006973892450332642, -0.07072892040014267, 0.9991877675056458, -0.0788559690117836, -0.05751800537109375, 1.4912109375, 1.392333984375, 0.03314208984375, 1.489013671875, 1.291259765625, 10.0, 1.3773126602172852, 1.5, 1.3773126602172852
21601, -1.0337895154953003, -0.03755146637558937, 4.017449855804443, -0.007495753467082977, 0.22420629858970642, -7.898458003997803, -0.010042007081210613, 0.28329795598983765, -0.772230863571167, -0.8009551763534546, -0.9558865427970886, 0.062480729073286057, -1.0038892695423778, 0.5635834673818465, -3.9342848140267463, 9362.0, 30146.0, 35388.0, 9362.0, 8.152067184448242, -0.0423772819340229, 0.37124937772750854, 0.21002566814422607, 0.00691620446741581, -0.07182704657316208, 0.9981902837753296, -0.0788559690117836, -0.05751800537109375, 1.4912109375, 1.241455078125, 0.192626953125, 1.489013671875, 1.541748046875, 10.0, 1.377125859260559, 1.5, 1.377125859260559
21611, -1.0337306261062622, -0.03686077147722244, 4.018728733062744, -0.0075964718125760555, 0.2270480990409851, -7.906181812286377, -0.010101723484694958, 0.2850622534751892, -0.7725666165351868, -0.8009639382362366, -0.9559015035629272, 0.062471210956573486, -1.0168765658358316, 0.5607231192411462, -3.9375181292013814, 9362.0, 30146.0, 35388.0, 9362.0, 8.152067184448242, -0.055887773633003235, -0.15592780709266663, 0.0034717554226517677, 0.007607205770909786, -0.07176239043474197, 0.996512770652771, -0.0788559690117836, -0.05751800537109375, 1.4912109375, 1.272216796875, 0.1009979248046875, 1.4912109375, 1.54248046875, 10.0, 1.3769257068634033, 1.5, 1.3769257068634033
21621, -1.0344735383987427, -0.034387025982141495, 4.017380714416504, -0.007697793655097485, 0.2299075424671173, -7.913908958435059, -0.010162601247429848, 0.28682762384414673, -0.7728320360183716, -0.8009623289108276, -0.9558868408203125, 0.06247301772236824, -1.0184166963254515, 0.5589103725324946, -3.9324535866038195, 9362.0, 30146.0, 35388.0, 9362.0, 8.152067184448242, -0.055887773633003235, -0.15592780709266663, 0.0034717554226517677, 0.007607205770909786, -0.07176239043474197, 0.996512770652771, -0.0788559690117836, -0.05751800537109375, 1.4912109375, 1.5263671875, 0.2502899169921875, 1.4912109375, 1.25244140625, 10.0, 1.376470923423767, 1.5, 1.376470923423767
21741, -1.0658224821090698, -0.02388705313205719, 4.007103443145752, -0.008967929519712925, 0.26561135053634644, -8.006816864013672, -0.01106838509440422, 0.3083452880382538, -0.7761303782463074, -0.8009614944458008, -0.9558947682380676, 0.062463339418172836, -1.0197678984510627, 0.5592255149800565, -3.938882992235112, 9362.0, 30146.0, 35388.0, 9362.0, 8.152067184448242, -0.055887773633003235, -0.15592780709266663, 0.0034717554226517677, 0.008449362590909004, -0.07540978491306305, 0.997581958770752, -0.0728273019194603, -0.08439826965332031, 1.489013671875, 1.179931640625, 0.508758544921875, 1.491943359375, 1.453125, 10.0, 1.3785080909729004, 1.5, 1.3785080909729004
21771, -1.0610711574554443, -0.019025001674890518, 4.006782054901123, -0.00919105764478445, 0.2718146741390228, -8.02234172821045, -0.011247160844504833, 0.3119860589504242, -0.7764244675636292, -0.8009877800941467, -0.9559004306793213, 0.06247951090335846, -1.0168631357233266, 0.5794559778526036, -3.9389171462517174, 9362.0, 30146.0, 35388.0, 9362.0, 8.152067184448242, -0.055887773633003235, -0.15592780709266663, 0.0034717554226517677, 0.008022375404834747, -0.07391786575317383, 0.9952141046524048, -0.07843251526355743, -0.05751800537109375, 1.4912109375, 1.099365234375, 1.27490234375, 1.48681640625, 1.0810546875, 10.0, 1.3797298669815063, 1.5, 1.3797298669815063
21791, -1.0528810024261475, -0.024276822805404663, 4.010643005371094, -0.009417918510735035, 0.27809059619903564, -8.037878036499023, -0.011437905952334404, 0.31560662388801575, -0.7771175503730774, -0.800960898399353, -0.9558982849121094, 0.06246783211827278, -1.021477259259372, 0.565507693258354, -3.9324110156598433, 9362.0, 30146.0, 35388.0, 9362.0, 8.152067184448242, -0.055887773633003235, -0.15592780709266663, 0.0034717554226517677, 0.0075998506508767605, -0.07299427688121796, 0.998091995716095, -0.07843251526355743, -0.05751800537109375, 1.4912109375, 1.229736328125, 0.23822021484375, 1.493408203125, 1.0810546875, 10.0, 1.379871129989624, 1.5, 1.379871129989624
21801, -1.0496399402618408, -0.02748190052807331, 4.013255596160889, -0.009648488834500313, 0.2844387888908386, -8.053424835205078, -0.01161516085267067, 0.31920963525772095, -0.777495265007019, -0.8009743094444275, -0.9559019804000854, 0.062477730214595795, -1.0193693016235235, 0.5796362921206537, -3.9391776902969906, 9362.0, 30146.0, 35388.0, 9362.0, 8.152067184448242, -0.055887773633003235, -0.15592780709266663, 0.0034717554226517677, 0.0075998506508767605, -0.07299427688121796, 0.998091995716095, -0.07843251526355743, -0.05751800537109375, 1.4912109375, 1.026123046875, 2.4365234375, 1.493408203125, 1.0810546875, 10.0, 1.379574179649353, 1.5, 1.379574179649353
21821, -1.041439175605774, -0.030840102583169937, 4.013584613800049, -0.009882333688437939, 0.2908586859703064, -8.068984031677246, -0.011766505427658558, 0.32277706265449524, -0.7785086631774902, -0.800976037979126, -0.9558922052383423, 0.062462158501148224, -1.0099317378623167, 0.5550035176754591, -3.9420367186211087, 9362.0, 30146.0, 35388.0, 9362.0, 8.152067184448242, -0.055887773633003235, -0.15592780709266663, 0.0034717554226517677, 0.007116422057151794, -0.07230913639068604, 0.9945163726806641, -0.07843251526355743, -0.05751800537109375, 1.4912109375, 1.50439453125, 0.2044219970703125, 1.49267578125, 1.0810546875, 10.0, 1.3793662786483765, 1.5, 1.3793662786483765
22081, -1.0412622690200806, -0.014482051134109497, 4.0204973220825195, -0.013199254870414734, 0.38078781962394714, -8.272396087646484, -0.013955706730484962, 0.3691403865814209, -0.7857958078384399, -0.8009908199310303, -0.955875813961029, 0.062487903982400894, -1.0191633813541663, 0.5862276498301924, -3.9392577795466157, 9362.0, 30146.0, 35388.0, 9362.0, 8.152067184448242, -0.055887773633003235, -0.15592780709266663, 0.0034717554226517677, 0.011031714268028736, -0.07183960825204849, 0.9975438117980957, -0.11784668266773224, -0.19191741943359375, 1.480224609375, 1.4853515625, 0.1669921875, 1.48828125, 1.54833984375, 10.0, 1.3783948421478271, 1.5, 1.3783948421478271
22261, -1.0516624450683594, -0.006930474191904068, 4.011241912841797, -0.015866678208112717, 0.45009860396385193, -8.414398193359375, -0.015711858868598938, 0.4010690450668335, -0.7919293642044067, -0.8009360432624817, -0.9558805227279663, 0.062485288828611374, -1.0097942985936432, 0.565004469197703, -3.9519389521671062, 9362.0, 30146.0, 35388.0, 9362.0, 8.152067184448242, -0.14557109773159027, -0.5594602823257446, -0.2894204556941986, 0.007674690335988998, -0.07502254843711853, 0.9962940216064453, -0.08879899978637695, -0.07543754577636719, 1.48974609375, 1.11328125, 1.1085052490234375, 1.487548828125, 1.247314453125, 10.0, 1.3817384243011475, 1.5, 1.3817384243011475
22271, -1.0524940490722656, -0.005721854977309704, 4.011429309844971, -0.01602436602115631, 0.4541182518005371, -8.422319412231445, -0.015825621783733368, 0.4028604328632355, -0.7922484278678894, -0.8009384870529175, -0.9558815360069275, 0.062488798052072525, -1.0101552903159516, 0.5667974143615311, -3.9571727783950794, 9362.0, 30146.0, 35388.0, 9362.0, 8.152067184448242, -0.14557109773159027, -0.5594602823257446, -0.2894204556941986, 0.0078014289028942585, -0.07579939812421799, 0.9967506527900696, -0.0810486376285553, 0.014162063598632812, 1.4970703125, 1.12353515625, 0.9957122802734375, 1.489013671875, 1.576904296875, 10.0, 1.3808517456054688, 1.5, 1.3808517456054688
22281, -1.0529133081436157, -0.00542169576510787, 4.012852668762207, -0.01618320308625698, 0.4581558406352997, -8.430242538452148, -0.015941720455884933, 0.4046551585197449, -0.7924575805664062, -0.8009443879127502, -0.955887496471405, 0.06250811368227005, -1.0158311500003023, 0.5879709943361888, -3.960456442055435, 9362.0, 30146.0, 35388.0, 9362.0, 8.152067184448242, -0.14557109773159027, -0.5594602823257446, -0.2894204556941986, 0.009011692367494106, -0.07610958814620972, 0.9987736940383911, -0.0810486376285553, 0.014162063598632812, 1.4970703125, 1.10595703125, 1.194122314453125, 1.489013671875, 1.3330078125, 10.0, 1.3807374238967896, 1.5, 1.3807374238967896
22291, -1.051465630531311, -0.006772034335881472, 4.013382434844971, -0.01634320430457592, 0.46221137046813965, -8.438167572021484, -0.016058605164289474, 0.40645357966423035, -0.792495608329773, -0.8009528517723083, -0.955881655216217, 0.062476996332407, -1.0163038546603695, 0.5636426980645979, -3.9445888863499294, 9362.0, 30146.0, 35388.0, 9362.0, 8.152067184448242, -0.14557109773159027, -0.5594602823257446, -0.2894204556941986, 0.008771449327468872, -0.07511817663908005, 0.9999664425849915, -0.0810486376285553, 0.014162063598632812, 1.4970703125, 1.35791015625, 0.015869140625, 1.49267578125, 1.60400390625, 10.0, 1.3814115524291992, 1.5, 1.3814115524291992
22301, -1.050824761390686, -0.006047181785106659, 4.013998031616211, -0.016504362225532532, 0.4662849009037018, -8.44609260559082, -0.016173100098967552, 0.4082508385181427, -0.7924764752388, -0.8009584546089172, -0.9559035897254944, 0.062495652586221695, -1.0133295237253477, 0.559321750637622, -3.940521694780009, 9362.0, 30146.0, 35388.0, 9362.0, 8.152067184448242, -0.14557109773159027, -0.5594602823257446, -0.2894204556941986, 0.008191555738449097, -0.07525255531072617, 1.0008355379104614, -0.0810486376285553, 0.014162063598632812, 1.4970703125, 1.188720703125, 0.4511871337890625, 1.49267578125, 1.588623046875, 10.0, 1.3818609714508057, 1.5, 1.3818609714508057
22311, -1.0507923364639282, -0.0024629272520542145, 4.014123916625977, -0.016666671261191368, 0.4703764021396637, -8.45401668548584, -0.016288798302412033, 0.4100475609302521, -0.7924218773841858, -0.8009521961212158, -0.9559059739112854, 0.06247200071811676, -1.0208707373387402, 0.5683580921729856, -3.94526160528965, 9362.0, 30146.0, 35388.0, 9362.0, 8.152067184448242, -0.14557109773159027, -0.5594602823257446, -0.2894204556941986, 0.0068965693935751915, -0.07545622438192368, 0.9990668296813965, -0.0810486376285553, 0.014162063598632812, 1.4970703125, 1.367431640625, 0.0183258056640625, 1.49267578125, 1.09716796875, 10.0, 1.3820308446884155, 1.5, 1.3820308446884155
22321, -1.0497900247573853, -0.0033272888977080584, 4.014821529388428, -0.016830166801810265, 0.4744858145713806, -8.461942672729492, -0.016410231590270996, 0.41183769702911377, -0.7926996350288391, -0.8009904623031616, -0.9558888673782349, 0.06247060373425484, -1.0113875577362899, 0.5909501847310423, -3.954359290071885, 9362.0, 30146.0, 35388.0, 9362.0, 8.152067184448242, -0.14557109773159027, -0.5594602823257446, -0.2894204556941986, 0.009128383360803127, -0.07439921796321869, 0.9964635372161865, -0.0810486376285553, 0.014162063598632812, 1.4970703125, 1.56591796875, 0.337738037109375, 1.49267578125, 1.58349609375, 10.0, 1.381036639213562, 1.5, 1.381036639213562
22421, -1.0354713201522827, -0.0053656138479709625, 4.009180545806885, -0.018529901280999184, 0.5165594816207886, -8.54133129119873, -0.017570272088050842, 0.42959120869636536, -0.7950071096420288, -0.80096036195755, -0.9558932185173035, 0.0624825656414032, -1.0090646483837564, 0.567675926077527, -3.9563153215789875, 9362.0, 30146.0, 35388.0, 9362.0, 8.152067184448242, -0.017449790611863136, -0.32783427834510803, 0.0377633199095726, 0.007895254530012608, -0.07082464545965195, 0.9992666840553284, -0.06463942676782608, -0.08439826965332031, 1.489013671875, 1.5791015625, 0.368133544921875, 1.48681640625, 1.598876953125, 10.0, 1.3773757219314575, 1.5, 1.3773757219314575
23051, -1.0485289096832275, 0.004907774738967419, 4.022899627685547, -0.0316125862300396, 0.817089855670929, -9.039608001708984, -0.024880142882466316, 0.5400983095169067, -0.8124971985816956, -0.8009542226791382, -0.955882728099823, 0.06248767301440239, -1.0146982729987888, 0.5570396266113846, -3.9394480322331327, 9362.0, 30146.0, 35388.0, 9362.0, 8.152067184448242, 0.09425491839647293, 0.11652027070522308, 0.17541155219078064, 0.00728631392121315, -0.07393715530633926, 0.9971679449081421, -0.06824509799480438, 0.023120880126953125, 1.497802734375, 1.4501953125, 0.1050872802734375, 1.493408203125, 1.564453125, 10.0, 1.3859704732894897, 1.5, 1.3859704732894897
23281, -1.0623586177825928, 0.011408887803554535, 4.026051998138428, -0.036877021193504333, 0.9287006855010986, -9.202642440795898, -0.027869297191500664, 0.5761274695396423, -0.8178268671035767, -0.8009666800498962, -0.9558917284011841, 0.062498413026332855, -1.0116085627695697, 0.5810498522014882, -3.9466077658370735, 9362.0, 30146.0, 35388.0, 9362.0, 8.152067184448242, -0.020284611731767654, 0.053716082125902176, 0.20689643919467926, 0.007147550117224455, -0.07014167308807373, 0.9968234300613403, -0.056660398840904236, -0.1650371551513672, 1.482421875, 1.499267578125, 0.1941070556640625, 1.491943359375, 1.387939453125, 10.0, 1.385483980178833, 1.5, 1.385483980178833
23691, -1.0738482475280762, 0.015527823939919472, 4.039349555969238, -0.050895366817712784, 1.206298828125, -9.573421478271484, -0.034511443227529526, 0.6577516198158264, -0.830794632434845, -0.8009834289550781, -0.9558818340301514, 0.06248496100306511, -1.0133049698483652, 0.5782403451091795, -3.9539254783508966, 9362.0, 30146.0, 35388.0, 9362.0, 8.152067184448242, -0.020284611731767654, 0.053716082125902176, 0.20689643919467926, 0.008744391612708569, -0.07270016521215439, 0.99730384349823, -0.08444897830486298, -0.2635974884033203, 1.474365234375, 1.332275390625, 0.019561767578125, 1.48974609375, 1.519775390625, 10.0, 1.3885294198989868, 1.5, 1.3885294198989868
23731, -1.074965476989746, 0.014925289899110794, 4.039355754852295, -0.05193774029612541, 1.2261135578155518, -9.598362922668457, -0.03498197719454765, 0.6632305383682251, -0.831741213798523, -0.8009715676307678, -0.9558899402618408, 0.062478791922330856, -1.0086851230645453, 0.5802625611542283, -3.9553397272065336, 9362.0, 30146.0, 35388.0, 9362.0, 8.152067184448242, -0.020284611731767654, 0.053716082125902176, 0.20689643919467926, 0.00808941014111042, -0.07269220799207687, 0.9982289671897888, -0.08444897830486298, -0.2635974884033203, 1.474365234375, 1.162353515625, 0.637847900390625, 1.49267578125, 1.406982421875, 10.0, 1.3886828422546387, 1.5, 1.3886828422546387
24251, -1.0707767009735107, 0.003054950851947069, 4.064990520477295, -0.0696224719285965, 1.5504848957061768, -9.984155654907227, -0.041675321757793427, 0.7470041513442993, -0.8456083536148071, -0.8009619116783142, -0.9558937549591064, 0.06248884275555611, -1.004788860110148, 0.5553372645270258, -3.939704668430361, 9362.0, 30146.0, 35388.0, 9362.0, 8.152067184448242, 0.0390564426779747, 0.09888535737991333, 0.10623271763324738, 0.007531591225415468, -0.07052287459373474, 0.9955116510391235, -0.08046084642410278, -0.03959846496582031, 1.49267578125, 1.1982421875, 0.3938140869140625, 1.4912109375, 1.305908203125, 10.0, 1.3963780403137207, 1.5, 1.3963780403137207
24551, -1.0752359628677368, 0.006126276683062315, 4.085750102996826, -0.08549357950687408, 1.8312040567398071, -10.290603637695312, -0.046467725187540054, 0.8125985860824585, -0.8561798930168152, -0.8015968203544617, -0.9557964205741882, 0.0629551112651825, -0.9790505851130111, 0.5761593144641495, -3.819330734936058, 9362.0, 30146.0, 35388.0, 9362.0, 8.152067184448242, 0.0390564426779747, 0.09888535737991333, 0.10623271763324738, 0.008456663228571415, -0.0727514922618866, 0.9970178604125977, -0.0683828815817833, -0.08439826965332031, 1.489013671875, 1.430419921875, 0.0756378173828125, 1.486083984375, 1.598876953125, 10.0, 1.3990150690078735, 1.5, 1.3990150690078735
24601, -1.0755724906921387, 0.0018534065457060933, 4.087692737579346, -0.08830706030130386, 1.8802897930145264, -10.342007637023926, -0.047312602400779724, 0.82359379529953, -0.8574934601783752, -0.7977612614631653, -0.9564287066459656, 0.06374763697385788, -1.2387962465376412, -0.8754092195802343, -3.419339449402855, 9362.0, 30146.0, 35388.0, 9362.0, 8.152067184448242, 0.0390564426779747, 0.09888535737991333, 0.10623271763324738, 0.007664762903004885, -0.07332929223775864, 0.9961796402931213, -0.07144249230623245, 0.0052013397216796875, 1.496337890625, 1.439208984375, 0.0882415771484375, 1.48828125, 1.194580078125, 10.0, 1.399890661239624, 1.5, 1.399890661239624
24711, 0.0021520904265344143, 0.02435798943042755, 0.15086829662322998, -6.754896730853943e-08, 7.861990525270812e-08, -2.4503475287929177e-05, -5.140921985002933e-06, 8.651066309539601e-06, -0.002349910791963339, -0.7971078157424927, -0.955919623374939, 0.08283969759941101, -0.5453767415378594, -2.3655969662488587, -23.1088380734225, 56172.0, 39508.0, 65535.0, 36116.0, 8.152067184448242, 0.0390564426779747, 0.09888535737991333, 0.10623271763324738, -0.03989383950829506, -0.11780402809381485, 0.9771524667739868, -0.07112226635217667, -0.0037593841552734375, 1.49560546875, 1.40625, 0.04620361328125, 1.610595703125, 1.546875, 10.0, 1.4000264406204224, 1.5, 1.4000264406204224
24721, -0.035440053790807724, 0.07167647778987885, 0.7619736790657043, -3.115007984888507e-07, 1.4760789213141834e-07, -8.549061021767557e-05, -3.736169674084522e-05, -1.1013590039965493e-07, -0.009847136214375496, -0.8012885451316833, -0.953317403793335, 0.09003973752260208, -2.6537878801923016, -1.246838891120035, -22.866992817945142, 56172.0, 39508.0, 65535.0, 37105.0, 8.152067184448242, 0.0390564426779747, 0.09888535737991333, 0.10623271763324738, -0.05887424200773239, 0.04059659689664841, 0.9080204963684082, -0.07112226635217667, -0.0037593841552734375, 1.49560546875, 1.5673828125, 0.3411102294921875, 1.610595703125, 1.326416015625, 10.0, 1.3991947174072266, 1.5, 1.3991947174072266
24751, -0.01540877390652895, 1.2245450019836426, 1.2618169784545898, -0.8009796738624573, -0.9558846354484558, 0.06280567497015, -0.0026172983925789595, 0.00017052804469130933, 0.030489353463053703, -0.8038961291313171, -0.9519549012184143, 0.12238242477178574, -1.8726650116411272, 0.2780862666826067, -42.014241042086454, 49419.0, 20784.0, 65535.0, 46384.0, 8.152067184448242, -3.078253746032715, -53.284324645996094, -138.62460327148438, -0.039071228355169296, -0.3950815200805664, 1.0833039283752441, -0.07112226635217667, -0.0037593841552734375, 1.49560546875, 1.59521484375, 0.4058380126953125, 1.72705078125, 1.16748046875, 10.0, 1.3974404335021973, 1.5, 1.3974404335021973
24891, 0.22425217926502228, -1.0697132349014282, -1.9879802465438843, -0.8009769916534424, -0.9556905031204224, 0.0626417025923729, 0.02036433108150959, 0.003895232453942299, -0.07362616062164307, -0.7684594988822937, -0.9393326640129089, 0.22332258522510529, 5.423541690900698, 3.643253423100731, -40.887686274185604, 47963.0, 30469.0, 39864.0, 47777.0, 8.072728157043457, -3.078253746032715, -53.284324645996094, -138.62460327148438, 0.26167216897010803, 0.297139048576355, 0.2606474459171295, 0.2443387508392334, 0.014162063598632812, 1.4970703125, 1.60546875, 0.43011474609375, 1.60107421875, 1.634033203125, 10.0, 1.3965942859649658, 1.5, 1.3965942859649658
25201, 5.717605113983154, 0.142410546541214, -29.491737365722656, -0.7893915772438049, -0.9656886458396912, 0.19645489752292633, 0.07276570796966553, -0.1795337200164795, 0.7399882078170776, -0.7264232635498047, -0.9212599992752075, 0.4557768404483795, 11.081257041726849, -1.2776487629020323, -73.18135831100197, 40111.0, 29383.0, 2621.0, 43911.0, 7.83471155166626, -3.078253746032715, -53.284324645996094, -138.62460327148438, 0.04697185009717941, -0.011486252769827843, 3.930443525314331, 1.6841984987258911, 1.7255134582519531, 1.636962890625, 1.6259765625, 0.4795989990234375, 1.46923828125, 1.71826171875, 10.0, 1.4052138328552246, 1.5, 1.4052138328552246
25391, 6.58919620513916, -1.0250070095062256, -46.619537353515625, -0.7524877190589905, -0.9582532644271851, 0.3306652009487152, 0.08155978471040726, -0.16229228675365448, 0.8365322947502136, -0.7404962182044983, -0.9265350103378296, 0.617073118686676, 9.238519431037302, 4.243306651203795, -87.65310422839309, 39979.0, 31285.0, 2621.0, 42395.0, 7.795042037963867, -3.078253746032715, -53.284324645996094, -138.62460327148438, -1.2192130088806152, -1.1604080200195312, -0.25027912855148315, 1.5946999788284302, 1.0535163879394531, 1.58203125, 1.694091796875, 0.6522369384765625, 1.530029296875, 1.6025390625, 10.0, 1.4144171476364136, 1.5, 1.4144171476364136
25621, 8.746467590332031, 2.4140844345092773, -70.95610809326172, -0.7334014773368835, -0.9479160308837891, 0.49959346652030945, -0.07181204110383987, -0.1288565695285797, 0.722305417060852, -0.7930251955986023, -0.9098377823829651, 0.78603196144104, 5.3538393773221005, 3.251230021545638, -118.04108172577129, 39357.0, 28748.0, 2621.0, 43773.0, 7.715703010559082, -3.078253746032715, -53.284324645996094, -138.62460327148438, -1.7761706113815308, -0.5200680494308472, 1.718523383140564, 1.6065398454666138, 1.1789569854736328, 1.59228515625, 1.45166015625, 0.107452392578125, 1.46630859375, 1.68896484375, 10.0, 1.4272786378860474, 1.5, 1.4272786378860474
25791, 5.574583053588867, 2.2216289043426514, -84.030029296875, -0.7540678977966309, -0.9401257634162903, 0.6382688283920288, -0.2855673134326935, -0.039893850684165955, 0.7291322946548462, -0.8100506067276001, -0.8855018615722656, 0.9274360537528992, 1.7234233708684468, 4.142233498420609, -135.3445124424877, 40770.0, 29074.0, 2621.0, 42427.0, 7.735538005828857, -3.078253746032715, -53.284324645996094, -138.62460327148438, 1.176400899887085, -0.5137141346931458, 0.6872320175170898, 1.762640357017517, 2.173511505126953, 1.673583984375, 1.683837890625, 0.625091552734375, 1.537353515625, 1.582763671875, 10.0, 1.43790864944458, 1.5, 1.43790864944458
26021, -2.8780829906463623, 1.9151185750961304, -110.7838134765625, -0.8245275616645813, -0.9122236967086792, 0.8283138275146484, -0.33481302857398987, 0.11174539476633072, 0.8568728566169739, -0.7781729102134705, -0.8788289427757263, 1.1092185974121094, 2.6436200629140743, 2.1170595524898204, -158.67087392537664, 41087.0, 28560.0, 2621.0, 40807.0, 7.83471155166626, -162.7315216064453, -103.80208587646484, -334.74432373046875, -0.1277627944946289, 0.9537250399589539, 0.8959314227104187, 1.5645133256912231, 1.1341571807861328, 1.588623046875, 1.735107421875, 0.765777587890625, 1.53076171875, 1.639892578125, 10.0, 1.4510260820388794, 1.5, 1.4510260820388794
26071, -2.839730978012085, 2.21307373046875, -119.91230010986328, -0.8302145600318909, -0.9047625064849854, 0.8614460825920105, -0.2955544590950012, 0.12167665362358093, 0.8404483199119568, -0.7694402933120728, -0.9219890832901001, 1.1530406475067139, 8.623905461440485, 14.715672961800806, -132.85859097446013, 40052.0, 29070.0, 2621.0, 41642.0, 7.83471155166626, -162.7315216064453, -103.80208587646484, -334.74432373046875, -1.2205837965011597, -0.6718247532844543, 0.3024154603481293, 1.5162591934204102, 2.522951126098633, 1.7021484375, 1.729248046875, 0.748931884765625, 1.506591796875, 1.670654296875, 10.0, 1.4555467367172241, 1.5, 1.4555467367172241
26101, -3.2900147438049316, 2.4310922622680664, -121.77180480957031, -0.8332674503326416, -0.8971181511878967, 0.8954817652702332, -0.2558245360851288, 0.12962134182453156, 0.7447513937950134, -0.7616955041885376, -0.882226288318634, 1.1671628952026367, -0.1285259952916925, 3.215023643998421, -167.49964169999924, 40705.0, 28814.0, 2621.0, 40879.0, 7.83471155166626, -162.7315216064453, -103.80208587646484, -334.74432373046875, 0.46691301465034485, 0.6113260984420776, 0.01637173444032669, 1.5162591934204102, 2.522951126098633, 1.7021484375, 1.761474609375, 0.844970703125, 1.53662109375, 1.53076171875, 10.0, 1.4571127891540527, 1.5, 1.4571127891540527
26491, -2.8292429447174072, 1.3167132139205933, -162.29058837890625, -0.7838131785392761, -0.8640599250793457, 1.1806169748306274, 0.1260039210319519, 0.06238905340433121, 0.4951643645763397, -0.7294442653656006, -0.921013593673706, 1.2362732887268066, 5.300885360143414, -4.298816880195915, 164.72195074973607, 34502.0, 29934.0, 2621.0, 35978.0, 7.83471155166626, -162.7315216064453, -103.80208587646484, -334.74432373046875, 0.38763973116874695, 0.26274433732032776, 1.0449529886245728, 0.9018146395683289, 0.6323986053466797, 1.547607421875, 1.74609375, 0.7981414794921875, 1.494873046875, 1.726318359375, 10.0, 1.4778673648834229, 1.5, 1.4778673648834229
26531, -2.243055820465088, -0.16699710488319397, -163.56471252441406, -0.7713081240653992, -0.86788010597229, 1.198779821395874, 0.15408127009868622, 0.03247395157814026, 0.41580167412757874, -0.7294602394104004, -0.921168863773346, 1.2330087423324585, 4.437240519896119, -2.7596444275852434, -177.92674662776543, 34659.0, 29320.0, 2621.0, 35044.0, 7.83471155166626, 47.558048248291016, 40.166996002197266, 150.38026428222656, 0.5163702368736267, -0.5908124446868896, 0.3845019042491913, 0.9018146395683289, 0.6323986053466797, 1.547607421875, 1.711669921875, 0.6996002197265625, 1.496337890625, 1.726318359375, 10.0, 1.4785763025283813, 1.5, 1.4785763025283813
26721, -0.8796665668487549, -1.8865382671356201, -171.83078002929688, -0.727439284324646, -0.8918526768684387, 1.2391160726547241, 0.1676916629076004, -0.08077455312013626, 0.04910380393266678, -0.7622292637825012, -0.9260442852973938, 1.1817716360092163, 4.957824155555549, -7.182776909091103, 154.35784655960677, 36465.0, 28806.0, 14214.0, 36102.0, 7.83471155166626, 47.558048248291016, 40.166996002197266, 150.38026428222656, -0.1320246458053589, 0.5510083436965942, 1.5537248849868774, 0.9712445139884949, 1.0803966522216797, 1.584228515625, 1.7255859375, 0.7385406494140625, 1.500732421875, 1.4501953125, 10.0, 1.4862552881240845, 1.5, 1.4862552881240845
26731, -1.2171587944030762, -1.5521975755691528, -176.97683715820312, -0.7257677316665649, -0.8926639556884766, 1.2392938137054443, 0.166840061545372, -0.08138614892959595, -0.013529885560274124, -0.764997661113739, -0.924185574054718, 1.1779460906982422, 2.530876414164626, -4.7255932726937715, 154.55324046504927, 36322.0, 29052.0, 15737.0, 36499.0, 7.83471155166626, 47.558048248291016, 40.166996002197266, 150.38026428222656, -0.45352107286453247, 1.4726905822753906, 0.12294109910726547, 0.9712445139884949, 1.0803966522216797, 1.584228515625, 1.77685546875, 0.8942413330078125, 1.484619140625, 1.616455078125, 10.0, 1.4866409301757812, 1.5, 1.4866409301757812
26741, -0.5286508798599243, -1.7763069868087769, -176.3587188720703, -0.7241056561470032, -0.8934833407402039, 1.2389122247695923, 0.1658269613981247, -0.08309870958328247, -0.06277347356081009, -0.7680687308311462, -0.9232462644577026, 1.1758308410644531, 4.544741073639321, -5.502871894576572, 162.09345992031018, 36021.0, 29138.0, 18699.0, 36887.0, 7.83471155166626, 47.558048248291016, 40.166996002197266, 150.38026428222656, 0.9587541222572327, 0.4232928454875946, 0.8111899495124817, 0.9712445139884949, 1.0803966522216797, 1.584228515625, 1.711669921875, 0.6996002197265625, 1.484619140625, 1.638427734375, 10.0, 1.487647533416748, 1.5, 1.487647533416748
26751, 1.1338571310043335, -2.2524285316467285, -173.15367126464844, -0.7224581241607666, -0.8943182826042175, 1.2381467819213867, 0.16428416967391968, -0.08496256172657013, -0.09022671729326248, -0.7691488265991211, -0.9289179444313049, 1.1728143692016602, 6.595819541361514, -4.894686741554125, 176.46105276462666, 35104.0, 29874.0, 20245.0, 37942.0, 7.83471155166626, 169.40093994140625, 37.07560729980469, 386.8955993652344, 0.06384231150150299, -1.5533441305160522, 0.4014410674571991, 0.9712445139884949, 1.0803966522216797, 1.584228515625, 1.670654296875, 0.59100341796875, 1.53369140625, 1.638427734375, 10.0, 1.4882878065109253, 1.5, 1.4882878065109253
26771, 1.6334937810897827, -2.62823486328125, -172.87091064453125, -0.720848560333252, -0.8951558470726013, 1.2375575304031372, 0.15797129273414612, -0.0818329006433487, -0.027734871953725815, -0.7767641544342041, -0.9209470152854919, 1.1624797582626343, 4.127025876645028, -1.698639011506458, -154.41625043763867, 35038.0, 30729.0, 23535.0, 38764.0, 7.795042037963867, 169.40093994140625, 37.07560729980469, 386.8955993652344, -0.04975087568163872, -0.4821316599845886, 0.12124284356832504, 1.0896848440170288, 1.4119148254394531, 1.611328125, 1.541748046875, 0.2835540771484375, 1.5234375, 1.58935546875, 10.0, 1.489335060119629, 1.5, 1.489335060119629
26811, 0.6882395148277283, -2.8410983085632324, -171.2012939453125, -0.716839075088501, -0.9028045535087585, 1.2352060079574585, 0.1352725476026535, -0.08872122317552567, -0.03795645758509636, -0.7960676550865173, -0.9176567196846008, 1.154308795928955, 5.428511024683246, -5.234251637742034, 164.8359011311676, 35038.0, 30729.0, 23535.0, 38764.0, 7.795042037963867, 169.40093994140625, 37.07560729980469, 386.8955993652344, -0.17974267899990082, 1.1991429328918457, -0.08604730665683746, 1.0896848440170288, 1.4119148254394531, 1.611328125, 1.415771484375, 0.0568695068359375, 1.496337890625, 1.805419921875, 10.0, 1.4913923740386963, 1.5, 1.4913923740386963
26931, 2.5492122173309326, -4.304887294769287, -172.13111877441406, -0.7145147919654846, -0.9206467866897583, 1.2173744440078735, 0.03970865532755852, -0.0667334645986557, -0.23862746357917786, -0.8318493366241455, -0.8932583928108215, 1.1329673528671265, 5.195991785989559, 2.6192475819181027, -177.46342958369164, 38784.0, 30133.0, 22999.0, 38776.0, 7.874380588531494, 169.40093994140625, 37.07560729980469, 386.8955993652344, 0.6460268497467041, 1.6424213647842407, 1.3200820684432983, 1.0896848440170288, 1.4119148254394531, 1.611328125, 1.390869140625, 0.0319671630859375, 1.56005859375, 1.73583984375, 10.0, 1.4920614957809448, 1.5, 1.4920614957809448
27151, 0.9060973525047302, -1.7589466571807861, 171.60006713867188, -0.7678592801094055, -0.9258490204811096, 1.1692309379577637, -0.22616839408874512, 0.03865332528948784, -0.017264213413000107, -0.8663106560707092, -0.8392225503921509, 1.1230173110961914, 0.605052126953734, 5.755638654382437, -157.44376535929175, 40709.0, 29716.0, 15871.0, 39531.0, 7.775207042694092, -121.26223754882812, -87.30964660644531, -940.2771606445312, 0.2148769050836563, 0.1520216464996338, 2.4017977714538574, 1.4018610715866089, 1.8330326080322266, 1.645751953125, 1.390869140625, 0.0319671630859375, 1.59375, 1.767333984375, 10.0, 1.5081740617752075, 1.5, 1.5081740617752075
27451, -1.4968883991241455, 5.206108570098877, 179.86947631835938, -0.8655742406845093, -0.8784051537513733, 1.136270523071289, -0.21283598244190216, 0.10947930812835693, 0.14669188857078552, -0.8346396088600159, -0.781161367893219, 1.1373337507247925, 0.48679730191385, 2.549766617491713, -165.7313715992045, 39685.0, 32681.0, 39199.0, 41672.0, 7.775207042694092, -121.26223754882812, -87.30964660644531, -940.2771606445312, -1.4760005474090576, -0.5873233079910278, 2.0201523303985596, 1.5079936981201172, 1.8419933319091797, 1.646484375, 1.5615234375, 0.3278350830078125, 1.552001953125, 1.764404296875, 10.0, 1.5229086875915527, 1.5, 1.5229086875915527
27481, -2.8691112995147705, 4.938101768493652, -167.1172332763672, -0.8707318305969238, -0.8692518472671509, 1.1338225603103638, -0.21038700640201569, 0.13250644505023956, 0.030691247433423996, -0.8359302878379822, -0.7708859443664551, 1.1365777254104614, -1.6830590517623811, 4.763444147575882, 162.9416216856928, 39943.0, 27721.0, 29393.0, 40624.0, 7.695868015289307, -121.26223754882812, -87.30964660644531, -940.2771606445312, 1.0258290767669678, 0.4212341010570526, 0.8412377834320068, 1.538228154182434, 1.8330326080322266, 1.645751953125, 1.68896484375, 0.6385955810546875, 1.53955078125, 1.764404296875, 10.0, 1.5234342813491821, 1.5, 1.5234342813491821
